1223730643.006920, $GPGST,130946.20,4.181,2.512,1.036,271.6,2.511,1.038,3.189*5
1223730643.196841, $GPGGA,130946.40,4530.37198203,N,00910.00040753,E,2,6,2.0,153.807,M,48.022,M,1.4,0000*7
1223730643.206822, $GPGST,130946.40,4.181,2.512,1.036,271.6,2.511,1.038,3.189*5
1223730643.396769, $GPGGA,130946.60,4530.37197628,N,00910.00041133,E,2,6,2.0,153.799,M,48.022,M,0.6,0000*7
1223730643.406749, $GPGST,130946.60,4.181,2.512,1.036,271.6,2.511,1.038,3.189*5
1223730643.596697, $GPGGA,130946.80,4530.37198249,N,00910.00041207,E,2,6,2.0,153.810,M,48.022,M,0.8,0000*7
1223730643.606678, $GPGST,130946.80,4.181,2.512,1.036,271.6,2.511,1.038,3.189*5
1223730643.801629, $GPGGA,130947.00,4530.37198622,N,00910.00039072,E,2,6,2.0,153.801,M,48.022,M,1.0,0000*7
1223730643.811684, $GPGST,130947.00,4.170,2.511,1.033,271.7,2.510,1.036,3.187*5
1223730643.997559, $GPGGA,130947.20,4530.37198592,N,00910.00038996,E,2,6,2.0,153.805,M,48.022,M,1.2,0000*7
1223730644.006536, $GPGST,130947.20,4.170,2.511,1.033,271.7,2.510,1.036,3.187*5
1223730644.201483, $GPGGA,130947.40,4530.37198300,N,00910.00036506,E,2,6,2.0,153.796,M,48.022,M,1.4,0000*7
1223730644.211508, $GPGST,130947.40,4.175,2.514,1.035,271.7,2.513,1.037,3.191*5
1223730644.400413, $GPGGA,130947.60,4530.36959037,N,00909.99637678,E,2,5,2.3,141.139,M,48.022,M,0.6,0000*7
1223730644.410459, $GPGST,130947.60,0.226,0.156,0.082,285.1,0.152,0.089,0.245*5
1223730644.597343, $GPGGA,130947.80,4530.36958939,N,00909.99635384,E,2,5,2.3,141.100,M,48.022,M,0.8,0000*7
1223730644.606323, $GPGST,130947.80,0.226,0.156,0.082,285.1,0.152,0.089,0.245*5
1223730644.801271, $GPGGA,130948.00,4530.36957740,N,00909.99632217,E,2,5,2.3,141.047,M,48.022,M,1.0,0000*7
1223730644.811253, $GPGST,130948.00,0.225,0.156,0.082,285.1,0.152,0.089,0.245*5
1223730645.000200, $GPGGA,130948.20,4530.36962876,N,00909.99630274,E,2,4,3.3,140.873,M,48.022,M,1.2,0000*7
1223730645.010180, $GPGST,130948.20,0.000,0.938,0.312,287.5,0.900,0.410,0.961*5
1223730645.197134, $GPGGA,130948.40,4530.36961907,N,00909.99627292,E,2,4,3.3,140.876,M,48.022,M,1.4,0000*7
1223730645.206113, $GPGST,130948.40,0.000,0.938,0.312,287.5,0.900,0.410,0.961*5
1223730645.397058, $GPGGA,130948.60,4530.36960912,N,00909.99622919,E,2,4,3.3,140.874,M,48.022,M,0.6,0000*7
1223730645.407040, $GPGST,130948.60,0.000,0.938,0.312,287.5,0.900,0.410,0.961*5
1223730645.596989, $GPGGA,130948.80,4530.36959448,N,00909.99620049,E,2,4,3.3,140.875,M,48.022,M,0.8,0000*7
1223730645.606969, $GPGST,130948.80,0.000,0.938,0.312,287.5,0.900,0.410,0.961*5
1223730645.801916, $GPGGA,130949.00,4530.36960186,N,00909.99617422,E,2,4,3.3,140.926,M,48.022,M,1.0,0000*7
1223730645.810898, $GPGST,130949.00,0.000,0.938,0.312,287.5,0.899,0.410,0.961*5
1223730645.996847, $GPGGA,130949.20,4530.36959053,N,00909.99611473,E,2,4,3.3,140.926,M,48.022,M,1.2,0000*7
1223730646.006827, $GPGST,130949.20,0.000,0.938,0.312,287.5,0.899,0.410,0.961*5
1223730646.200775, $GPGGA,130949.40,4530.36958018,N,00909.99608696,E,2,4,3.3,140.925,M,48.022,M,1.4,0000*7
1223730646.209755, $GPGST,130949.40,0.000,0.938,0.312,287.5,0.899,0.410,0.961*5
1223730646.397703, $GPGGA,130949.60,4530.36957093,N,00909.99606009,E,2,4,3.3,140.925,M,48.022,M,0.6,0000*7
1223730646.406686, $GPGST,130949.60,0.000,0.938,0.312,287.5,0.899,0.410,0.961*5
1223730646.597636, $GPGGA,130949.80,4530.36954612,N,00909.99600716,E,2,4,3.3,140.924,M,48.022,M,0.8,0000*7
1223730646.606615, $GPGST,130949.80,0.000,0.938,0.312,287.5,0.899,0.410,0.961*5
1223730646.801563, $GPGGA,130950.00,4530.36954079,N,00909.99594832,E,2,4,3.3,140.923,M,48.022,M,1.0,0000*7
1223730646.811565, $GPGST,130950.00,0.000,0.939,0.312,287.5,0.901,0.410,0.961*5
1223730646.997494, $GPGGA,130950.20,4530.36953812,N,00909.99591052,E,2,4,3.3,140.924,M,48.022,M,1.2,0000*7
1223730647.006488, $GPGST,130950.20,0.000,0.939,0.312,287.5,0.901,0.410,0.961*5
1223730647.197423, $GPGGA,130950.40,4530.36951609,N,00909.99585844,E,2,4,3.3,140.924,M,48.022,M,1.4,0000*7
1223730647.207403, $GPGST,130950.40,0.000,0.939,0.312,287.5,0.901,0.410,0.961*5
1223730647.397351, $GPGGA,130950.60,4530.36950342,N,00909.99581513,E,2,4,3.3,140.922,M,48.022,M,0.6,0000*7
1223730647.407333, $GPGST,130950.60,0.000,0.939,0.312,287.5,0.901,0.410,0.961*5
1223730647.597282, $GPGGA,130950.80,4530.36949612,N,00909.99577128,E,2,4,3.3,140.922,M,48.022,M,0.8,0000*7
1223730647.607262, $GPGST,130950.80,0.000,0.939,0.312,287.5,0.901,0.410,0.961*5
1223730647.802212, $GPGGA,130951.00,4530.36948185,N,00909.99573154,E,2,4,3.3,140.923,M,48.022,M,1.0,0000*7
1223730647.811200, $GPGST,130951.00,0.000,0.940,0.312,287.4,0.902,0.410,0.960*5
1223730647.997142, $GPGGA,130951.20,4530.36947298,N,00909.99570205,E,2,4,3.3,140.925,M,48.022,M,1.2,0000*7
1223730648.007143, $GPGST,130951.20,0.000,0.940,0.312,287.4,0.902,0.410,0.960*5
1223730648.201070, $GPGGA,130951.40,4530.36946065,N,00909.99565340,E,2,4,3.3,140.921,M,48.022,M,1.4,0000*7
1223730648.210050, $GPGST,130951.40,0.000,0.940,0.313,287.4,0.902,0.410,0.960*5
1223730648.396999, $GPGGA,130951.60,4530.36945054,N,00909.99560459,E,2,4,3.3,140.923,M,48.022,M,0.6,0000*7
1223730648.406982, $GPGST,130951.60,0.000,0.940,0.313,287.4,0.902,0.410,0.960*5
1223730648.597929, $GPGGA,130951.80,4530.36945022,N,00909.99557085,E,2,4,3.3,140.924,M,48.022,M,0.8,0000*7
1223730648.606909, $GPGST,130951.80,0.000,0.940,0.313,287.4,0.902,0.410,0.960*5
1223730648.801857, $GPGGA,130952.00,4530.36940017,N,00909.99550462,E,2,4,3.3,140.925,M,48.022,M,1.0,0000*7
1223730648.811846, $GPGST,130952.00,0.000,0.939,0.312,287.4,0.901,0.410,0.960*5
1223730648.997788, $GPGGA,130952.20,4530.36939127,N,00909.99547005,E,2,4,3.3,140.925,M,48.022,M,1.2,0000*7
1223730649.007768, $GPGST,130952.20,0.000,0.939,0.312,287.4,0.901,0.410,0.960*5
1223730649.197717, $GPGGA,130952.40,4530.36937736,N,00909.99541411,E,2,4,3.3,140.925,M,48.022,M,1.4,0000*7
1223730649.207697, $GPGST,130952.40,0.000,0.939,0.312,287.4,0.901,0.410,0.960*5
1223730649.397647, $GPGGA,130952.60,4530.36935740,N,00909.99536524,E,2,4,3.3,140.924,M,48.022,M,0.6,0000*7
1223730649.407629, $GPGST,130952.60,0.000,0.939,0.312,287.4,0.901,0.410,0.960*5
1223730649.597576, $GPGGA,130952.80,4530.36934894,N,00909.99531195,E,2,4,3.3,140.925,M,48.022,M,0.8,0000*7
1223730649.607556, $GPGST,130952.80,0.000,0.939,0.312,287.4,0.901,0.410,0.960*5
1223730649.802504, $GPGGA,130953.00,4530.36932654,N,00909.99525165,E,2,4,3.3,140.925,M,48.022,M,1.0,0000*7
1223730649.811484, $GPGST,130953.00,0.000,0.938,0.312,287.5,0.900,0.410,0.961*5
1223730649.997438, $GPGGA,130953.20,4530.36932205,N,00909.99521325,E,2,4,3.3,140.925,M,48.022,M,1.2,0000*7
1223730650.007418, $GPGST,130953.20,0.000,0.938,0.312,287.5,0.900,0.410,0.961*5
1223730650.200375, $GPGGA,130953.40,4530.36929898,N,00909.99513879,E,2,4,3.3,140.929,M,48.022,M,1.4,0000*7
1223730650.210344, $GPGST,130953.40,0.000,0.938,0.312,287.4,0.900,0.410,0.961*5
1223730650.397294, $GPGGA,130953.60,4530.36926782,N,00909.99507412,E,2,4,3.3,140.926,M,48.022,M,0.6,0000*7
1223730650.407274, $GPGST,130953.60,0.000,0.938,0.312,287.4,0.900,0.410,0.961*5
1223730650.598224, $GPGGA,130953.80,4530.36926372,N,00909.99501110,E,2,4,3.3,140.929,M,48.022,M,0.8,0000*7
1223730650.608203, $GPGST,130953.80,0.000,0.938,0.312,287.4,0.900,0.410,0.961*5
1223730650.803151, $GPGGA,130954.00,4530.36923492,N,00909.99494749,E,2,4,3.3,140.925,M,48.022,M,1.0,0000*7
1223730650.812133, $GPGST,130954.00,0.000,0.937,0.313,287.4,0.899,0.409,0.961*5
1223730650.998082, $GPGGA,130954.20,4530.36921715,N,00909.99486610,E,2,4,3.3,140.927,M,48.022,M,1.2,0000*7
1223730651.008062, $GPGST,130954.20,0.000,0.937,0.313,287.4,0.899,0.409,0.961*5
1223730651.198013, $GPGGA,130954.40,4530.36918255,N,00909.99477626,E,2,4,3.3,140.927,M,48.022,M,1.4,0000*7
1223730651.207992, $GPGST,130954.40,0.000,0.937,0.313,287.4,0.899,0.409,0.961*5
1223730651.397942, $GPGGA,130954.60,4530.36917159,N,00909.99471457,E,2,4,3.3,140.924,M,48.022,M,0.6,0000*7
1223730651.407922, $GPGST,130954.60,0.000,0.937,0.313,287.4,0.899,0.409,0.961*5
1223730651.597870, $GPGGA,130954.80,4530.36915607,N,00909.99465259,E,2,4,3.3,140.927,M,48.022,M,0.8,0000*7
1223730651.607851, $GPGST,130954.80,0.000,0.937,0.313,287.4,0.899,0.409,0.961*5
1223730651.802799, $GPGGA,130955.00,4530.36913631,N,00909.99456902,E,2,4,3.3,140.923,M,48.022,M,1.0,0000*7
1223730651.812798, $GPGST,130955.00,0.000,0.937,0.312,287.4,0.899,0.409,0.961*5
1223730651.997730, $GPGGA,130955.20,4530.36908240,N,00909.99446365,E,2,4,3.3,140.924,M,48.022,M,1.2,0000*7
1223730652.007710, $GPGST,130955.20,0.000,0.937,0.312,287.4,0.899,0.409,0.961*5
1223730652.201658, $GPGGA,130955.40,4530.36907674,N,00909.99438344,E,2,4,3.3,140.924,M,48.022,M,1.4,0000*7
1223730652.210638, $GPGST,130955.40,0.000,0.937,0.312,287.4,0.899,0.409,0.961*5
1223730652.398588, $GPGGA,130955.60,4530.36905018,N,00909.99431880,E,2,4,3.3,140.921,M,48.022,M,0.6,0000*7
1223730652.407569, $GPGST,130955.60,0.000,0.937,0.312,287.4,0.899,0.409,0.961*5
1223730652.598518, $GPGGA,130955.80,4530.36902667,N,00909.99424112,E,2,4,3.3,140.921,M,48.022,M,0.8,0000*7
1223730652.607498, $GPGST,130955.80,0.000,0.937,0.312,287.4,0.899,0.409,0.961*5
1223730652.802467, $GPGGA,130956.00,4530.36900870,N,00909.99414227,E,2,4,3.3,140.917,M,48.022,M,1.0,0000*7
1223730652.812443, $GPGST,130956.00,0.000,0.936,0.312,287.4,0.899,0.409,0.961*5
1223730652.999377, $GPGGA,130956.20,4530.36897756,N,00909.99405992,E,2,4,3.3,140.918,M,48.022,M,1.2,0000*7
1223730653.008409, $GPGST,130956.20,0.000,0.936,0.312,287.4,0.899,0.409,0.961*5
1223730653.198308, $GPGGA,130956.40,4530.36896263,N,00909.99398383,E,2,4,3.3,140.918,M,48.022,M,1.4,0000*7
1223730653.208288, $GPGST,130956.40,0.000,0.936,0.312,287.4,0.899,0.409,0.961*5
1223730653.398244, $GPGGA,130956.60,4530.36892855,N,00909.99390230,E,2,4,3.3,140.918,M,48.022,M,0.6,0000*7
1223730653.408218, $GPGST,130956.60,0.000,0.936,0.312,287.4,0.899,0.409,0.961*5
1223730653.598165, $GPGGA,130956.80,4530.36890941,N,00909.99382190,E,2,4,3.3,140.919,M,48.022,M,0.8,0000*7
1223730653.608145, $GPGST,130956.80,0.000,0.936,0.312,287.4,0.899,0.409,0.961*5
1223730653.803093, $GPGGA,130957.00,4530.36886212,N,00909.99374060,E,2,4,3.3,140.918,M,48.022,M,1.0,0000*7
1223730653.812073, $GPGST,130957.00,0.000,0.938,0.312,287.4,0.900,0.409,0.961*5
1223730653.999024, $GPGGA,130957.20,4530.36884639,N,00909.99365471,E,2,4,3.3,140.914,M,48.022,M,1.2,0000*7
1223730654.008004, $GPGST,130957.20,0.000,0.938,0.312,287.4,0.900,0.409,0.961*5
1223730654.201952, $GPGGA,130957.40,4530.36881276,N,00909.99357635,E,2,4,3.3,140.917,M,48.022,M,1.4,0000*7
1223730654.211932, $GPGST,130957.40,0.000,0.938,0.312,287.3,0.900,0.409,0.960*5
1223730654.398882, $GPGGA,130957.60,4530.36878845,N,00909.99348151,E,2,4,3.3,140.918,M,48.022,M,0.6,0000*7
1223730654.407863, $GPGST,130957.60,0.000,0.938,0.312,287.3,0.900,0.409,0.960*5
1223730654.598812, $GPGGA,130957.80,4530.36874144,N,00909.99339893,E,2,4,3.3,140.915,M,48.022,M,0.8,0000*7
1223730654.608792, $GPGST,130957.80,0.000,0.938,0.312,287.3,0.900,0.409,0.960*5
1223730654.802740, $GPGGA,130958.00,4530.36873915,N,00909.99333629,E,2,4,3.3,140.922,M,48.022,M,1.0,0000*7
1223730654.812722, $GPGST,130958.00,0.000,0.938,0.312,287.3,0.900,0.409,0.961*5
1223730654.998673, $GPGGA,130958.20,4530.36870873,N,00909.99325626,E,2,4,3.3,140.921,M,48.022,M,1.2,0000*7
1223730655.008651, $GPGST,130958.20,0.000,0.938,0.312,287.3,0.900,0.409,0.961*5
1223730655.198600, $GPGGA,130958.40,4530.36867030,N,00909.99314192,E,2,4,3.3,140.918,M,48.022,M,1.4,0000*7
1223730655.208580, $GPGST,130958.40,0.000,0.938,0.312,287.3,0.900,0.409,0.961*5
1223730655.398529, $GPGGA,130958.60,4530.36864736,N,00909.99305888,E,2,4,3.3,140.920,M,48.022,M,0.6,0000*7
1223730655.408511, $GPGST,130958.60,0.000,0.938,0.312,287.3,0.900,0.409,0.961*5
1223730655.598461, $GPGGA,130958.80,4530.36863617,N,00909.99297824,E,2,4,3.3,140.918,M,48.022,M,0.8,0000*7
1223730655.608443, $GPGST,130958.80,0.000,0.938,0.312,287.3,0.900,0.409,0.961*5
1223730655.803388, $GPGGA,130959.00,4530.36857099,N,00909.99287382,E,2,4,3.3,140.916,M,48.022,M,1.0,0000*7
1223730655.813576, $GPGST,130959.00,0.000,0.937,0.312,287.3,0.900,0.409,0.961*5
1223730655.999320, $GPGGA,130959.20,4530.36855258,N,00909.99277026,E,2,4,3.3,140.914,M,48.022,M,1.2,0000*7
1223730656.009300, $GPGST,130959.20,0.000,0.937,0.312,287.3,0.900,0.409,0.961*5
1223730656.202245, $GPGGA,130959.40,4530.36852552,N,00909.99269095,E,2,4,3.3,140.914,M,48.022,M,1.4,0000*7
1223730656.212226, $GPGST,130959.40,0.000,0.938,0.312,287.3,0.900,0.408,0.961*5
1223730656.399177, $GPGGA,130959.60,4530.36847874,N,00909.99260502,E,2,4,3.3,140.915,M,48.022,M,0.6,0000*7
1223730656.409157, $GPGST,130959.60,0.000,0.938,0.312,287.3,0.900,0.408,0.961*5
1223730656.599106, $GPGGA,130959.80,4530.36847304,N,00909.99251679,E,2,4,3.3,140.914,M,48.022,M,0.8,0000*7
1223730656.609086, $GPGST,130959.80,0.000,0.938,0.312,287.3,0.900,0.408,0.961*5
1223730656.804034, $GPGGA,131000.00,4530.36845098,N,00909.99242801,E,2,4,3.3,140.913,M,48.022,M,1.0,0000*7
1223730656.813015, $GPGST,131000.00,0.000,0.937,0.312,287.3,0.899,0.408,0.961*5
1223730656.998966, $GPGGA,131000.20,4530.36842082,N,00909.99233142,E,2,4,3.3,140.910,M,48.022,M,1.2,0000*7
1223730657.008945, $GPGST,131000.20,0.000,0.937,0.312,287.3,0.899,0.408,0.961*5
1223730657.198893, $GPGGA,131000.40,4530.36839880,N,00909.99224399,E,2,4,3.3,140.915,M,48.022,M,1.4,0000*7
1223730657.208874, $GPGST,131000.40,0.000,0.937,0.312,287.3,0.899,0.408,0.961*5
1223730657.398843, $GPGGA,131000.60,4530.36834490,N,00909.99215570,E,2,4,3.3,140.912,M,48.022,M,0.6,0000*7
1223730657.408804, $GPGST,131000.60,0.000,0.937,0.312,287.3,0.899,0.408,0.961*5
1223730657.599753, $GPGGA,131000.80,4530.36834272,N,00909.99207653,E,2,4,3.3,140.911,M,48.022,M,0.8,0000*7
1223730657.608733, $GPGST,131000.80,0.000,0.937,0.312,287.3,0.899,0.408,0.961*5
1223730657.803681, $GPGGA,131001.00,4530.36830693,N,00909.99197205,E,2,4,3.3,140.904,M,48.022,M,1.0,0000*7
1223730657.813681, $GPGST,131001.00,0.000,0.937,0.313,287.4,0.899,0.409,0.961*5
1223730657.999622, $GPGGA,131001.20,4530.36826450,N,00909.99187764,E,2,4,3.3,140.904,M,48.022,M,1.2,0000*7
1223730658.009616, $GPGST,131001.20,0.000,0.937,0.313,287.4,0.899,0.409,0.961*5
1223730658.202683, $GPGGA,131001.40,4530.36823846,N,00909.99179259,E,2,4,3.3,140.914,M,48.022,M,1.4,0000*7
1223730658.212523, $GPGST,131001.40,0.000,0.937,0.313,287.3,0.900,0.409,0.960*5
1223730658.399478, $GPGGA,131001.60,4530.36821008,N,00909.99170032,E,2,4,3.3,140.912,M,48.022,M,0.6,0000*7
1223730658.409456, $GPGST,131001.60,0.000,0.937,0.313,287.3,0.900,0.409,0.960*5
1223730658.599404, $GPGGA,131001.80,4530.36817726,N,00909.99162363,E,2,4,3.3,140.914,M,48.022,M,0.8,0000*7
1223730658.609380, $GPGST,131001.80,0.000,0.937,0.313,287.3,0.900,0.409,0.960*5
1223730658.804328, $GPGGA,131002.00,4530.36813349,N,00909.99153128,E,2,4,3.3,140.910,M,48.022,M,1.0,0000*7
1223730658.813322, $GPGST,131002.00,0.000,0.936,0.312,287.3,0.899,0.408,0.961*5
1223730659.000258, $GPGGA,131002.20,4530.36811692,N,00909.99144334,E,2,4,3.3,140.906,M,48.022,M,1.2,0000*7
1223730659.010239, $GPGST,131002.20,0.000,0.936,0.312,287.3,0.899,0.408,0.961*5
1223730659.199194, $GPGGA,131002.40,4530.36808804,N,00909.99135109,E,2,4,3.3,140.909,M,48.022,M,1.4,0000*7
1223730659.209171, $GPGST,131002.40,0.000,0.936,0.312,287.3,0.899,0.408,0.961*5
1223730659.400117, $GPGGA,131002.60,4530.36804334,N,00909.99126352,E,2,4,3.3,140.908,M,48.022,M,0.6,0000*7
1223730659.409098, $GPGST,131002.60,0.000,0.936,0.312,287.3,0.899,0.408,0.961*5
1223730659.600047, $GPGGA,131002.80,4530.36802529,N,00909.99117973,E,2,4,3.3,140.910,M,48.022,M,0.8,0000*7
1223730659.609028, $GPGST,131002.80,0.000,0.936,0.312,287.3,0.899,0.408,0.961*5
1223730659.803975, $GPGGA,131003.00,4530.36799691,N,00909.99107818,E,2,4,3.3,140.903,M,48.022,M,1.0,0000*7
1223730659.813991, $GPGST,131003.00,0.000,0.936,0.312,287.3,0.899,0.408,0.961*5
1223730659.999906, $GPGGA,131003.20,4530.36795288,N,00909.99099398,E,2,4,3.3,140.904,M,48.022,M,1.2,0000*7
1223730660.009886, $GPGST,131003.20,0.000,0.936,0.312,287.3,0.899,0.408,0.961*5
1223730660.202837, $GPGGA,131003.40,4530.36793306,N,00909.99089343,E,2,4,3.3,140.905,M,48.022,M,1.4,0000*7
1223730660.212821, $GPGST,131003.40,0.000,0.936,0.313,287.3,0.899,0.408,0.961*5
1223730660.399767, $GPGGA,131003.60,4530.36789666,N,00909.99080509,E,2,4,3.3,140.906,M,48.022,M,0.6,0000*7
1223730660.409747, $GPGST,131003.60,0.000,0.936,0.313,287.3,0.899,0.408,0.961*5
1223730660.600704, $GPGGA,131003.80,4530.36790855,N,00909.99072305,E,2,4,3.3,140.903,M,48.022,M,0.8,0000*7
1223730660.609676, $GPGST,131003.80,0.000,0.936,0.313,287.3,0.899,0.408,0.961*5
1223730660.804625, $GPGGA,131004.00,4530.36783187,N,00909.99062789,E,2,4,3.3,140.908,M,48.022,M,1.0,0000*7
1223730660.814755, $GPGST,131004.00,0.000,0.936,0.312,287.3,0.899,0.408,0.961*5
1223730660.999567, $GPGGA,131004.20,4530.36781372,N,00909.99052672,E,2,4,3.3,140.908,M,48.022,M,1.2,0000*7
1223730661.009535, $GPGST,131004.20,0.000,0.936,0.312,287.3,0.899,0.408,0.961*5
1223730661.200483, $GPGGA,131004.40,4530.36777724,N,00909.99042987,E,2,4,3.3,140.907,M,48.022,M,1.4,0000*7
1223730661.209464, $GPGST,131004.40,0.000,0.936,0.312,287.3,0.899,0.408,0.961*5
1223730661.400413, $GPGGA,131004.60,4530.36778368,N,00909.99033560,E,2,4,3.3,140.907,M,48.022,M,0.6,0000*7
1223730661.409393, $GPGST,131004.60,0.000,0.936,0.312,287.3,0.899,0.408,0.961*5
1223730661.600342, $GPGGA,131004.80,4530.36773691,N,00909.99023330,E,2,4,3.3,140.906,M,48.022,M,0.8,0000*7
1223730661.609336, $GPGST,131004.80,0.000,0.936,0.312,287.3,0.899,0.408,0.961*5
1223730661.805276, $GPGGA,131005.00,4530.36772210,N,00909.99012279,E,2,4,3.3,140.905,M,48.022,M,1.0,0000*7
1223730661.814344, $GPGST,131005.00,0.000,0.936,0.313,287.3,0.898,0.408,0.961*5
1223730662.000198, $GPGGA,131005.20,4530.36768096,N,00909.99003273,E,2,4,3.3,140.910,M,48.022,M,1.2,0000*7
1223730662.010180, $GPGST,131005.20,0.000,0.936,0.313,287.3,0.898,0.408,0.961*5
1223730662.204132, $GPGGA,131005.40,4530.36766329,N,00909.98993753,E,2,4,3.3,140.909,M,48.022,M,1.4,0000*7
1223730662.213109, $GPGST,131005.40,0.000,0.936,0.313,287.3,0.899,0.408,0.961*5
1223730662.400059, $GPGGA,131005.60,4530.36765292,N,00909.98984572,E,2,4,3.3,140.903,M,48.022,M,0.6,0000*7
1223730662.410038, $GPGST,131005.60,0.000,0.936,0.313,287.3,0.899,0.408,0.961*5
1223730662.600988, $GPGGA,131005.80,4530.36762968,N,00909.98974088,E,2,4,3.3,140.908,M,48.022,M,0.8,0000*7
1223730662.610883, $GPGST,131005.80,0.000,0.936,0.313,287.3,0.899,0.408,0.961*5
1223730662.804916, $GPGGA,131006.00,4530.36760563,N,00909.98964129,E,2,4,3.3,140.902,M,48.022,M,1.0,0000*7
1223730662.814966, $GPGST,131006.00,0.000,0.936,0.313,287.3,0.898,0.408,0.961*5
1223730663.000854, $GPGGA,131006.20,4530.36758603,N,00909.98955558,E,2,4,3.3,140.904,M,48.022,M,1.2,0000*7
1223730663.010828, $GPGST,131006.20,0.000,0.936,0.313,287.3,0.898,0.408,0.961*5
1223730663.200778, $GPGGA,131006.40,4530.36758066,N,00909.98947129,E,2,4,3.3,140.904,M,48.022,M,1.4,0000*7
1223730663.210778, $GPGST,131006.40,0.000,0.936,0.313,287.3,0.898,0.408,0.961*5
1223730663.400707, $GPGGA,131006.60,4530.36755179,N,00909.98936851,E,2,4,3.3,140.906,M,48.022,M,0.6,0000*7
1223730663.410697, $GPGST,131006.60,0.000,0.936,0.313,287.3,0.898,0.408,0.961*5
1223730663.600635, $GPGGA,131006.80,4530.36753096,N,00909.98928638,E,2,4,3.3,140.909,M,48.022,M,0.8,0000*7
1223730663.610617, $GPGST,131006.80,0.000,0.936,0.313,287.3,0.898,0.408,0.961*5
1223730663.804562, $GPGGA,131007.00,4530.36752710,N,00909.98918406,E,2,4,3.3,140.906,M,48.022,M,1.0,0000*7
1223730663.814561, $GPGST,131007.00,0.000,0.935,0.313,287.3,0.898,0.408,0.961*5
1223730664.000492, $GPGGA,131007.20,4530.36750572,N,00909.98908435,E,2,4,3.3,140.904,M,48.022,M,1.2,0000*7
1223730664.010473, $GPGST,131007.20,0.000,0.935,0.313,287.3,0.898,0.408,0.961*5
1223730664.203421, $GPGGA,131007.40,4530.36748345,N,00909.98898746,E,2,4,3.3,140.906,M,48.022,M,1.4,0000*7
1223730664.213401, $GPGST,131007.40,0.000,0.936,0.313,287.3,0.898,0.408,0.961*5
1223730664.400352, $GPGGA,131007.60,4530.36746414,N,00909.98890963,E,2,4,3.3,140.905,M,48.022,M,0.6,0000*7
1223730664.410332, $GPGST,131007.60,0.000,0.936,0.313,287.3,0.898,0.408,0.961*5
1223730664.600281, $GPGGA,131007.80,4530.36745147,N,00909.98881154,E,2,4,3.3,140.904,M,48.022,M,0.8,0000*7
1223730664.611172, $GPGST,131007.80,0.000,0.936,0.313,287.3,0.898,0.408,0.961*5
1223730664.805209, $GPGGA,131008.00,4530.36741431,N,00909.98870580,E,2,4,3.3,140.906,M,48.022,M,1.0,0000*7
1223730664.815279, $GPGST,131008.00,0.000,0.936,0.312,287.2,0.899,0.407,0.961*5
1223730665.001139, $GPGGA,131008.20,4530.36740948,N,00909.98861771,E,2,4,3.3,140.911,M,48.022,M,1.2,0000*7
1223730665.010135, $GPGST,131008.20,0.000,0.936,0.312,287.2,0.899,0.407,0.961*5
1223730665.201069, $GPGGA,131008.40,4530.36738223,N,00909.98853363,E,2,4,3.3,140.908,M,48.022,M,1.4,0000*7
1223730665.211049, $GPGST,131008.40,0.000,0.936,0.312,287.2,0.899,0.407,0.961*5
1223730665.400998, $GPGGA,131008.60,4530.36736188,N,00909.98843668,E,2,4,3.3,140.909,M,48.022,M,0.6,0000*7
1223730665.410979, $GPGST,131008.60,0.000,0.936,0.312,287.2,0.899,0.407,0.961*5
1223730665.600931, $GPGGA,131008.80,4530.36736018,N,00909.98835343,E,2,4,3.3,140.909,M,48.022,M,0.8,0000*7
1223730665.610914, $GPGST,131008.80,0.000,0.936,0.312,287.2,0.899,0.407,0.961*5
1223730665.805855, $GPGGA,131009.00,4530.36734266,N,00909.98824885,E,2,4,3.3,140.904,M,48.022,M,1.0,0000*7
1223730665.815936, $GPGST,131009.00,0.000,0.933,0.313,287.3,0.896,0.407,0.961*5
1223730666.000786, $GPGGA,131009.20,4530.36730827,N,00909.98815554,E,2,4,3.3,140.902,M,48.022,M,1.2,0000*7
1223730666.010767, $GPGST,131009.20,0.000,0.933,0.313,287.3,0.896,0.407,0.961*5
1223730666.204718, $GPGGA,131009.40,4530.36729732,N,00909.98803830,E,2,4,3.3,140.908,M,48.022,M,1.4,0000*7
1223730666.213697, $GPGST,131009.40,0.000,0.933,0.313,287.3,0.896,0.407,0.961*5
1223730666.401655, $GPGGA,131009.60,4530.36725909,N,00909.98794070,E,2,4,3.3,140.906,M,48.022,M,0.6,0000*7
1223730666.411637, $GPGST,131009.60,0.000,0.933,0.313,287.3,0.896,0.407,0.961*5
1223730666.601584, $GPGGA,131009.80,4530.36725270,N,00909.98784911,E,2,4,3.3,140.909,M,48.022,M,0.8,0000*7
1223730666.611750, $GPGST,131009.80,0.000,0.933,0.313,287.3,0.896,0.407,0.961*5
1223730666.805506, $GPGGA,131010.00,4530.36724983,N,00909.98777432,E,2,4,3.3,140.904,M,48.022,M,1.0,0000*7
1223730666.815771, $GPGST,131010.00,0.000,0.934,0.312,287.2,0.897,0.406,0.961*5
1223730667.001435, $GPGGA,131010.20,4530.36724570,N,00909.98767098,E,2,4,3.3,140.908,M,48.022,M,1.2,0000*7
1223730667.011417, $GPGST,131010.20,0.000,0.934,0.312,287.2,0.897,0.406,0.961*5
1223730667.201390, $GPGGA,131010.40,4530.36720518,N,00909.98756526,E,2,4,3.3,140.907,M,48.022,M,1.4,0000*7
1223730667.211345, $GPGST,131010.40,0.000,0.934,0.312,287.2,0.897,0.406,0.961*5
1223730667.401294, $GPGGA,131010.60,4530.36720291,N,00909.98745935,E,2,4,3.3,140.905,M,48.022,M,0.6,0000*7
1223730667.411275, $GPGST,131010.60,0.000,0.934,0.312,287.2,0.897,0.406,0.961*5
1223730667.601296, $GPGGA,131010.80,4530.36718536,N,00909.98736514,E,2,4,3.3,140.907,M,48.022,M,0.8,0000*7
1223730667.611318, $GPGST,131010.80,0.000,0.934,0.312,287.2,0.897,0.406,0.961*5
1223730667.807153, $GPGGA,131011.00,4530.36713112,N,00909.98723445,E,2,4,3.3,140.903,M,48.022,M,1.0,0000*7
1223730667.816493, $GPGST,131011.00,0.000,0.934,0.312,287.2,0.897,0.406,0.961*5
1223730668.002141, $GPGGA,131011.20,4530.36709303,N,00909.98712322,E,2,4,3.3,140.906,M,48.022,M,1.2,0000*7
1223730668.011100, $GPGST,131011.20,0.000,0.934,0.312,287.2,0.897,0.406,0.961*5
1223730668.205010, $GPGGA,131011.40,4530.36708746,N,00909.98701951,E,2,4,3.3,140.900,M,48.022,M,1.4,0000*7
1223730668.215067, $GPGST,131011.40,0.000,0.934,0.312,287.2,0.897,0.406,0.961*5
1223730668.401948, $GPGGA,131011.60,4530.36704651,N,00909.98688811,E,2,4,3.3,140.902,M,48.022,M,1.6,0000*7
1223730668.411931, $GPGST,131011.60,0.000,0.934,0.312,287.2,0.897,0.406,0.961*5
1223730668.601878, $GPGGA,131011.80,4530.36704419,N,00909.98678027,E,2,4,3.3,140.902,M,48.022,M,1.8,0000*7
1223730668.612046, $GPGST,131011.80,0.000,0.934,0.312,287.2,0.897,0.406,0.961*5
1223730668.804796, $GPGGA,131012.00,4530.36653162,N,00909.98663699,E,2,3,4.5,141.003,M,48.022,M,2.0,0000*7
1223730668.814802, $GPGST,131012.00,0.000,1.381,0.378,279.0,1.365,0.431,1.023*5
1223730669.001726, $GPGGA,131012.20,4530.36652467,N,00909.98654019,E,2,3,4.5,141.002,M,48.022,M,2.2,0000*7
1223730669.011707, $GPGST,131012.20,0.000,1.381,0.378,279.0,1.365,0.431,1.023*5
1223730669.201656, $GPGGA,131012.40,4530.36646454,N,00909.98640061,E,2,3,4.5,141.002,M,48.022,M,2.4,0000*7
1223730669.211636, $GPGST,131012.40,0.000,1.381,0.378,279.0,1.365,0.431,1.023*5
1223730669.401586, $GPGGA,131012.60,4530.36646081,N,00909.98627991,E,2,3,4.5,141.002,M,48.022,M,0.6,0000*7
1223730669.411566, $GPGST,131012.60,0.000,1.381,0.378,279.0,1.365,0.431,1.023*5
1223730669.601515, $GPGGA,131012.80,4530.36645011,N,00909.98615390,E,2,3,4.5,141.002,M,48.022,M,0.8,0000*7
1223730669.611498, $GPGST,131012.80,0.000,1.381,0.378,279.0,1.365,0.431,1.023*5
1223730669.805444, $GPGGA,131013.00,4530.36639749,N,00909.98601949,E,2,3,4.5,141.001,M,48.022,M,1.0,0000*7
1223730669.815444, $GPGST,131013.00,0.000,1.379,0.377,279.0,1.363,0.431,1.024*5
1223730670.002379, $GPGGA,131013.20,4530.36633577,N,00909.98586632,E,2,3,4.5,141.001,M,48.022,M,1.2,0000*7
1223730670.011354, $GPGST,131013.20,0.000,1.379,0.377,279.0,1.363,0.431,1.024*5
1223730670.204303, $GPGGA,131013.40,4530.36630855,N,00909.98573632,E,2,3,4.5,141.001,M,48.022,M,1.4,0000*7
1223730670.214283, $GPGST,131013.40,0.000,1.378,0.377,279.0,1.362,0.431,1.023*5
1223730670.402238, $GPGGA,131013.60,4530.36627379,N,00909.98559987,E,2,3,4.5,141.001,M,48.022,M,0.6,0000*7
1223730670.411213, $GPGST,131013.60,0.000,1.378,0.377,279.0,1.362,0.431,1.023*5
1223730670.602168, $GPGGA,131013.80,4530.36627046,N,00909.98547817,E,2,3,4.5,141.001,M,48.022,M,0.8,0000*7
1223730670.612164, $GPGST,131013.80,0.000,1.378,0.377,279.0,1.362,0.431,1.023*5
1223730670.806090, $GPGGA,131014.00,4530.36628386,N,00909.98534010,E,2,3,4.5,141.002,M,48.022,M,1.0,0000*7
1223730670.815082, $GPGST,131014.00,0.000,1.377,0.378,279.0,1.361,0.431,1.024*5
1223730671.002027, $GPGGA,131014.20,4530.36620486,N,00909.98519974,E,2,3,4.5,141.001,M,48.022,M,1.2,0000*7
1223730671.012008, $GPGST,131014.20,0.000,1.377,0.378,279.0,1.361,0.431,1.024*5
1223730671.201950, $GPGGA,131014.40,4530.36618735,N,00909.98507467,E,2,3,4.5,141.001,M,48.022,M,1.4,0000*7
1223730671.211930, $GPGST,131014.40,0.000,1.377,0.378,279.0,1.361,0.431,1.024*5
1223730671.401880, $GPGGA,131014.60,4530.36615857,N,00909.98495559,E,2,3,4.5,141.001,M,48.022,M,0.6,0000*7
1223730671.411860, $GPGST,131014.60,0.000,1.377,0.378,279.0,1.361,0.431,1.024*5
1223730671.602814, $GPGGA,131014.80,4530.36613568,N,00909.98481354,E,2,3,4.5,141.001,M,48.022,M,0.8,0000*7
1223730671.611791, $GPGST,131014.80,0.000,1.377,0.378,279.0,1.361,0.431,1.024*5
1223730671.806736, $GPGGA,131015.00,4530.36607736,N,00909.98466631,E,2,3,4.5,141.001,M,48.022,M,1.0,0000*7
1223730671.816807, $GPGST,131015.00,0.000,1.376,0.377,279.1,1.360,0.431,1.024*5
1223730672.002673, $GPGGA,131015.20,4530.36606383,N,00909.98454796,E,2,3,4.5,141.001,M,48.022,M,1.2,0000*7
1223730672.011648, $GPGST,131015.20,0.000,1.376,0.377,279.1,1.360,0.431,1.024*5
1223730672.204600, $GPGGA,131015.40,4530.36600951,N,00909.98440974,E,2,3,4.5,141.001,M,48.022,M,1.4,0000*7
1223730672.214579, $GPGST,131015.40,0.000,1.375,0.377,279.1,1.359,0.431,1.024*5
1223730672.402537, $GPGGA,131015.60,4530.36598997,N,00909.98428965,E,2,3,4.5,141.001,M,48.022,M,1.6,0000*7
1223730672.412520, $GPGST,131015.60,0.000,1.375,0.377,279.1,1.359,0.431,1.024*5
1223730672.602465, $GPGGA,131015.80,4530.36594947,N,00909.98416495,E,2,3,4.5,141.001,M,48.022,M,1.8,0000*7
1223730672.612615, $GPGST,131015.80,0.000,1.375,0.377,279.1,1.359,0.431,1.024*5
1223730672.806387, $GPGGA,131016.00,4530.36590752,N,00909.98402473,E,2,3,4.5,141.001,M,48.022,M,2.0,0000*7
1223730672.816496, $GPGST,131016.00,0.000,1.376,0.378,279.1,1.360,0.431,1.023*5
1223730673.002328, $GPGGA,131016.20,4530.36587978,N,00909.98390159,E,2,3,4.5,141.001,M,48.022,M,2.2,0000*7
1223730673.012310, $GPGST,131016.20,0.000,1.376,0.378,279.1,1.360,0.431,1.023*5
1223730673.202249, $GPGGA,131016.40,4530.36583221,N,00909.98375820,E,2,3,4.5,141.001,M,48.022,M,2.4,0000*7
1223730673.212226, $GPGST,131016.40,0.000,1.376,0.378,279.1,1.360,0.431,1.023*5
1223730673.403189, $GPGGA,131016.60,4530.36581475,N,00909.98361705,E,2,3,4.5,141.001,M,48.022,M,0.6,0000*7
1223730673.413164, $GPGST,131016.60,0.000,1.376,0.378,279.1,1.360,0.431,1.023*5
1223730673.603111, $GPGGA,131016.80,4530.36578114,N,00909.98349628,E,2,3,4.5,141.000,M,48.022,M,0.8,0000*7
1223730673.612087, $GPGST,131016.80,0.000,1.376,0.378,279.1,1.360,0.431,1.023*5
1223730673.806031, $GPGGA,131017.00,4530.36574099,N,00909.98333957,E,2,3,4.5,141.001,M,48.022,M,1.0,0000*7
1223730673.816032, $GPGST,131017.00,0.000,1.377,0.377,279.0,1.361,0.430,1.023*5
1223730674.002967, $GPGGA,131017.20,4530.36573729,N,00909.98324280,E,2,3,4.5,141.001,M,48.022,M,1.2,0000*7
1223730674.012957, $GPGST,131017.20,0.000,1.377,0.377,279.0,1.361,0.430,1.023*5
1223730674.204890, $GPGGA,131017.40,4530.36569002,N,00909.98309421,E,2,3,4.5,141.001,M,48.022,M,1.4,0000*7
1223730674.214870, $GPGST,131017.40,0.000,1.376,0.377,279.0,1.360,0.430,1.022*5
1223730674.402826, $GPGGA,131017.60,4530.36566100,N,00909.98294791,E,2,3,4.5,141.001,M,48.022,M,0.6,0000*7
1223730674.412807, $GPGST,131017.60,0.000,1.376,0.377,279.0,1.360,0.430,1.022*5
1223730674.602756, $GPGGA,131017.80,4530.36564904,N,00909.98281306,E,2,3,4.5,141.001,M,48.022,M,0.8,0000*7
1223730674.612753, $GPGST,131017.80,0.000,1.376,0.377,279.0,1.360,0.430,1.022*5
1223730674.806676, $GPGGA,131018.00,4530.36560308,N,00909.98267904,E,2,3,4.5,141.001,M,48.022,M,1.0,0000*7
1223730674.816816, $GPGST,131018.00,0.000,1.375,0.376,279.0,1.359,0.430,1.023*5
1223730675.003608, $GPGGA,131018.20,4530.36559435,N,00909.98253696,E,2,3,4.5,141.001,M,48.022,M,1.2,0000*7
1223730675.012595, $GPGST,131018.20,0.000,1.375,0.376,279.0,1.359,0.430,1.023*5
1223730675.202561, $GPGGA,131018.40,4530.36554785,N,00909.98240401,E,2,3,4.5,141.001,M,48.022,M,1.4,0000*7
1223730675.212525, $GPGST,131018.40,0.000,1.375,0.376,279.0,1.359,0.430,1.023*5
1223730675.403467, $GPGGA,131018.60,4530.36556486,N,00909.98225949,E,2,3,4.5,141.001,M,48.022,M,0.6,0000*7
1223730675.412455, $GPGST,131018.60,0.000,1.375,0.376,279.0,1.359,0.430,1.023*5
1223730675.603403, $GPGGA,131018.80,4530.36554134,N,00909.98213365,E,2,3,4.5,141.001,M,48.022,M,0.8,0000*7
1223730675.612378, $GPGST,131018.80,0.000,1.375,0.376,279.0,1.359,0.430,1.023*5
1223730675.807322, $GPGGA,131019.00,4530.36553129,N,00909.98199165,E,2,3,4.5,141.002,M,48.022,M,1.0,0000*7
1223730675.816362, $GPGST,131019.00,0.000,1.377,0.376,279.0,1.362,0.430,1.022*5
1223730676.003261, $GPGGA,131019.20,4530.36551013,N,00909.98184676,E,2,3,4.5,141.001,M,48.022,M,1.2,0000*7
1223730676.013243, $GPGST,131019.20,0.000,1.377,0.376,279.0,1.362,0.430,1.022*5
1223730676.205197, $GPGGA,131019.40,4530.36551034,N,00909.98170426,E,2,3,4.5,141.002,M,48.022,M,1.4,0000*7
1223730676.215166, $GPGST,131019.40,0.000,1.376,0.376,279.0,1.360,0.430,1.021*5
1223730676.403120, $GPGGA,131019.60,4530.36548277,N,00909.98155512,E,2,3,4.5,141.001,M,48.022,M,0.6,0000*7
1223730676.413102, $GPGST,131019.60,0.000,1.376,0.376,279.0,1.360,0.430,1.021*5
1223730676.604043, $GPGGA,131019.80,4530.36549076,N,00909.98142259,E,2,3,4.5,141.001,M,48.022,M,0.8,0000*7
1223730676.613049, $GPGST,131019.80,0.000,1.376,0.376,279.0,1.360,0.430,1.021*5
1223730676.806974, $GPGGA,131020.00,4530.36547096,N,00909.98128164,E,2,3,4.5,141.001,M,48.022,M,1.0,0000*7
1223730676.817088, $GPGST,131020.00,0.000,1.375,0.376,279.0,1.359,0.429,1.022*5
1223730677.003905, $GPGGA,131020.20,4530.36546791,N,00909.98114854,E,2,3,4.5,141.001,M,48.022,M,1.2,0000*7
1223730677.012893, $GPGST,131020.20,0.000,1.375,0.376,279.0,1.359,0.429,1.022*5
1223730677.203832, $GPGGA,131020.40,4530.36544847,N,00909.98099005,E,2,3,4.5,141.001,M,48.022,M,1.4,0000*7
1223730677.213820, $GPGST,131020.40,0.000,1.375,0.376,279.0,1.359,0.429,1.022*5
1223730677.403761, $GPGGA,131020.60,4530.36544736,N,00909.98084853,E,2,3,4.5,141.001,M,48.022,M,0.6,0000*7
1223730677.413741, $GPGST,131020.60,0.000,1.375,0.376,279.0,1.359,0.429,1.022*5
1223730677.603690, $GPGGA,131020.80,4530.36546805,N,00909.98073116,E,2,3,4.5,141.001,M,48.022,M,0.8,0000*7
1223730677.613684, $GPGST,131020.80,0.000,1.375,0.376,279.0,1.359,0.429,1.022*5
1223730677.807737, $GPGGA,131021.00,4530.36545626,N,00909.98057225,E,2,3,4.5,141.001,M,48.022,M,1.0,0000*7
1223730677.816657, $GPGST,131021.00,0.000,1.373,0.376,279.0,1.357,0.429,1.023*5
1223730678.003550, $GPGGA,131021.20,4530.36547043,N,00909.98043472,E,2,3,4.5,141.001,M,48.022,M,1.2,0000*7
1223730678.013529, $GPGST,131021.20,0.000,1.373,0.376,279.0,1.357,0.429,1.023*5
1223730678.206479, $GPGGA,131021.40,4530.36547429,N,00909.98029088,E,2,3,4.5,141.002,M,48.022,M,1.4,0000*7
1223730678.216536, $GPGST,131021.40,0.000,1.371,0.376,279.0,1.356,0.429,1.022*5
1223730678.404473, $GPGGA,131021.60,4530.36549177,N,00909.98014880,E,2,3,4.5,141.002,M,48.022,M,0.6,0000*7
1223730678.414390, $GPGST,131021.60,0.000,1.371,0.376,279.0,1.356,0.429,1.022*5
1223730678.604338, $GPGGA,131021.80,4530.36548500,N,00909.98001780,E,2,3,4.5,141.002,M,48.022,M,0.8,0000*7
1223730678.613354, $GPGST,131021.80,0.000,1.371,0.376,279.0,1.356,0.429,1.022*5
1223730678.807265, $GPGGA,131022.00,4530.36547206,N,00909.97987165,E,2,3,4.5,141.001,M,48.022,M,1.0,0000*7
1223730678.817387, $GPGST,131022.00,0.000,1.370,0.376,279.0,1.355,0.429,1.023*5
1223730679.004196, $GPGGA,131022.20,4530.36546400,N,00909.97971857,E,2,3,4.5,141.001,M,48.022,M,1.2,0000*7
1223730679.014176, $GPGST,131022.20,0.000,1.370,0.376,279.0,1.355,0.429,1.023*5
1223730679.204125, $GPGGA,131022.40,4530.36547896,N,00909.97957071,E,2,3,4.5,141.001,M,48.022,M,1.4,0000*7
1223730679.214106, $GPGST,131022.40,0.000,1.370,0.376,279.0,1.355,0.429,1.023*5
1223730679.404057, $GPGGA,131022.60,4530.36550014,N,00909.97943129,E,2,3,4.5,141.002,M,48.022,M,0.6,0000*7
1223730679.414037, $GPGST,131022.60,0.000,1.370,0.376,279.0,1.355,0.429,1.023*5
1223730679.603990, $GPGGA,131022.80,4530.36551132,N,00909.97931492,E,2,3,4.5,141.002,M,48.022,M,0.8,0000*7
1223730679.613970, $GPGST,131022.80,0.000,1.370,0.376,279.0,1.355,0.429,1.023*5
1223730679.807913, $GPGGA,131023.00,4530.36552644,N,00909.97917885,E,2,3,4.5,141.002,M,48.022,M,1.0,0000*7
1223730679.816989, $GPGST,131023.00,0.000,1.373,0.376,279.0,1.357,0.429,1.022*5
1223730680.004843, $GPGGA,131023.20,4530.36552303,N,00909.97902486,E,2,3,4.5,141.002,M,48.022,M,1.2,0000*7
1223730680.013824, $GPGST,131023.20,0.000,1.373,0.376,279.0,1.357,0.429,1.022*5
1223730680.206772, $GPGGA,131023.40,4530.36553186,N,00909.97888307,E,2,3,4.5,141.001,M,48.022,M,1.4,0000*7
1223730680.216848, $GPGST,131023.40,0.000,1.371,0.376,279.0,1.356,0.429,1.021*5
1223730680.404702, $GPGGA,131023.60,4530.36555599,N,00909.97872433,E,2,3,4.5,141.002,M,48.022,M,1.6,0000*7
1223730680.414690, $GPGST,131023.60,0.000,1.371,0.376,279.0,1.356,0.429,1.021*5
1223730680.604631, $GPGGA,131023.80,4530.36556365,N,00909.97857825,E,2,3,4.5,141.002,M,48.022,M,1.8,0000*7
1223730680.614628, $GPGST,131023.80,0.000,1.371,0.376,279.0,1.356,0.429,1.021*5
1223730680.808560, $GPGGA,131024.00,4530.36558362,N,00909.97844027,E,2,3,4.5,141.001,M,48.022,M,2.0,0000*7
1223730680.817607, $GPGST,131024.00,0.000,1.373,0.376,279.0,1.357,0.429,1.021*5
1223730681.004493, $GPGGA,131024.20,4530.36560573,N,00909.97828821,E,2,3,4.5,141.002,M,48.022,M,2.2,0000*7
1223730681.014471, $GPGST,131024.20,0.000,1.373,0.376,279.0,1.357,0.429,1.021*5
1223730681.205419, $GPGGA,131024.40,4530.36559884,N,00909.97812923,E,2,3,4.5,141.002,M,48.022,M,2.4,0000*7
1223730681.214400, $GPGST,131024.40,0.000,1.373,0.376,279.0,1.357,0.429,1.021*5
1223730681.404369, $GPGGA,131024.60,4530.36565251,N,00909.97798402,E,2,3,4.5,141.002,M,48.022,M,0.6,0000*7
1223730681.414329, $GPGST,131024.60,0.000,1.373,0.376,279.0,1.357,0.429,1.021*5
1223730681.605277, $GPGGA,131024.80,4530.36565338,N,00909.97784675,E,2,3,4.5,141.002,M,48.022,M,0.8,0000*7
1223730681.614260, $GPGST,131024.80,0.000,1.373,0.376,279.0,1.357,0.429,1.021*5
1223730681.808206, $GPGGA,131025.00,4530.36566231,N,00909.97771744,E,2,3,4.5,141.002,M,48.022,M,1.0,0000*7
1223730681.818289, $GPGST,131025.00,0.000,1.368,0.376,279.0,1.353,0.428,1.022*5
1223730682.005136, $GPGGA,131025.20,4530.36573439,N,00909.97757794,E,2,3,4.5,141.002,M,48.022,M,1.2,0000*7
1223730682.015139, $GPGST,131025.20,0.000,1.368,0.376,279.0,1.353,0.428,1.022*5
1223730682.207065, $GPGGA,131025.40,4530.36570227,N,00909.97743450,E,2,3,4.5,141.001,M,48.022,M,1.4,0000*7
1223730682.217142, $GPGST,131025.40,0.000,1.367,0.376,279.0,1.351,0.428,1.022*5
1223730682.404998, $GPGGA,131025.60,4530.36572790,N,00909.97729216,E,2,3,4.5,141.001,M,48.022,M,0.6,0000*7
1223730682.415026, $GPGST,131025.60,0.000,1.367,0.376,279.0,1.351,0.428,1.022*5
1223730682.604925, $GPGGA,131025.80,4530.36570051,N,00909.97711773,E,2,3,4.5,141.001,M,48.022,M,0.8,0000*7
1223730682.614918, $GPGST,131025.80,0.000,1.367,0.376,279.0,1.351,0.428,1.022*5
1223730682.808853, $GPGGA,131026.00,4530.36572710,N,00909.97696787,E,2,3,4.5,141.001,M,48.022,M,1.0,0000*7
1223730682.818000, $GPGST,131026.00,0.000,1.366,0.376,279.0,1.351,0.428,1.022*5
1223730683.005783, $GPGGA,131026.20,4530.36572460,N,00909.97681400,E,2,3,4.5,141.001,M,48.022,M,1.2,0000*7
1223730683.014766, $GPGST,131026.20,0.000,1.366,0.376,279.0,1.351,0.428,1.022*5
1223730683.205713, $GPGGA,131026.40,4530.36574257,N,00909.97665460,E,2,3,4.5,141.002,M,48.022,M,1.4,0000*7
1223730683.214695, $GPGST,131026.40,0.000,1.366,0.376,279.0,1.351,0.428,1.022*5
1223730683.405642, $GPGGA,131026.60,4530.36581314,N,00909.97652913,E,2,3,4.5,141.002,M,48.022,M,0.6,0000*7
1223730683.414641, $GPGST,131026.60,0.000,1.366,0.376,279.0,1.351,0.428,1.022*5
1223730683.605572, $GPGGA,131026.80,4530.36580306,N,00909.97636965,E,2,3,4.5,141.002,M,48.022,M,0.8,0000*7
1223730683.615638, $GPGST,131026.80,0.000,1.366,0.376,279.0,1.351,0.428,1.022*5
1223730683.808500, $GPGGA,131027.00,4530.36588714,N,00909.97624673,E,2,3,4.5,141.002,M,48.022,M,1.0,0000*7
1223730683.818585, $GPGST,131027.00,0.000,1.366,0.376,279.0,1.350,0.429,1.022*5
1223730684.005431, $GPGGA,131027.20,4530.36588303,N,00909.97609609,E,2,3,4.5,141.002,M,48.022,M,1.2,0000*7
1223730684.015470, $GPGST,131027.20,0.000,1.366,0.376,279.0,1.350,0.429,1.022*5
1223730684.208359, $GPGGA,131027.40,4530.36591292,N,00909.97594338,E,2,3,4.5,141.002,M,48.022,M,1.4,0000*7
1223730684.217405, $GPGST,131027.40,0.000,1.365,0.376,279.0,1.349,0.428,1.022*5
1223730684.405303, $GPGGA,131027.60,4530.36591431,N,00909.97579169,E,2,3,4.5,141.002,M,48.022,M,0.6,0000*7
1223730684.415381, $GPGST,131027.60,0.000,1.365,0.376,279.0,1.349,0.428,1.022*5
1223730684.606221, $GPGGA,131027.80,4530.36594411,N,00909.97564856,E,2,3,4.5,141.002,M,48.022,M,0.8,0000*7
1223730684.615229, $GPGST,131027.80,0.000,1.365,0.376,279.0,1.349,0.428,1.022*5
1223730684.809148, $GPGGA,131028.00,4530.36592153,N,00909.97549657,E,2,3,4.5,141.001,M,48.022,M,1.0,0000*7
1223730684.819321, $GPGST,131028.00,0.000,1.368,0.376,278.9,1.352,0.428,1.021*5
1223730685.006077, $GPGGA,131028.20,4530.36597113,N,00909.97534870,E,2,3,4.5,141.001,M,48.022,M,1.2,0000*7
1223730685.015060, $GPGST,131028.20,0.000,1.368,0.376,278.9,1.352,0.428,1.021*5
1223730685.206006, $GPGGA,131028.40,4530.36598544,N,00909.97520367,E,2,3,4.5,141.002,M,48.022,M,1.4,0000*7
1223730685.216063, $GPGST,131028.40,0.000,1.368,0.376,278.9,1.352,0.428,1.021*5
1223730685.405936, $GPGGA,131028.60,4530.36603733,N,00909.97507008,E,2,3,4.5,141.002,M,48.022,M,0.6,0000*7
1223730685.416016, $GPGST,131028.60,0.000,1.368,0.376,278.9,1.352,0.428,1.021*5
1223730685.605864, $GPGGA,131028.80,4530.36602227,N,00909.97490195,E,2,3,4.5,141.002,M,48.022,M,0.8,0000*7
1223730685.615949, $GPGST,131028.80,0.000,1.368,0.376,278.9,1.352,0.428,1.021*5
1223730685.810794, $GPGGA,131029.00,4530.36687382,N,00909.97479527,E,2,4,3.3,140.833,M,48.022,M,1.0,0000*7
1223730685.820917, $GPGST,131029.00,0.000,0.991,0.320,284.4,0.963,0.396,0.941*5
1223730686.006723, $GPGGA,131029.20,4530.36688975,N,00909.97465025,E,2,4,3.3,140.834,M,48.022,M,1.2,0000*7
1223730686.015728, $GPGST,131029.20,0.000,0.991,0.320,284.4,0.963,0.396,0.941*5
1223730686.209652, $GPGGA,131029.40,4530.36690300,N,00909.97452066,E,2,4,3.3,140.831,M,48.022,M,1.4,0000*7
1223730686.219737, $GPGST,131029.40,0.000,0.991,0.321,284.3,0.964,0.396,0.941*5
1223730686.406583, $GPGGA,131029.60,4530.36690937,N,00909.97436577,E,2,4,3.3,140.830,M,48.022,M,0.6,0000*7
1223730686.416622, $GPGST,131029.60,0.000,0.991,0.321,284.3,0.964,0.396,0.941*5
1223730686.606510, $GPGGA,131029.80,4530.36694954,N,00909.97421808,E,2,4,3.3,140.833,M,48.022,M,0.8,0000*7
1223730686.616626, $GPGST,131029.80,0.000,0.991,0.321,284.3,0.964,0.396,0.941*5
1223730686.810440, $GPGGA,131030.00,4530.36701181,N,00909.97408198,E,2,4,3.3,140.820,M,48.022,M,1.0,0000*7
1223730686.820519, $GPGST,131030.00,0.000,0.981,0.320,284.7,0.953,0.397,0.944*5
1223730687.006371, $GPGGA,131030.20,4530.36706168,N,00909.97396704,E,2,4,3.3,140.820,M,48.022,M,1.2,0000*7
1223730687.016371, $GPGST,131030.20,0.000,0.981,0.320,284.7,0.953,0.397,0.944*5
1223730687.206300, $GPGGA,131030.40,4530.36706616,N,00909.97380760,E,2,4,3.3,140.817,M,48.022,M,1.4,0000*7
1223730687.216297, $GPGST,131030.40,0.000,0.981,0.320,284.7,0.953,0.397,0.944*5
1223730687.406236, $GPGGA,131030.60,4530.36710544,N,00909.97365926,E,2,4,3.3,140.818,M,48.022,M,0.6,0000*7
1223730687.416285, $GPGST,131030.60,0.000,0.981,0.320,284.7,0.953,0.397,0.944*5
1223730687.606165, $GPGGA,131030.80,4530.36713078,N,00909.97351522,E,2,4,3.3,140.820,M,48.022,M,0.8,0000*7
1223730687.616482, $GPGST,131030.80,0.000,0.981,0.320,284.7,0.953,0.397,0.944*5
1223730687.811097, $GPGGA,131031.00,4530.36715345,N,00909.97337436,E,2,4,3.3,140.827,M,48.022,M,1.0,0000*7
1223730687.828572, $GPGST,131031.00,0.000,0.975,0.319,284.9,0.946,0.397,0.946*5
1223730688.007025, $GPGGA,131031.20,4530.36719577,N,00909.97324960,E,2,4,3.3,140.826,M,48.022,M,1.2,0000*7
1223730688.016102, $GPGST,131031.20,0.000,0.975,0.319,284.9,0.946,0.397,0.946*5
1223730688.209948, $GPGGA,131031.40,4530.36721829,N,00909.97310608,E,2,4,3.3,140.828,M,48.022,M,1.4,0000*7
1223730688.220078, $GPGST,131031.40,0.000,0.975,0.319,284.9,0.946,0.397,0.946*5
1223730688.406876, $GPGGA,131031.60,4530.36725538,N,00909.97296482,E,2,4,3.3,140.827,M,48.022,M,0.6,0000*7
1223730688.416933, $GPGST,131031.60,0.000,0.975,0.319,284.9,0.946,0.397,0.946*5
1223730688.606806, $GPGGA,131031.80,4530.36730235,N,00909.97283187,E,2,4,3.3,140.829,M,48.022,M,0.8,0000*7
1223730688.616920, $GPGST,131031.80,0.000,0.975,0.319,284.9,0.946,0.397,0.946*5
1223730688.810739, $GPGGA,131032.00,4530.36736543,N,00909.97271853,E,2,4,3.3,140.823,M,48.022,M,1.0,0000*7
1223730688.820853, $GPGST,131032.00,0.000,0.970,0.318,285.1,0.940,0.398,0.948*5
1223730689.006666, $GPGGA,131032.20,4530.36742241,N,00909.97258172,E,2,4,3.3,140.823,M,48.022,M,1.2,0000*7
1223730689.016771, $GPGST,131032.20,0.000,0.970,0.318,285.1,0.940,0.398,0.948*5
1223730689.206597, $GPGGA,131032.40,4530.36747123,N,00909.97244157,E,2,4,3.3,140.822,M,48.022,M,1.4,0000*7
1223730689.216640, $GPGST,131032.40,0.000,0.970,0.318,285.1,0.940,0.398,0.948*5
1223730689.407525, $GPGGA,131032.60,4530.36752689,N,00909.97232711,E,2,4,3.3,140.822,M,48.022,M,0.6,0000*7
1223730689.416563, $GPGST,131032.60,0.000,0.970,0.318,285.1,0.940,0.398,0.948*5
1223730689.607456, $GPGGA,131032.80,4530.36756763,N,00909.97220483,E,2,4,3.3,140.825,M,48.022,M,0.8,0000*7
1223730689.617532, $GPGST,131032.80,0.000,0.970,0.318,285.1,0.940,0.398,0.948*5
1223730689.811381, $GPGGA,131033.00,4530.36761713,N,00909.97208824,E,2,4,3.3,140.820,M,48.022,M,1.0,0000*7
1223730689.821495, $GPGST,131033.00,0.000,0.966,0.317,285.2,0.936,0.397,0.949*5
1223730690.007329, $GPGGA,131033.20,4530.36768736,N,00909.97196714,E,2,4,3.3,140.824,M,48.022,M,1.2,0000*7
1223730690.017342, $GPGST,131033.20,0.000,0.966,0.317,285.2,0.936,0.397,0.949*5
1223730690.210240, $GPGGA,131033.40,4530.36774627,N,00909.97186262,E,2,4,3.3,140.822,M,48.022,M,1.4,0000*7
1223730690.220309, $GPGST,131033.40,0.000,0.966,0.317,285.2,0.936,0.397,0.949*5
1223730690.407177, $GPGGA,131033.60,4530.36780542,N,00909.97174934,E,2,4,3.3,140.823,M,48.022,M,0.6,0000*7
1223730690.417274, $GPGST,131033.60,0.000,0.966,0.317,285.2,0.936,0.397,0.949*5
1223730690.607101, $GPGGA,131033.80,4530.36788107,N,00909.97163788,E,2,4,3.3,140.823,M,48.022,M,0.8,0000*7
1223730690.617172, $GPGST,131033.80,0.000,0.966,0.317,285.2,0.936,0.397,0.949*5
1223730690.812027, $GPGGA,131034.00,4530.36794317,N,00909.97150684,E,2,4,3.3,140.826,M,48.022,M,1.0,0000*7
1223730690.822130, $GPGST,131034.00,0.000,0.962,0.317,285.4,0.932,0.398,0.950*5
1223730691.006966, $GPGGA,131034.20,4530.36803131,N,00909.97140803,E,2,4,3.3,140.826,M,48.022,M,1.2,0000*7
1223730691.016942, $GPGST,131034.20,0.000,0.962,0.317,285.4,0.932,0.398,0.950*5
1223730691.207888, $GPGGA,131034.40,4530.36809727,N,00909.97130314,E,2,4,3.3,140.826,M,48.022,M,1.4,0000*7
1223730691.217178, $GPGST,131034.40,0.000,0.962,0.317,285.4,0.932,0.398,0.950*5
1223730691.407816, $GPGGA,131034.60,4530.36817067,N,00909.97120205,E,2,4,3.3,140.828,M,48.022,M,0.6,0000*7
1223730691.416921, $GPGST,131034.60,0.000,0.962,0.317,285.4,0.932,0.398,0.950*5
1223730691.607748, $GPGGA,131034.80,4530.36824457,N,00909.97109105,E,2,4,3.3,140.830,M,48.022,M,0.8,0000*7
1223730691.617924, $GPGST,131034.80,0.000,0.962,0.317,285.4,0.932,0.398,0.950*5
1223730691.812676, $GPGGA,131035.00,4530.36832903,N,00909.97102636,E,2,4,3.3,140.820,M,48.022,M,1.0,0000*7
1223730691.821774, $GPGST,131035.00,0.000,0.959,0.316,285.5,0.929,0.398,0.951*5
1223730692.007603, $GPGGA,131035.20,4530.36841280,N,00909.97093000,E,2,4,3.3,140.820,M,48.022,M,1.2,0000*7
1223730692.017622, $GPGST,131035.20,0.000,0.959,0.316,285.5,0.929,0.398,0.951*5
1223730692.211530, $GPGGA,131035.40,4530.36847150,N,00909.97081967,E,2,4,3.3,140.828,M,48.022,M,1.4,0000*7
1223730692.221627, $GPGST,131035.40,0.000,0.960,0.317,285.4,0.929,0.398,0.951*5
1223730692.408462, $GPGGA,131035.60,4530.36854968,N,00909.97072016,E,2,4,3.3,140.830,M,48.022,M,0.6,0000*7
1223730692.417447, $GPGST,131035.60,0.000,0.960,0.317,285.4,0.929,0.398,0.951*5
1223730692.608403, $GPGGA,131035.80,4530.36864187,N,00909.97064234,E,2,4,3.3,140.828,M,48.022,M,0.8,0000*7
1223730692.618487, $GPGST,131035.80,0.000,0.960,0.317,285.4,0.929,0.398,0.951*5
1223730692.812319, $GPGGA,131036.00,4530.36868951,N,00909.97053664,E,2,4,3.3,140.830,M,48.022,M,1.0,0000*7
1223730692.822379, $GPGST,131036.00,0.000,0.957,0.316,285.6,0.925,0.398,0.952*5
1223730693.009488, $GPGGA,131036.20,4530.36877737,N,00909.97045631,E,2,4,3.3,140.831,M,48.022,M,1.2,0000*7
1223730693.017341, $GPGST,131036.20,0.000,0.957,0.316,285.6,0.925,0.398,0.952*5
1223730693.209181, $GPGGA,131036.40,4530.36886329,N,00909.97035635,E,2,4,3.3,140.831,M,48.022,M,1.4,0000*7
1223730693.218309, $GPGST,131036.40,0.000,0.957,0.316,285.6,0.925,0.398,0.952*5
1223730693.408203, $GPGGA,131036.60,4530.36894843,N,00909.97027777,E,2,4,3.3,140.832,M,48.022,M,0.6,0000*7
1223730693.418228, $GPGST,131036.60,0.000,0.957,0.316,285.6,0.925,0.398,0.952*5
1223730693.608050, $GPGGA,131036.80,4530.36902663,N,00909.97020161,E,2,4,3.3,140.832,M,48.022,M,0.8,0000*7
1223730693.618114, $GPGST,131036.80,0.000,0.957,0.316,285.6,0.925,0.398,0.952*5
1223730693.812965, $GPGGA,131037.00,4530.36909426,N,00909.97013021,E,2,4,3.3,140.834,M,48.022,M,1.0,0000*7
1223730693.823047, $GPGST,131037.00,0.000,0.954,0.316,285.7,0.923,0.398,0.953*5
1223730694.007895, $GPGGA,131037.20,4530.36917957,N,00909.97003305,E,2,4,3.3,140.833,M,48.022,M,1.2,0000*7
1223730694.017935, $GPGST,131037.20,0.000,0.954,0.316,285.7,0.923,0.398,0.953*5
1223730694.212823, $GPGGA,131037.40,4530.36925855,N,00909.96994672,E,2,4,3.3,140.836,M,48.022,M,1.4,0000*7
1223730694.222871, $GPGST,131037.40,0.000,0.955,0.316,285.6,0.923,0.398,0.952*5
1223730694.408755, $GPGGA,131037.60,4530.36935142,N,00909.96987337,E,2,4,3.3,140.834,M,48.022,M,0.6,0000*7
1223730694.417840, $GPGST,131037.60,0.000,0.955,0.316,285.6,0.923,0.398,0.952*5
1223730694.608684, $GPGGA,131037.80,4530.36944051,N,00909.96978972,E,2,4,3.3,140.835,M,48.022,M,0.8,0000*7
1223730694.618869, $GPGST,131037.80,0.000,0.955,0.316,285.6,0.923,0.398,0.952*5
1223730694.813611, $GPGGA,131038.00,4530.36953791,N,00909.96971829,E,2,4,3.3,140.836,M,48.022,M,1.0,0000*7
1223730694.822691, $GPGST,131038.00,0.000,0.952,0.316,285.7,0.921,0.398,0.953*5
1223730695.008543, $GPGGA,131038.20,4530.36962246,N,00909.96961821,E,2,4,3.3,140.837,M,48.022,M,1.2,0000*7
1223730695.018579, $GPGST,131038.20,0.000,0.952,0.316,285.7,0.921,0.398,0.953*5
1223730695.208472, $GPGGA,131038.40,4530.36970225,N,00909.96953897,E,2,4,3.3,140.835,M,48.022,M,1.4,0000*7
1223730695.218503, $GPGST,131038.40,0.000,0.952,0.316,285.7,0.921,0.398,0.953*5
1223730695.408399, $GPGGA,131038.60,4530.36978581,N,00909.96945573,E,2,4,3.3,140.836,M,48.022,M,0.6,0000*7
1223730695.418439, $GPGST,131038.60,0.000,0.952,0.316,285.7,0.921,0.398,0.953*5
1223730695.608330, $GPGGA,131038.80,4530.36988342,N,00909.96938294,E,2,4,3.3,140.838,M,48.022,M,0.8,0000*7
1223730695.618368, $GPGST,131038.80,0.000,0.952,0.316,285.7,0.921,0.398,0.953*5
1223730695.814257, $GPGGA,131039.00,4530.36992895,N,00909.96930910,E,2,4,3.3,140.838,M,48.022,M,1.0,0000*7
1223730695.823330, $GPGST,131039.00,0.000,0.951,0.315,285.8,0.919,0.399,0.954*5
1223730696.009190, $GPGGA,131039.20,4530.37001513,N,00909.96921693,E,2,4,3.3,140.839,M,48.022,M,1.2,0000*7
1223730696.018213, $GPGST,131039.20,0.000,0.951,0.315,285.8,0.919,0.399,0.954*5
1223730696.212118, $GPGGA,131039.40,4530.37009003,N,00909.96912591,E,2,4,3.3,140.835,M,48.022,M,1.4,0000*7
1223730696.222191, $GPGST,131039.40,0.000,0.951,0.315,285.8,0.919,0.399,0.953*5
1223730696.409049, $GPGGA,131039.60,4530.37018254,N,00909.96903928,E,2,4,3.3,140.838,M,48.022,M,0.6,0000*7
1223730696.419192, $GPGST,131039.60,0.000,0.951,0.315,285.8,0.919,0.399,0.953*5
1223730696.608983, $GPGGA,131039.80,4530.37027639,N,00909.96896358,E,2,4,3.3,140.836,M,48.022,M,0.8,0000*7
1223730696.619077, $GPGST,131039.80,0.000,0.951,0.315,285.8,0.919,0.399,0.953*5
1223730696.813910, $GPGGA,131040.00,4530.37033421,N,00909.96889475,E,2,4,3.3,140.843,M,48.022,M,1.0,0000*7
1223730696.823002, $GPGST,131040.00,0.000,0.949,0.315,285.9,0.917,0.399,0.954*5
1223730697.008839, $GPGGA,131040.20,4530.37041176,N,00909.96882123,E,2,4,3.3,140.843,M,48.022,M,1.2,0000*7
1223730697.019207, $GPGST,131040.20,0.000,0.949,0.315,285.9,0.917,0.399,0.954*5
1223730697.208765, $GPGGA,131040.40,4530.37050878,N,00909.96873121,E,2,4,3.3,140.841,M,48.022,M,1.4,0000*7
1223730697.218780, $GPGST,131040.40,0.000,0.949,0.315,285.9,0.917,0.399,0.954*5
1223730697.408821, $GPGGA,131040.60,4530.37060207,N,00909.96866653,E,2,4,3.3,140.842,M,48.022,M,0.6,0000*7
1223730697.418705, $GPGST,131040.60,0.000,0.949,0.315,285.9,0.917,0.399,0.954*5
1223730697.609727, $GPGGA,131040.80,4530.37070192,N,00909.96860047,E,2,4,3.3,140.844,M,48.022,M,0.8,0000*7
1223730697.618719, $GPGST,131040.80,0.000,0.949,0.315,285.9,0.917,0.399,0.954*5
1223730697.813561, $GPGGA,131041.00,4530.37074190,N,00909.96853621,E,2,4,3.3,140.851,M,48.022,M,1.0,0000*7
1223730697.823640, $GPGST,131041.00,0.000,0.947,0.315,285.9,0.915,0.399,0.955*5
1223730698.009483, $GPGGA,131041.20,4530.37083346,N,00909.96847394,E,2,4,3.3,140.853,M,48.022,M,1.2,0000*7
1223730698.019575, $GPGST,131041.20,0.000,0.947,0.315,285.9,0.915,0.399,0.955*5
1223730698.212412, $GPGGA,131041.40,4530.37090853,N,00909.96840300,E,2,4,3.3,140.856,M,48.022,M,1.4,0000*7
1223730698.222498, $GPGST,131041.40,0.000,0.948,0.315,285.9,0.916,0.399,0.954*5
1223730698.409346, $GPGGA,131041.60,4530.37101615,N,00909.96836159,E,2,4,3.3,140.857,M,48.022,M,0.6,0000*7
1223730698.420313, $GPGST,131041.60,0.000,0.948,0.315,285.9,0.916,0.399,0.954*5
1223730698.609283, $GPGGA,131041.80,4530.37112114,N,00909.96831691,E,2,4,3.3,140.858,M,48.022,M,0.8,0000*7
1223730698.619430, $GPGST,131041.80,0.000,0.948,0.315,285.9,0.916,0.399,0.954*5
1223730698.815199, $GPGGA,131042.00,4530.37120829,N,00909.96829756,E,2,4,3.3,140.851,M,48.022,M,1.0,0000*7
1223730698.824249, $GPGST,131042.00,0.000,0.951,0.316,285.7,0.919,0.398,0.953*5
1223730699.009130, $GPGGA,131042.20,4530.37130765,N,00909.96827282,E,2,4,3.3,140.852,M,48.022,M,1.2,0000*7
1223730699.019166, $GPGST,131042.20,0.000,0.951,0.316,285.7,0.919,0.398,0.953*5
1223730699.210060, $GPGGA,131042.40,4530.37140355,N,00909.96824450,E,2,4,3.3,140.852,M,48.022,M,1.4,0000*7
1223730699.219066, $GPGST,131042.40,0.000,0.951,0.316,285.7,0.919,0.398,0.953*5
1223730699.409993, $GPGGA,131042.60,4530.37150085,N,00909.96820896,E,2,4,3.3,140.853,M,48.022,M,0.6,0000*7
1223730699.419072, $GPGST,131042.60,0.000,0.951,0.316,285.7,0.919,0.398,0.953*5
1223730699.609923, $GPGGA,131042.80,4530.37160780,N,00909.96820523,E,2,4,3.3,140.853,M,48.022,M,0.8,0000*7
1223730699.619028, $GPGST,131042.80,0.000,0.951,0.316,285.7,0.919,0.398,0.953*5
1223730699.813847, $GPGGA,131043.00,4530.37173289,N,00909.96819404,E,2,4,3.3,140.850,M,48.022,M,1.0,0000*7
1223730699.823925, $GPGST,131043.00,0.000,0.951,0.315,285.7,0.920,0.398,0.953*5
1223730700.009778, $GPGGA,131043.20,4530.37182551,N,00909.96819449,E,2,4,3.3,140.851,M,48.022,M,1.2,0000*7
1223730700.019884, $GPGST,131043.20,0.000,0.951,0.315,285.7,0.920,0.398,0.953*5
1223730700.213706, $GPGGA,131043.40,4530.37192666,N,00909.96819916,E,2,4,3.3,140.854,M,48.022,M,1.4,0000*7
1223730700.222785, $GPGST,131043.40,0.000,0.952,0.315,285.7,0.920,0.398,0.953*5
1223730700.409637, $GPGGA,131043.60,4530.37202812,N,00909.96821952,E,2,4,3.3,140.853,M,48.022,M,0.6,0000*7
1223730700.419677, $GPGST,131043.60,0.000,0.952,0.315,285.7,0.920,0.398,0.953*5
1223730700.609566, $GPGGA,131043.80,4530.37212061,N,00909.96822034,E,2,4,3.3,140.852,M,48.022,M,0.8,0000*7
1223730700.619636, $GPGST,131043.80,0.000,0.952,0.315,285.7,0.920,0.398,0.953*5
1223730700.814494, $GPGGA,131044.00,4530.37218951,N,00909.96826801,E,2,4,3.3,140.859,M,48.022,M,1.0,0000*7
1223730700.824613, $GPGST,131044.00,0.000,0.950,0.315,285.8,0.918,0.398,0.954*5
1223730701.010425, $GPGGA,131044.20,4530.37227679,N,00909.96829819,E,2,4,3.3,140.858,M,48.022,M,1.2,0000*7
1223730701.020491, $GPGST,131044.20,0.000,0.950,0.315,285.8,0.918,0.398,0.954*5
1223730701.210354, $GPGGA,131044.40,4530.37236430,N,00909.96834122,E,2,4,3.3,140.861,M,48.022,M,1.4,0000*7
1223730701.219411, $GPGST,131044.40,0.000,0.950,0.315,285.8,0.918,0.398,0.954*5
1223730701.410283, $GPGGA,131044.60,4530.37245007,N,00909.96837961,E,2,4,3.3,140.861,M,48.022,M,0.6,0000*7
1223730701.420423, $GPGST,131044.60,0.000,0.950,0.315,285.8,0.918,0.398,0.954*5
1223730701.610216, $GPGGA,131044.80,4530.37251002,N,00909.96841794,E,2,4,3.3,140.860,M,48.022,M,0.8,0000*7
1223730701.620360, $GPGST,131044.80,0.000,0.950,0.315,285.8,0.918,0.398,0.954*5
1223730701.814141, $GPGGA,131045.00,4530.37259871,N,00909.96845096,E,2,4,3.3,140.855,M,48.022,M,1.0,0000*7
1223730701.824208, $GPGST,131045.00,0.000,0.949,0.315,285.8,0.917,0.399,0.954*5
1223730702.010080, $GPGGA,131045.20,4530.37267658,N,00909.96848503,E,2,4,3.3,140.852,M,48.022,M,1.2,0000*7
1223730702.020135, $GPGST,131045.20,0.000,0.949,0.315,285.8,0.917,0.399,0.954*5
1223730702.214013, $GPGGA,131045.40,4530.37275228,N,00909.96855007,E,2,4,3.3,140.855,M,48.022,M,1.4,0000*7
1223730702.224064, $GPGST,131045.40,0.000,0.949,0.315,285.8,0.917,0.399,0.954*5
1223730702.410934, $GPGGA,131045.60,4530.37283268,N,00909.96859716,E,2,4,3.3,140.854,M,48.022,M,0.6,0000*7
1223730702.420980, $GPGST,131045.60,0.000,0.949,0.315,285.8,0.917,0.399,0.954*5
1223730702.611946, $GPGGA,131045.80,4530.37288736,N,00909.96865061,E,2,4,3.3,140.856,M,48.022,M,0.8,0000*7
1223730702.619955, $GPGST,131045.80,0.000,0.949,0.315,285.8,0.917,0.399,0.954*5
1223730702.814788, $GPGGA,131046.00,4530.37294530,N,00909.96869481,E,2,4,3.3,140.847,M,48.022,M,1.0,0000*7
1223730702.824919, $GPGST,131046.00,0.000,0.946,0.315,285.8,0.914,0.398,0.955*5
1223730703.010721, $GPGGA,131046.20,4530.37298240,N,00909.96872700,E,2,4,3.3,140.850,M,48.022,M,1.2,0000*7
1223730703.021199, $GPGST,131046.20,0.000,0.946,0.315,285.8,0.914,0.398,0.955*5
1223730703.210648, $GPGGA,131046.40,4530.37306522,N,00909.96878736,E,2,4,3.3,140.848,M,48.022,M,1.4,0000*7
1223730703.220809, $GPGST,131046.40,0.000,0.946,0.315,285.8,0.914,0.398,0.955*5
1223730703.410578, $GPGGA,131046.60,4530.37313169,N,00909.96884833,E,2,4,3.3,140.851,M,48.022,M,0.6,0000*7
1223730703.420664, $GPGST,131046.60,0.000,0.946,0.315,285.8,0.914,0.398,0.955*5
1223730703.610610, $GPGGA,131046.80,4530.37318572,N,00909.96890855,E,2,4,3.3,140.847,M,48.022,M,0.8,0000*7
1223730703.620583, $GPGST,131046.80,0.000,0.946,0.315,285.8,0.914,0.398,0.955*5
1223730703.815434, $GPGGA,131047.00,4530.37323794,N,00909.96895830,E,2,4,3.3,140.854,M,48.022,M,1.0,0000*7
1223730703.825511, $GPGST,131047.00,0.000,0.945,0.315,285.9,0.913,0.398,0.955*5
1223730704.011373, $GPGGA,131047.20,4530.37331585,N,00909.96902745,E,2,4,3.3,140.848,M,48.022,M,1.2,0000*7
1223730704.020518, $GPGST,131047.20,0.000,0.945,0.315,285.9,0.913,0.398,0.955*5
1223730704.214350, $GPGGA,131047.40,4530.37336683,N,00909.96909643,E,2,4,3.3,140.857,M,48.022,M,1.4,0000*7
1223730704.223482, $GPGST,131047.40,0.000,0.945,0.315,285.9,0.913,0.398,0.955*5
1223730704.411227, $GPGGA,131047.60,4530.37342248,N,00909.96919133,E,2,4,3.3,140.854,M,48.022,M,0.6,0000*7
1223730704.420288, $GPGST,131047.60,0.000,0.945,0.315,285.9,0.913,0.398,0.955*5
1223730704.611175, $GPGGA,131047.80,4530.37346445,N,00909.96927191,E,2,4,3.3,140.850,M,48.022,M,0.8,0000*7
1223730704.620205, $GPGST,131047.80,0.000,0.945,0.315,285.9,0.913,0.398,0.955*5
1223730704.815081, $GPGGA,131048.00,4530.37349878,N,00909.96934409,E,2,4,3.3,140.852,M,48.022,M,1.0,0000*7
1223730704.825165, $GPGST,131048.00,0.000,0.943,0.314,285.9,0.911,0.398,0.955*5
1223730705.011012, $GPGGA,131048.20,4530.37353082,N,00909.96943301,E,2,4,3.3,140.853,M,48.022,M,1.2,0000*7
1223730705.021095, $GPGST,131048.20,0.000,0.943,0.314,285.9,0.911,0.398,0.955*5
1223730705.210940, $GPGGA,131048.40,4530.37357711,N,00909.96952812,E,2,4,3.3,140.854,M,48.022,M,1.4,0000*7
1223730705.221029, $GPGST,131048.40,0.000,0.943,0.314,285.9,0.911,0.398,0.955*5
1223730705.410871, $GPGGA,131048.60,4530.37360644,N,00909.96961657,E,2,4,3.3,140.858,M,48.022,M,0.6,0000*7
1223730705.420945, $GPGST,131048.60,0.000,0.943,0.314,285.9,0.911,0.398,0.955*5
1223730705.610903, $GPGGA,131048.80,4530.37361360,N,00909.96970315,E,2,4,3.3,140.855,M,48.022,M,0.8,0000*7
1223730705.620871, $GPGST,131048.80,0.000,0.943,0.314,285.9,0.911,0.398,0.955*5
1223730705.815728, $GPGGA,131049.00,4530.37367242,N,00909.96980457,E,2,4,3.3,140.849,M,48.022,M,1.0,0000*7
1223730705.824840, $GPGST,131049.00,0.000,0.943,0.314,285.9,0.910,0.398,0.956*5
1223730706.010659, $GPGGA,131049.20,4530.37370678,N,00909.96990849,E,2,4,3.3,140.848,M,48.022,M,1.2,0000*7
1223730706.020691, $GPGST,131049.20,0.000,0.943,0.314,285.9,0.910,0.398,0.956*5
1223730706.214586, $GPGGA,131049.40,4530.37372245,N,00909.97000194,E,2,4,3.3,140.848,M,48.022,M,1.4,0000*7
1223730706.223654, $GPGST,131049.40,0.000,0.943,0.314,285.9,0.911,0.398,0.955*5
1223730706.411517, $GPGGA,131049.60,4530.37375686,N,00909.97009612,E,2,4,3.3,140.847,M,48.022,M,0.6,0000*7
1223730706.420545, $GPGST,131049.60,0.000,0.943,0.314,285.9,0.911,0.398,0.955*5
1223730706.611460, $GPGGA,131049.80,4530.37377561,N,00909.97019280,E,2,4,3.3,140.844,M,48.022,M,0.8,0000*7
1223730706.620504, $GPGST,131049.80,0.000,0.943,0.314,285.9,0.911,0.398,0.955*5
1223730706.816382, $GPGGA,131050.00,4530.37380805,N,00909.97029729,E,2,4,3.3,140.839,M,48.022,M,1.0,0000*7
1223730706.834943, $GPGST,131050.00,0.000,0.942,0.314,285.9,0.909,0.398,0.956*5
1223730707.011310, $GPGGA,131050.20,4530.37383683,N,00909.97038961,E,2,4,3.3,140.838,M,48.022,M,1.2,0000*7
1223730707.021447, $GPGST,131050.20,0.000,0.942,0.314,285.9,0.909,0.398,0.956*5
