1223390818.032627, $GPGGA,000000.00,0000.00000000,N,00000.00000000,E,0,0,0.0,0.000,M,-0.000,M,,*4
1223390818.043605, $GPGST,000000.00,0.000,0.000,0.000,0.0,0.000,0.000,0.000*5
1223390818.233556, $GPGGA,000000.00,0000.00000000,N,00000.00000000,E,0,0,0.0,0.000,M,-0.000,M,,*4
1223390818.244534, $GPGST,000000.00,0.000,0.000,0.000,0.0,0.000,0.000,0.000*5
1223390818.432487, $GPGGA,000000.00,0000.00000000,N,00000.00000000,E,0,0,0.0,0.000,M,-0.000,M,,*4
1223390818.443464, $GPGST,000000.00,0.000,0.000,0.000,0.0,0.000,0.000,0.000*5
1223390818.632415, $GPGGA,000000.00,0000.00000000,N,00000.00000000,E,0,0,0.0,0.000,M,-0.000,M,,*4
1223390818.643393, $GPGST,000000.00,0.000,0.000,0.000,0.0,0.000,0.000,0.000*5
1223390818.832372, $GPGGA,000000.00,0000.00000000,N,00000.00000000,E,0,0,0.0,0.000,M,-0.000,M,,*4
1223390818.844322, $GPGST,000000.00,0.000,0.000,0.000,0.0,0.000,0.000,0.000*5
1223390819.032303, $GPGGA,000000.00,0000.00000000,N,00000.00000000,E,0,0,0.0,0.000,M,-0.000,M,,*4
1223390819.044251, $GPGST,000000.00,0.000,0.000,0.000,0.0,0.000,0.000,0.000*5
1223390819.233218, $GPGGA,000000.00,0000.00000000,N,00000.00000000,E,0,0,0.0,0.000,M,-0.000,M,,*4
1223390819.245180, $GPGST,000000.00,0.000,0.000,0.000,0.0,0.000,0.000,0.000*5
1223390819.432162, $GPGGA,000000.00,0000.00000000,N,00000.00000000,E,0,0,0.0,0.000,M,-0.000,M,,*4
1223390819.444112, $GPGST,000000.00,0.000,0.000,0.000,0.0,0.000,0.000,0.000*5
1223390819.633064, $GPGGA,000000.00,0000.00000000,N,00000.00000000,E,0,0,0.0,0.000,M,-0.000,M,,*4
1223390819.644042, $GPGST,000000.00,0.000,0.000,0.000,0.0,0.000,0.000,0.000*5
1223390819.832029, $GPGGA,000000.00,0000.00000000,N,00000.00000000,E,0,0,0.0,0.000,M,-0.000,M,,*4
1223390819.843971, $GPGST,000000.00,0.000,0.000,0.000,0.0,0.000,0.000,0.000*5
1223390820.032922, $GPGGA,000000.00,0000.00000000,N,00000.00000000,E,0,0,0.0,0.000,M,-0.000,M,,*4
1223390820.043901, $GPGST,000000.00,0.000,0.000,0.000,0.0,0.000,0.000,0.000*5
1223390820.233850, $GPGGA,000000.00,0000.00000000,N,00000.00000000,E,0,0,0.0,0.000,M,-0.000,M,,*4
1223390820.245827, $GPGST,000000.00,0.000,0.000,0.000,0.0,0.000,0.000,0.000*5
1223390820.432780, $GPGGA,000000.00,0000.00000000,N,00000.00000000,E,0,0,0.0,0.000,M,-0.000,M,,*4
1223390820.443760, $GPGST,000000.00,0.000,0.000,0.000,0.0,0.000,0.000,0.000*5
1223390820.632710, $GPGGA,000000.00,0000.00000000,N,00000.00000000,E,0,0,0.0,0.000,M,-0.000,M,,*4
1223390820.643706, $GPGST,000000.00,0.000,0.000,0.000,0.0,0.000,0.000,0.000*5
1223390820.832639, $GPGGA,000000.00,0000.00000000,N,00000.00000000,E,0,0,0.0,0.000,M,-0.000,M,,*4
1223390820.843618, $GPGST,000000.00,0.000,0.000,0.000,0.0,0.000,0.000,0.000*5
1223390821.032603, $GPGGA,000000.00,0000.00000000,N,00000.00000000,E,0,0,0.0,0.000,M,-0.000,M,,*4
1223390821.044548, $GPGST,000000.00,0.000,0.000,0.000,0.0,0.000,0.000,0.000*5
1223390821.234496, $GPGGA,000000.00,0000.00000000,N,00000.00000000,E,0,0,0.0,0.000,M,-0.000,M,,*4
1223390821.245476, $GPGST,000000.00,0.000,0.000,0.000,0.0,0.000,0.000,0.000*5
1223390821.432462, $GPGGA,000000.00,0000.00000000,N,00000.00000000,E,0,0,0.0,0.000,M,-0.000,M,,*4
1223390821.444404, $GPGST,000000.00,0.000,0.000,0.000,0.0,0.000,0.000,0.000*5
1223390821.633354, $GPGGA,000000.00,0000.00000000,N,00000.00000000,E,0,0,0.0,0.000,M,-0.000,M,,*4
1223390821.645332, $GPGST,000000.00,0.000,0.000,0.000,0.0,0.000,0.000,0.000*5
1223390821.833284, $GPGGA,000000.00,0000.00000000,N,00000.00000000,E,0,0,0.0,0.000,M,-0.000,M,,*4
1223390821.844262, $GPGST,000000.00,0.000,0.000,0.000,0.0,0.000,0.000,0.000*5
1223390822.033213, $GPGGA,000000.00,0000.00000000,N,00000.00000000,E,0,0,0.0,0.000,M,-0.000,M,,*4
1223390822.044191, $GPGST,000000.00,0.000,0.000,0.000,0.0,0.000,0.000,0.000*5
1223390822.234140, $GPGGA,000000.00,0000.00000000,N,00000.00000000,E,0,0,0.0,0.000,M,-0.000,M,,*4
1223390822.246119, $GPGST,000000.00,0.000,0.000,0.000,0.0,0.000,0.000,0.000*5
1223390822.433071, $GPGGA,000000.00,0000.00000000,N,00000.00000000,E,0,0,0.0,0.000,M,-0.000,M,,*4
1223390822.444050, $GPGST,000000.00,0.000,0.000,0.000,0.0,0.000,0.000,0.000*5
1223390822.633001, $GPGGA,000000.00,0000.00000000,N,00000.00000000,E,0,0,0.0,0.000,M,-0.000,M,,*4
1223390822.644978, $GPGST,000000.00,0.000,0.000,0.000,0.0,0.000,0.000,0.000*5
1223390822.832930, $GPGGA,000000.00,0000.00000000,N,00000.00000000,E,0,0,0.0,0.000,M,-0.000,M,,*4
1223390822.844908, $GPGST,000000.00,0.000,0.000,0.000,0.0,0.000,0.000,0.000*5
1223390823.032859, $GPGGA,000000.00,0000.00000000,N,00000.00000000,E,0,0,0.0,0.000,M,-0.000,M,,*4
1223390823.044837, $GPGST,000000.00,0.000,0.000,0.000,0.0,0.000,0.000,0.000*5
1223390823.234789, $GPGGA,000000.00,0000.00000000,N,00000.00000000,E,0,0,0.0,0.000,M,-0.000,M,,*4
1223390823.245766, $GPGST,000000.00,0.000,0.000,0.000,0.0,0.000,0.000,0.000*5
1223390823.433718, $GPGGA,000000.00,0000.00000000,N,00000.00000000,E,0,0,0.0,0.000,M,-0.000,M,,*4
1223390823.444696, $GPGST,000000.00,0.000,0.000,0.000,0.0,0.000,0.000,0.000*5
1223390823.633647, $GPGGA,000000.00,0000.00000000,N,00000.00000000,E,0,0,0.0,0.000,M,-0.000,M,,*4
1223390823.645625, $GPGST,000000.00,0.000,0.000,0.000,0.0,0.000,0.000,0.000*5
1223390823.833576, $GPGGA,000000.00,0000.00000000,N,00000.00000000,E,0,0,0.0,0.000,M,-0.000,M,,*4
1223390823.844555, $GPGST,000000.00,0.000,0.000,0.000,0.0,0.000,0.000,0.000*5
1223390824.033506, $GPGGA,000000.00,0000.00000000,N,00000.00000000,E,0,0,0.0,0.000,M,-0.000,M,,*4
1223390824.044484, $GPGST,000000.00,0.000,0.000,0.000,0.0,0.000,0.000,0.000*5
1223390824.235434, $GPGGA,000000.00,0000.00000000,N,00000.00000000,E,0,0,0.0,0.000,M,-0.000,M,,*4
1223390824.246414, $GPGST,000000.00,0.000,0.000,0.000,0.0,0.000,0.000,0.000*5
1223390824.433365, $GPGGA,000000.00,0000.00000000,N,00000.00000000,E,0,0,0.0,0.000,M,-0.000,M,,*4
1223390824.445350, $GPGST,000000.00,0.000,0.000,0.000,0.0,0.000,0.000,0.000*5
1223390824.633294, $GPGGA,000000.00,0000.00000000,N,00000.00000000,E,0,0,0.0,0.000,M,-0.000,M,,*4
1223390824.645273, $GPGST,000000.00,0.000,0.000,0.000,0.0,0.000,0.000,0.000*5
1223390824.833223, $GPGGA,000000.00,0000.00000000,N,00000.00000000,E,0,0,0.0,0.000,M,-0.000,M,,*4
1223390824.845201, $GPGST,000000.00,0.000,0.000,0.000,0.0,0.000,0.000,0.000*5
1223390825.033152, $GPGGA,000000.00,0000.00000000,N,00000.00000000,E,0,0,0.0,0.000,M,-0.000,M,,*4
1223390825.045130, $GPGST,000000.00,0.000,0.000,0.000,0.0,0.000,0.000,0.000*5
1223390825.235081, $GPGGA,000000.00,0000.00000000,N,00000.00000000,E,0,0,0.0,0.000,M,-0.000,M,,*4
1223390825.246061, $GPGST,000000.00,0.000,0.000,0.000,0.0,0.000,0.000,0.000*5
1223390825.434010, $GPGGA,000000.00,0000.00000000,N,00000.00000000,E,0,0,0.0,0.000,M,-0.000,M,,*4
1223390825.444990, $GPGST,000000.00,0.000,0.000,0.000,0.0,0.000,0.000,0.000*5
1223390825.633942, $GPGGA,000000.00,0000.00000000,N,00000.00000000,E,0,0,0.0,0.000,M,-0.000,M,,*4
1223390825.645920, $GPGST,000000.00,0.000,0.000,0.000,0.0,0.000,0.000,0.000*5
1223390825.833877, $GPGGA,000000.00,0000.00000000,N,00000.00000000,E,0,0,0.0,0.000,M,-0.000,M,,*4
1223390825.844850, $GPGST,000000.00,0.000,0.000,0.000,0.0,0.000,0.000,0.000*5
1223390826.033799, $GPGGA,000000.00,0000.00000000,N,00000.00000000,E,0,0,0.0,0.000,M,-0.000,M,,*4
1223390826.045779, $GPGST,000000.00,0.000,0.000,0.000,0.0,0.000,0.000,0.000*5
1223390826.235730, $GPGGA,000000.00,0000.00000000,N,00000.00000000,E,0,0,0.0,0.000,M,-0.000,M,,*4
1223390826.246708, $GPGST,000000.00,0.000,0.000,0.000,0.0,0.000,0.000,0.000*5
1223390826.433658, $GPGGA,000000.00,0000.00000000,N,00000.00000000,E,0,0,0.0,0.000,M,-0.000,M,,*4
1223390826.445636, $GPGST,000000.00,0.000,0.000,0.000,0.0,0.000,0.000,0.000*5
1223390826.633587, $GPGGA,000000.00,0000.00000000,N,00000.00000000,E,0,0,0.0,0.000,M,-0.000,M,,*4
1223390826.645564, $GPGST,000000.00,0.000,0.000,0.000,0.0,0.000,0.000,0.000*5
1223390826.833517, $GPGGA,000000.00,0000.00000000,N,00000.00000000,E,0,0,0.0,0.000,M,-0.000,M,,*4
1223390826.845494, $GPGST,000000.00,0.000,0.000,0.000,0.0,0.000,0.000,0.000*5
1223390827.034446, $GPGGA,000000.00,0000.00000000,N,00000.00000000,E,0,0,0.0,0.000,M,-0.000,M,,*4
1223390827.045423, $GPGST,000000.00,0.000,0.000,0.000,0.0,0.000,0.000,0.000*5
1223390827.235374, $GPGGA,000000.00,0000.00000000,N,00000.00000000,E,0,0,0.0,0.000,M,-0.000,M,,*4
1223390827.247352, $GPGST,000000.00,0.000,0.000,0.000,0.0,0.000,0.000,0.000*5
1223390827.434304, $GPGGA,000000.00,0000.00000000,N,00000.00000000,E,0,0,0.0,0.000,M,-0.000,M,,*4
1223390827.445283, $GPGST,000000.00,0.000,0.000,0.000,0.0,0.000,0.000,0.000*5
1223390827.634232, $GPGGA,000000.00,0000.00000000,N,00000.00000000,E,0,0,0.0,0.000,M,-0.000,M,,*4
1223390827.646223, $GPGST,000000.00,0.000,0.000,0.000,0.0,0.000,0.000,0.000*5
1223390827.834163, $GPGGA,000000.00,0000.00000000,N,00000.00000000,E,0,0,0.0,0.000,M,-0.000,M,,*4
1223390827.845140, $GPGST,000000.00,0.000,0.000,0.000,0.0,0.000,0.000,0.000*5
1223390828.034092, $GPGGA,000000.00,0000.00000000,N,00000.00000000,E,0,0,0.0,0.000,M,-0.000,M,,*4
1223390828.046069, $GPGST,000000.00,0.000,0.000,0.000,0.0,0.000,0.000,0.000*5
1223390828.236020, $GPGGA,000000.00,0000.00000000,N,00000.00000000,E,0,0,0.0,0.000,M,-0.000,M,,*4
1223390828.246998, $GPGST,000000.00,0.000,0.000,0.000,0.0,0.000,0.000,0.000*5
1223390828.433950, $GPGGA,000000.00,0000.00000000,N,00000.00000000,E,0,0,0.0,0.000,M,-0.000,M,,*4
1223390828.445930, $GPGST,000000.00,0.000,0.000,0.000,0.0,0.000,0.000,0.000*5
1223390828.634879, $GPGGA,000000.00,0000.00000000,N,00000.00000000,E,0,0,0.0,0.000,M,-0.000,M,,*4
1223390828.645870, $GPGST,000000.00,0.000,0.000,0.000,0.0,0.000,0.000,0.000*5
1223390828.834808, $GPGGA,000000.00,0000.00000000,N,00000.00000000,E,0,0,0.0,0.000,M,-0.000,M,,*4
1223390828.845787, $GPGST,000000.00,0.000,0.000,0.000,0.0,0.000,0.000,0.000*5
1223390829.034739, $GPGGA,000000.00,0000.00000000,N,00000.00000000,E,0,0,0.0,0.000,M,-0.000,M,,*4
1223390829.045718, $GPGST,000000.00,0.000,0.000,0.000,0.0,0.000,0.000,0.000*5
1223390829.235668, $GPGGA,000000.00,0000.00000000,N,00000.00000000,E,0,0,0.0,0.000,M,-0.000,M,,*4
1223390829.247645, $GPGST,000000.00,0.000,0.000,0.000,0.0,0.000,0.000,0.000*5
1223390829.434597, $GPGGA,000000.00,0000.00000000,N,00000.00000000,E,0,0,0.0,0.000,M,-0.000,M,,*4
1223390829.446226, $GPGST,000000.00,0.000,0.000,0.000,0.0,0.000,0.000,0.000*5
1223390829.635526, $GPGGA,000000.00,0000.00000000,N,00000.00000000,E,0,0,0.0,0.000,M,-0.000,M,,*4
1223390829.646512, $GPGST,000000.00,0.000,0.000,0.000,0.0,0.000,0.000,0.000*5
1223390829.834456, $GPGGA,000000.00,0000.00000000,N,00000.00000000,E,0,0,0.0,0.000,M,-0.000,M,,*4
1223390829.846433, $GPGST,000000.00,0.000,0.000,0.000,0.0,0.000,0.000,0.000*5
1223390830.034385, $GPGGA,000000.00,0000.00000000,N,00000.00000000,E,0,0,0.0,0.000,M,-0.000,M,,*4
1223390830.046363, $GPGST,000000.00,0.000,0.000,0.000,0.0,0.000,0.000,0.000*5
1223390830.236318, $GPGGA,000000.00,0000.00000000,N,00000.00000000,E,0,0,0.0,0.000,M,-0.000,M,,*4
1223390830.247292, $GPGST,000000.00,0.000,0.000,0.000,0.0,0.000,0.000,0.000*5
1223390830.435247, $GPGGA,000000.00,0000.00000000,N,00000.00000000,E,0,0,0.0,0.000,M,-0.000,M,,*4
1223390830.446221, $GPGST,000000.00,0.000,0.000,0.000,0.0,0.000,0.000,0.000*5
1223390830.635173, $GPGGA,000000.00,0000.00000000,N,00000.00000000,E,0,0,0.0,0.000,M,-0.000,M,,*4
1223390830.646151, $GPGST,000000.00,0.000,0.000,0.000,0.0,0.000,0.000,0.000*5
1223390830.835167, $GPGGA,000000.00,0000.00000000,N,00000.00000000,E,0,0,0.0,0.000,M,-0.000,M,,*4
1223390830.846084, $GPGST,000000.00,0.000,0.000,0.000,0.0,0.000,0.000,0.000*5
1223390831.035034, $GPGGA,000000.00,0000.00000000,N,00000.00000000,E,0,0,0.0,0.000,M,-0.000,M,,*4
1223390831.046454, $GPGST,000000.00,0.000,0.000,0.000,0.0,0.000,0.000,0.000*5
1223390831.236961, $GPGGA,000000.00,0000.00000000,N,00000.00000000,E,0,0,0.0,0.000,M,-0.000,M,,*4
1223390831.247940, $GPGST,000000.00,0.000,0.000,0.000,0.0,0.000,0.000,0.000*5
1223390831.434892, $GPGGA,000000.00,0000.00000000,N,00000.00000000,E,0,0,0.0,0.000,M,-0.000,M,,*4
1223390831.446868, $GPGST,000000.00,0.000,0.000,0.000,0.0,0.000,0.000,0.000*5
1223390831.635821, $GPGGA,000000.00,0000.00000000,N,00000.00000000,E,0,0,0.0,0.000,M,-0.000,M,,*4
1223390831.646820, $GPGST,000000.00,0.000,0.000,0.000,0.0,0.000,0.000,0.000*5
1223390831.835749, $GPGGA,000000.00,0000.00000000,N,00000.00000000,E,0,0,0.0,0.000,M,-0.000,M,,*4
1223390831.846727, $GPGST,000000.00,0.000,0.000,0.000,0.0,0.000,0.000,0.000*5
1223390832.035677, $GPGGA,000000.00,0000.00000000,N,00000.00000000,E,0,0,0.0,0.000,M,-0.000,M,,*4
1223390832.046656, $GPGST,000000.00,0.000,0.000,0.000,0.0,0.000,0.000,0.000*5
1223390832.236608, $GPGGA,000000.00,0000.00000000,N,00000.00000000,E,0,0,0.0,0.000,M,-0.000,M,,*4
1223390832.248585, $GPGST,000000.00,0.000,0.000,0.000,0.0,0.000,0.000,0.000*5
1223390832.435537, $GPGGA,000000.00,0000.00000000,N,00000.00000000,E,0,0,0.0,0.000,M,-0.000,M,,*4
1223390832.446515, $GPGST,000000.00,0.000,0.000,0.000,0.0,0.000,0.000,0.000*5
1223390832.635467, $GPGGA,000000.00,0000.00000000,N,00000.00000000,E,0,0,0.0,0.000,M,-0.000,M,,*4
1223390832.646444, $GPGST,000000.00,0.000,0.000,0.000,0.0,0.000,0.000,0.000*5
1223390832.835396, $GPGGA,000000.00,0000.00000000,N,00000.00000000,E,0,0,0.0,0.000,M,-0.000,M,,*4
1223390832.847375, $GPGST,000000.00,0.000,0.000,0.000,0.0,0.000,0.000,0.000*5
1223390833.035327, $GPGGA,000000.00,0000.00000000,N,00000.00000000,E,0,0,0.0,0.000,M,-0.000,M,,*4
1223390833.047314, $GPGST,000000.00,0.000,0.000,0.000,0.0,0.000,0.000,0.000*5
1223390833.237253, $GPGGA,000000.00,0000.00000000,N,00000.00000000,E,0,0,0.0,0.000,M,-0.000,M,,*4
1223390833.248232, $GPGST,000000.00,0.000,0.000,0.000,0.0,0.000,0.000,0.000*5
1223390833.436186, $GPGGA,000000.00,0000.00000000,N,00000.00000000,E,0,0,0.0,0.000,M,-0.000,M,,*4
1223390833.447164, $GPGST,000000.00,0.000,0.000,0.000,0.0,0.000,0.000,0.000*5
1223390833.636113, $GPGGA,000000.00,0000.00000000,N,00000.00000000,E,0,0,0.0,0.000,M,-0.000,M,,*4
1223390833.648097, $GPGST,000000.00,0.000,0.000,0.000,0.0,0.000,0.000,0.000*5
1223390833.836046, $GPGGA,000000.00,0000.00000000,N,00000.00000000,E,0,0,0.0,0.000,M,-0.000,M,,*4
1223390833.847023, $GPGST,000000.00,0.000,0.000,0.000,0.0,0.000,0.000,0.000*5
1223390834.035973, $GPGGA,000000.00,0000.00000000,N,00000.00000000,E,0,0,0.0,0.000,M,-0.000,M,,*4
1223390834.046953, $GPGST,000000.00,0.000,0.000,0.000,0.0,0.000,0.000,0.000*5
1223390834.236901, $GPGGA,000000.00,0000.00000000,N,00000.00000000,E,0,0,0.0,0.000,M,-0.000,M,,*4
1223390834.248878, $GPGST,000000.00,0.000,0.000,0.000,0.0,0.000,0.000,0.000*5
1223390834.435831, $GPGGA,000000.00,0000.00000000,N,00000.00000000,E,0,0,0.0,0.000,M,-0.000,M,,*4
1223390834.447808, $GPGST,000000.00,0.000,0.000,0.000,0.0,0.000,0.000,0.000*5
1223390834.635760, $GPGGA,000000.00,0000.00000000,N,00000.00000000,E,0,0,0.0,0.000,M,-0.000,M,,*4
1223390834.647738, $GPGST,000000.00,0.000,0.000,0.000,0.0,0.000,0.000,0.000*5
1223390834.835690, $GPGGA,000000.00,0000.00000000,N,00000.00000000,E,0,0,0.0,0.000,M,-0.000,M,,*4
1223390834.847667, $GPGST,000000.00,0.000,0.000,0.000,0.0,0.000,0.000,0.000*5
1223390835.036618, $GPGGA,000000.00,0000.00000000,N,00000.00000000,E,0,0,0.0,0.000,M,-0.000,M,,*4
1223390835.047596, $GPGST,000000.00,0.000,0.000,0.000,0.0,0.000,0.000,0.000*5
1223390835.237548, $GPGGA,000000.00,0000.00000000,N,00000.00000000,E,0,0,0.0,0.000,M,-0.000,M,,*4
1223390835.248525, $GPGST,000000.00,0.000,0.000,0.000,0.0,0.000,0.000,0.000*5
1223390835.436478, $GPGGA,000000.00,0000.00000000,N,00000.00000000,E,0,0,0.0,0.000,M,-0.000,M,,*4
1223390835.447455, $GPGST,000000.00,0.000,0.000,0.000,0.0,0.000,0.000,0.000*5
1223390835.636407, $GPGGA,000000.00,0000.00000000,N,00000.00000000,E,0,0,0.0,0.000,M,-0.000,M,,*4
1223390835.648388, $GPGST,000000.00,0.000,0.000,0.000,0.0,0.000,0.000,0.000*5
1223390835.836355, $GPGGA,000000.00,0000.00000000,N,00000.00000000,E,0,0,0.0,0.000,M,-0.000,M,,*4
1223390835.848475, $GPGST,000000.00,0.000,0.000,0.000,0.0,0.000,0.000,0.000*5
1223390836.036267, $GPGGA,000000.00,0000.00000000,N,00000.00000000,E,0,0,0.0,0.000,M,-0.000,M,,*4
1223390836.047249, $GPGST,000000.00,0.000,0.000,0.000,0.0,0.000,0.000,0.000*5
1223390836.237196, $GPGGA,000000.00,0000.00000000,N,00000.00000000,E,0,0,0.0,0.000,M,-0.000,M,,*4
1223390836.249174, $GPGST,000000.00,0.000,0.000,0.000,0.0,0.000,0.000,0.000*5
1223390836.436138, $GPGGA,000000.00,0000.00000000,N,00000.00000000,E,0,0,0.0,0.000,M,-0.000,M,,*4
1223390836.448104, $GPGST,000000.00,0.000,0.000,0.000,0.0,0.000,0.000,0.000*5
1223390836.636056, $GPGGA,000000.00,0000.00000000,N,00000.00000000,E,0,0,0.0,0.000,M,-0.000,M,,*4
1223390836.648031, $GPGST,000000.00,0.000,0.000,0.000,0.0,0.000,0.000,0.000*5
1223390836.836983, $GPGGA,000000.00,0000.00000000,N,00000.00000000,E,0,0,0.0,0.000,M,-0.000,M,,*4
1223390836.847960, $GPGST,000000.00,0.000,0.000,0.000,0.0,0.000,0.000,0.000*5
1223390837.036911, $GPGGA,000000.00,0000.00000000,N,00000.00000000,E,0,0,0.0,0.000,M,-0.000,M,,*4
1223390837.047890, $GPGST,000000.00,0.000,0.000,0.000,0.0,0.000,0.000,0.000*5
1223390837.237841, $GPGGA,000000.00,0000.00000000,N,00000.00000000,E,0,0,0.0,0.000,M,-0.000,M,,*4
1223390837.248819, $GPGST,000000.00,0.000,0.000,0.000,0.0,0.000,0.000,0.000*5
1223390837.436771, $GPGGA,000000.00,0000.00000000,N,00000.00000000,E,0,0,0.0,0.000,M,-0.000,M,,*4
1223390837.447748, $GPGST,000000.00,0.000,0.000,0.000,0.0,0.000,0.000,0.000*5
1223390837.637700, $GPGGA,000000.00,0000.00000000,N,00000.00000000,E,0,0,0.0,0.000,M,-0.000,M,,*4
1223390837.648682, $GPGST,000000.00,0.000,0.000,0.000,0.0,0.000,0.000,0.000*5
1223390837.836631, $GPGGA,000000.00,0000.00000000,N,00000.00000000,E,0,0,0.0,0.000,M,-0.000,M,,*4
1223390837.848608, $GPGST,000000.00,0.000,0.000,0.000,0.0,0.000,0.000,0.000*5
1223390838.036559, $GPGGA,000000.00,0000.00000000,N,00000.00000000,E,0,0,0.0,0.000,M,-0.000,M,,*4
1223390838.048536, $GPGST,000000.00,0.000,0.000,0.000,0.0,0.000,0.000,0.000*5
1223390838.237490, $GPGGA,000000.00,0000.00000000,N,00000.00000000,E,0,0,0.0,0.000,M,-0.000,M,,*4
1223390838.249467, $GPGST,000000.00,0.000,0.000,0.000,0.0,0.000,0.000,0.000*5
1223390838.436419, $GPGGA,000000.00,0000.00000000,N,00000.00000000,E,0,0,0.0,0.000,M,-0.000,M,,*4
1223390838.448398, $GPGST,000000.00,0.000,0.000,0.000,0.0,0.000,0.000,0.000*5
1223390838.637349, $GPGGA,000000.00,0000.00000000,N,00000.00000000,E,0,0,0.0,0.000,M,-0.000,M,,*4
1223390838.648327, $GPGST,000000.00,0.000,0.000,0.000,0.0,0.000,0.000,0.000*5
1223390838.837278, $GPGGA,000000.00,0000.00000000,N,00000.00000000,E,0,0,0.0,0.000,M,-0.000,M,,*4
1223390838.848257, $GPGST,000000.00,0.000,0.000,0.000,0.0,0.000,0.000,0.000*5
1223390839.037287, $GPGGA,000000.00,0000.00000000,N,00000.00000000,E,0,0,0.0,0.000,M,-0.000,M,,*4
1223390839.048186, $GPGST,000000.00,0.000,0.000,0.000,0.0,0.000,0.000,0.000*5
1223390839.238136, $GPGGA,000000.00,0000.00000000,N,00000.00000000,E,0,0,0.0,0.000,M,-0.000,M,,*4
1223390839.249114, $GPGST,000000.00,0.000,0.000,0.000,0.0,0.000,0.000,0.000*5
1223390839.437064, $GPGGA,000000.00,0000.00000000,N,00000.00000000,E,0,0,0.0,0.000,M,-0.000,M,,*4
1223390839.448044, $GPGST,000000.00,0.000,0.000,0.000,0.0,0.000,0.000,0.000*5
1223390839.637994, $GPGGA,000000.00,0000.00000000,N,00000.00000000,E,0,0,0.0,0.000,M,-0.000,M,,*4
1223390839.648971, $GPGST,000000.00,0.000,0.000,0.000,0.0,0.000,0.000,0.000*5
1223390839.836923, $GPGGA,000000.00,0000.00000000,N,00000.00000000,E,0,0,0.0,0.000,M,-0.000,M,,*4
1223390839.848900, $GPGST,000000.00,0.000,0.000,0.000,0.0,0.000,0.000,0.000*5
1223390840.036858, $GPGGA,000000.00,0000.00000000,N,00000.00000000,E,0,0,0.0,0.000,M,-0.000,M,,*4
1223390840.048830, $GPGST,000000.00,0.000,0.000,0.000,0.0,0.000,0.000,0.000*5
1223390840.238780, $GPGGA,000000.00,0000.00000000,N,00000.00000000,E,0,0,0.0,0.000,M,-0.000,M,,*4
1223390840.249759, $GPGST,000000.00,0.000,0.000,0.000,0.0,0.000,0.000,0.000*5
1223390840.437710, $GPGGA,000000.00,0000.00000000,N,00000.00000000,E,0,0,0.0,0.000,M,-0.000,M,,*4
1223390840.448688, $GPGST,000000.00,0.000,0.000,0.000,0.0,0.000,0.000,0.000*5
1223390840.637639, $GPGGA,000000.00,0000.00000000,N,00000.00000000,E,0,0,0.0,0.000,M,-0.000,M,,*4
1223390840.648618, $GPGST,000000.00,0.000,0.000,0.000,0.0,0.000,0.000,0.000*5
1223390840.837570, $GPGGA,000000.00,0000.00000000,N,00000.00000000,E,0,0,0.0,0.000,M,-0.000,M,,*4
1223390840.848547, $GPGST,000000.00,0.000,0.000,0.000,0.0,0.000,0.000,0.000*5
1223390841.037517, $GPGGA,000000.00,0000.00000000,N,00000.00000000,E,0,0,0.0,0.000,M,-0.000,M,,*4
1223390841.049478, $GPGST,000000.00,0.000,0.000,0.000,0.0,0.000,0.000,0.000*5
1223390841.239427, $GPGGA,000000.00,0000.00000000,N,00000.00000000,E,0,0,0.0,0.000,M,-0.000,M,,*4
1223390841.250426, $GPGST,000000.00,0.000,0.000,0.000,0.0,0.000,0.000,0.000*5
1223390841.437359, $GPGGA,000000.00,0000.00000000,N,00000.00000000,E,0,0,0.0,0.000,M,-0.000,M,,*4
1223390841.449336, $GPGST,000000.00,0.000,0.000,0.000,0.0,0.000,0.000,0.000*5
1223390841.638286, $GPGGA,000000.00,0000.00000000,N,00000.00000000,E,0,0,0.0,0.000,M,-0.000,M,,*4
1223390841.649267, $GPGST,000000.00,0.000,0.000,0.000,0.0,0.000,0.000,0.000*5
1223390841.838214, $GPGGA,000000.00,0000.00000000,N,00000.00000000,E,0,0,0.0,0.000,M,-0.000,M,,*4
1223390841.849194, $GPGST,000000.00,0.000,0.000,0.000,0.0,0.000,0.000,0.000*5
1223390842.038144, $GPGGA,000000.00,0000.00000000,N,00000.00000000,E,0,0,0.0,0.000,M,-0.000,M,,*4
1223390842.049123, $GPGST,000000.00,0.000,0.000,0.000,0.0,0.000,0.000,0.000*5
1223390842.239074, $GPGGA,000000.00,0000.00000000,N,00000.00000000,E,0,0,0.0,0.000,M,-0.000,M,,*4
1223390842.251051, $GPGST,000000.00,0.000,0.000,0.000,0.0,0.000,0.000,0.000*5
1223390842.438003, $GPGGA,000000.00,0000.00000000,N,00000.00000000,E,0,0,0.0,0.000,M,-0.000,M,,*4
1223390842.449981, $GPGST,000000.00,0.000,0.000,0.000,0.0,0.000,0.000,0.000*5
1223390842.637933, $GPGGA,000000.00,0000.00000000,N,00000.00000000,E,0,0,0.0,0.000,M,-0.000,M,,*4
1223390842.649911, $GPGST,000000.00,0.000,0.000,0.000,0.0,0.000,0.000,0.000*5
1223390842.837862, $GPGGA,000000.00,0000.00000000,N,00000.00000000,E,0,0,0.0,0.000,M,-0.000,M,,*4
1223390842.849842, $GPGST,000000.00,0.000,0.000,0.000,0.0,0.000,0.000,0.000*5
1223390843.037806, $GPGGA,000000.00,0000.00000000,N,00000.00000000,E,0,0,0.0,0.000,M,-0.000,M,,*4
1223390843.049769, $GPGST,000000.00,0.000,0.000,0.000,0.0,0.000,0.000,0.000*5
1223390843.239720, $GPGGA,000000.00,0000.00000000,N,00000.00000000,E,0,0,0.0,0.000,M,-0.000,M,,*4
1223390843.250698, $GPGST,000000.00,0.000,0.000,0.000,0.0,0.000,0.000,0.000*5
1223390843.438676, $GPGGA,000000.00,0000.00000000,N,00000.00000000,E,0,0,0.0,0.000,M,-0.000,M,,*4
1223390843.449631, $GPGST,000000.00,0.000,0.000,0.000,0.0,0.000,0.000,0.000*5
1223390843.638582, $GPGGA,000000.00,0000.00000000,N,00000.00000000,E,0,0,0.0,0.000,M,-0.000,M,,*4
1223390843.650570, $GPGST,000000.00,0.000,0.000,0.000,0.0,0.000,0.000,0.000*5
1223390843.838511, $GPGGA,000000.00,0000.00000000,N,00000.00000000,E,0,0,0.0,0.000,M,-0.000,M,,*4
1223390843.849501, $GPGST,000000.00,0.000,0.000,0.000,0.0,0.000,0.000,0.000*5
1223390844.038485, $GPGGA,000000.00,0000.00000000,N,00000.00000000,E,0,0,0.0,0.000,M,-0.000,M,,*4
1223390844.049420, $GPGST,000000.00,0.000,0.000,0.000,0.0,0.000,0.000,0.000*5
1223390844.239369, $GPGGA,000000.00,0000.00000000,N,00000.00000000,E,0,0,0.0,0.000,M,-0.000,M,,*4
1223390844.250349, $GPGST,000000.00,0.000,0.000,0.000,0.0,0.000,0.000,0.000*5
1223390844.438298, $GPGGA,000000.00,0000.00000000,N,00000.00000000,E,0,0,0.0,0.000,M,-0.000,M,,*4
1223390844.450277, $GPGST,000000.00,0.000,0.000,0.000,0.0,0.000,0.000,0.000*5
1223390844.638228, $GPGGA,000000.00,0000.00000000,N,00000.00000000,E,0,0,0.0,0.000,M,-0.000,M,,*4
1223390844.650206, $GPGST,000000.00,0.000,0.000,0.000,0.0,0.000,0.000,0.000*5
1223390844.839160, $GPGGA,000000.00,0000.00000000,N,00000.00000000,E,0,0,0.0,0.000,M,-0.000,M,,*4
1223390844.850140, $GPGST,000000.00,0.000,0.000,0.000,0.0,0.000,0.000,0.000*5
1223390845.039090, $GPGGA,000000.00,0000.00000000,N,00000.00000000,E,0,0,0.0,0.000,M,-0.000,M,,*4
1223390845.050065, $GPGST,000000.00,0.000,0.000,0.000,0.0,0.000,0.000,0.000*5
1223390845.240017, $GPGGA,000000.00,0000.00000000,N,00000.00000000,E,0,0,0.0,0.000,M,-0.000,M,,*4
1223390845.250994, $GPGST,000000.00,0.000,0.000,0.000,0.0,0.000,0.000,0.000*5
1223390845.438946, $GPGGA,000000.00,0000.00000000,N,00000.00000000,E,0,0,0.0,0.000,M,-0.000,M,,*4
1223390845.449923, $GPGST,000000.00,0.000,0.000,0.000,0.0,0.000,0.000,0.000*5
1223390845.638873, $GPGGA,000000.00,0000.00000000,N,00000.00000000,E,0,0,0.0,0.000,M,-0.000,M,,*4
1223390845.650853, $GPGST,000000.00,0.000,0.000,0.000,0.0,0.000,0.000,0.000*5
1223390845.838803, $GPGGA,000000.00,0000.00000000,N,00000.00000000,E,0,0,0.0,0.000,M,-0.000,M,,*4
1223390845.849780, $GPGST,000000.00,0.000,0.000,0.000,0.0,0.000,0.000,0.000*5
1223390846.038737, $GPGGA,000000.00,0000.00000000,N,00000.00000000,E,0,0,0.0,0.000,M,-0.000,M,,*4
1223390846.050711, $GPGST,000000.00,0.000,0.000,0.000,0.0,0.000,0.000,0.000*5
1223390846.239662, $GPGGA,000000.00,0000.00000000,N,00000.00000000,E,0,0,0.0,0.000,M,-0.000,M,,*4
1223390846.251640, $GPGST,000000.00,0.000,0.000,0.000,0.0,0.000,0.000,0.000*5
1223390846.438592, $GPGGA,000000.00,0000.00000000,N,00000.00000000,E,0,0,0.0,0.000,M,-0.000,M,,*4
1223390846.450570, $GPGST,000000.00,0.000,0.000,0.000,0.0,0.000,0.000,0.000*5
1223390846.638528, $GPGGA,000000.00,0000.00000000,N,00000.00000000,E,0,0,0.0,0.000,M,-0.000,M,,*4
1223390846.650497, $GPGST,000000.00,0.000,0.000,0.000,0.0,0.000,0.000,0.000*5
1223390846.839448, $GPGGA,000000.00,0000.00000000,N,00000.00000000,E,0,0,0.0,0.000,M,-0.000,M,,*4
1223390846.850427, $GPGST,000000.00,0.000,0.000,0.000,0.0,0.000,0.000,0.000*5
1223390847.039378, $GPGGA,000000.00,0000.00000000,N,00000.00000000,E,0,0,0.0,0.000,M,-0.000,M,,*4
1223390847.050356, $GPGST,000000.00,0.000,0.000,0.000,0.0,0.000,0.000,0.000*5
1223390847.240307, $GPGGA,000000.00,0000.00000000,N,00000.00000000,E,0,0,0.0,0.000,M,-0.000,M,,*4
1223390847.251286, $GPGST,000000.00,0.000,0.000,0.000,0.0,0.000,0.000,0.000*5
1223390847.439237, $GPGGA,000000.00,0000.00000000,N,00000.00000000,E,0,0,0.0,0.000,M,-0.000,M,,*4
1223390847.450215, $GPGST,000000.00,0.000,0.000,0.000,0.0,0.000,0.000,0.000*5
1223390847.640166, $GPGGA,000000.00,0000.00000000,N,00000.00000000,E,0,0,0.0,0.000,M,-0.000,M,,*4
1223390847.651149, $GPGST,000000.00,0.000,0.000,0.000,0.0,0.000,0.000,0.000*5
1223390847.839096, $GPGGA,000000.00,0000.00000000,N,00000.00000000,E,0,0,0.0,0.000,M,-0.000,M,,*4
1223390847.851073, $GPGST,000000.00,0.000,0.000,0.000,0.0,0.000,0.000,0.000*5
1223390848.039025, $GPGGA,000000.00,0000.00000000,N,00000.00000000,E,0,0,0.0,0.000,M,-0.000,M,,*4
1223390848.051002, $GPGST,000000.00,0.000,0.000,0.000,0.0,0.000,0.000,0.000*5
1223390848.240954, $GPGGA,000000.00,0000.00000000,N,00000.00000000,E,0,0,0.0,0.000,M,-0.000,M,,*4
1223390848.251932, $GPGST,000000.00,0.000,0.000,0.000,0.0,0.000,0.000,0.000*5
1223390848.438884, $GPGGA,000000.00,0000.00000000,N,00000.00000000,E,0,0,0.0,0.000,M,-0.000,M,,*4
1223390848.450861, $GPGST,000000.00,0.000,0.000,0.000,0.0,0.000,0.000,0.000*5
1223390848.639813, $GPGGA,000000.00,0000.00000000,N,00000.00000000,E,0,0,0.0,0.000,M,-0.000,M,,*4
1223390848.650791, $GPGST,000000.00,0.000,0.000,0.000,0.0,0.000,0.000,0.000*5
1223390848.839742, $GPGGA,000000.00,0000.00000000,N,00000.00000000,E,0,0,0.0,0.000,M,-0.000,M,,*4
1223390848.850720, $GPGST,000000.00,0.000,0.000,0.000,0.0,0.000,0.000,0.000*5
1223390849.039671, $GPGGA,000000.00,0000.00000000,N,00000.00000000,E,0,0,0.0,0.000,M,-0.000,M,,*4
1223390849.050649, $GPGST,000000.00,0.000,0.000,0.000,0.0,0.000,0.000,0.000*5
1223390849.240601, $GPGGA,000000.00,0000.00000000,N,00000.00000000,E,0,0,0.0,0.000,M,-0.000,M,,*4
1223390849.251578, $GPGST,000000.00,0.000,0.000,0.000,0.0,0.000,0.000,0.000*5
1223390849.439532, $GPGGA,000000.00,0000.00000000,N,00000.00000000,E,0,0,0.0,0.000,M,-0.000,M,,*4
1223390849.451508, $GPGST,000000.00,0.000,0.000,0.000,0.0,0.000,0.000,0.000*5
1223390849.639460, $GPGGA,000000.00,0000.00000000,N,00000.00000000,E,0,0,0.0,0.000,M,-0.000,M,,*4
1223390849.651449, $GPGST,000000.00,0.000,0.000,0.000,0.0,0.000,0.000,0.000*5
1223390849.839391, $GPGGA,000000.00,0000.00000000,N,00000.00000000,E,0,0,0.0,0.000,M,-0.000,M,,*4
1223390849.851369, $GPGST,000000.00,0.000,0.000,0.000,0.0,0.000,0.000,0.000*5
1223390850.039320, $GPGGA,000000.00,0000.00000000,N,00000.00000000,E,0,0,0.0,0.000,M,-0.000,M,,*4
1223390850.051298, $GPGST,000000.00,0.000,0.000,0.000,0.0,0.000,0.000,0.000*5
1223390850.240263, $GPGGA,000000.00,0000.00000000,N,00000.00000000,E,0,0,0.0,0.000,M,-0.000,M,,*4
1223390850.252227, $GPGST,000000.00,0.000,0.000,0.000,0.0,0.000,0.000,0.000*5
1223390850.440178, $GPGGA,000000.00,0000.00000000,N,00000.00000000,E,0,0,0.0,0.000,M,-0.000,M,,*4
1223390850.451158, $GPGST,000000.00,0.000,0.000,0.000,0.0,0.000,0.000,0.000*5
1223390850.640106, $GPGGA,000000.00,0000.00000000,N,00000.00000000,E,0,0,0.0,0.000,M,-0.000,M,,*4
1223390850.651088, $GPGST,000000.00,0.000,0.000,0.000,0.0,0.000,0.000,0.000*5
1223390850.840036, $GPGGA,000000.00,0000.00000000,N,00000.00000000,E,0,0,0.0,0.000,M,-0.000,M,,*4
1223390850.851016, $GPGST,000000.00,0.000,0.000,0.000,0.0,0.000,0.000,0.000*5
1223390851.039989, $GPGGA,000000.00,0000.00000000,N,00000.00000000,E,0,0,0.0,0.000,M,-0.000,M,,*4
1223390851.050993, $GPGST,000000.00,0.000,0.000,0.000,0.0,0.000,0.000,0.000*5
1223390851.240957, $GPGGA,000000.00,0000.00000000,N,00000.00000000,E,0,0,0.0,0.000,M,-0.000,M,,*4
1223390851.251874, $GPGST,000000.00,0.000,0.000,0.000,0.0,0.000,0.000,0.000*5
1223390851.439824, $GPGGA,000000.00,0000.00000000,N,00000.00000000,E,0,0,0.0,0.000,M,-0.000,M,,*4
1223390851.451801, $GPGST,000000.00,0.000,0.000,0.000,0.0,0.000,0.000,0.000*5
1223390851.639752, $GPGGA,000000.00,0000.00000000,N,00000.00000000,E,0,0,0.0,0.000,M,-0.000,M,,*4
1223390851.651737, $GPGST,000000.00,0.000,0.000,0.000,0.0,0.000,0.000,0.000*5
1223390851.839682, $GPGGA,000000.00,0000.00000000,N,00000.00000000,E,0,0,0.0,0.000,M,-0.000,M,,*4
1223390851.851660, $GPGST,000000.00,0.000,0.000,0.000,0.0,0.000,0.000,0.000*5
1223390852.039614, $GPGGA,000000.00,0000.00000000,N,00000.00000000,E,0,0,0.0,0.000,M,-0.000,M,,*4
1223390852.051592, $GPGST,000000.00,0.000,0.000,0.000,0.0,0.000,0.000,0.000*5
1223390852.240542, $GPGGA,000000.00,0000.00000000,N,00000.00000000,E,0,0,0.0,0.000,M,-0.000,M,,*4
1223390852.252614, $GPGST,000000.00,0.000,0.000,0.000,0.0,0.000,0.000,0.000*5
1223390852.440470, $GPGGA,000000.00,0000.00000000,N,00000.00000000,E,0,0,0.0,0.000,M,-0.000,M,,*4
1223390852.451448, $GPGST,000000.00,0.000,0.000,0.000,0.0,0.000,0.000,0.000*5
1223390852.640399, $GPGGA,000000.00,0000.00000000,N,00000.00000000,E,0,0,0.0,0.000,M,-0.000,M,,*4
1223390852.651379, $GPGST,000000.00,0.000,0.000,0.000,0.0,0.000,0.000,0.000*5
1223390852.840330, $GPGGA,000000.00,0000.00000000,N,00000.00000000,E,0,0,0.0,0.000,M,-0.000,M,,*4
1223390852.851307, $GPGST,000000.00,0.000,0.000,0.000,0.0,0.000,0.000,0.000*5
1223390853.040259, $GPGGA,000000.00,0000.00000000,N,00000.00000000,E,0,0,0.0,0.000,M,-0.000,M,,*4
1223390853.051236, $GPGST,000000.00,0.000,0.000,0.000,0.0,0.000,0.000,0.000*5
1223390853.241188, $GPGGA,000000.00,0000.00000000,N,00000.00000000,E,0,0,0.0,0.000,M,-0.000,M,,*4
1223390853.252165, $GPGST,000000.00,0.000,0.000,0.000,0.0,0.000,0.000,0.000*5
1223390853.440117, $GPGGA,000000.00,0000.00000000,N,00000.00000000,E,0,0,0.0,0.000,M,-0.000,M,,*4
1223390853.452095, $GPGST,000000.00,0.000,0.000,0.000,0.0,0.000,0.000,0.000*5
1223390853.640046, $GPGGA,000000.00,0000.00000000,N,00000.00000000,E,0,0,0.0,0.000,M,-0.000,M,,*4
1223390853.652138, $GPGST,000000.00,0.000,0.000,0.000,0.0,0.000,0.000,0.000*5
1223390853.839984, $GPGGA,000000.00,0000.00000000,N,00000.00000000,E,0,0,0.0,0.000,M,-0.000,M,,*4
1223390853.851954, $GPGST,000000.00,0.000,0.000,0.000,0.0,0.000,0.000,0.000*5
1223390854.040905, $GPGGA,000000.00,0000.00000000,N,00000.00000000,E,0,0,0.0,0.000,M,-0.000,M,,*4
1223390854.051883, $GPGST,000000.00,0.000,0.000,0.000,0.0,0.000,0.000,0.000*5
1223390854.240835, $GPGGA,000000.00,0000.00000000,N,00000.00000000,E,0,0,0.0,0.000,M,-0.000,M,,*4
1223390854.252812, $GPGST,000000.00,0.000,0.000,0.000,0.0,0.000,0.000,0.000*5
1223390854.440763, $GPGGA,000000.00,0000.00000000,N,00000.00000000,E,0,0,0.0,0.000,M,-0.000,M,,*4
1223390854.451742, $GPGST,000000.00,0.000,0.000,0.000,0.0,0.000,0.000,0.000*5
1223390854.640804, $GPGGA,000000.00,0000.00000000,N,00000.00000000,E,0,0,0.0,0.000,M,-0.000,M,,*4
1223390854.652688, $GPGST,000000.00,0.000,0.000,0.000,0.0,0.000,0.000,0.000*5
1223390854.840622, $GPGGA,000000.00,0000.00000000,N,00000.00000000,E,0,0,0.0,0.000,M,-0.000,M,,*4
1223390854.851607, $GPGST,000000.00,0.000,0.000,0.000,0.0,0.000,0.000,0.000*5
1223390855.040552, $GPGGA,000000.00,0000.00000000,N,00000.00000000,E,0,0,0.0,0.000,M,-0.000,M,,*4
1223390855.052530, $GPGST,000000.00,0.000,0.000,0.000,0.0,0.000,0.000,0.000*5
1223390855.241481, $GPGGA,000000.00,0000.00000000,N,00000.00000000,E,0,0,0.0,0.000,M,-0.000,M,,*4
1223390855.252459, $GPGST,000000.00,0.000,0.000,0.000,0.0,0.000,0.000,0.000*5
1223390855.440450, $GPGGA,000000.00,0000.00000000,N,00000.00000000,E,0,0,0.0,0.000,M,-0.000,M,,*4
1223390855.452393, $GPGST,000000.00,0.000,0.000,0.000,0.0,0.000,0.000,0.000*5
1223390855.640347, $GPGGA,000000.00,0000.00000000,N,00000.00000000,E,0,0,0.0,0.000,M,-0.000,M,,*4
1223390855.652330, $GPGST,000000.00,0.000,0.000,0.000,0.0,0.000,0.000,0.000*5
1223390855.841270, $GPGGA,000000.00,0000.00000000,N,00000.00000000,E,0,0,0.0,0.000,M,-0.000,M,,*4
1223390855.852247, $GPGST,000000.00,0.000,0.000,0.000,0.0,0.000,0.000,0.000*5
1223390856.041199, $GPGGA,000000.00,0000.00000000,N,00000.00000000,E,0,0,0.0,0.000,M,-0.000,M,,*4
1223390856.052177, $GPGST,000000.00,0.000,0.000,0.000,0.0,0.000,0.000,0.000*5
1223390856.241146, $GPGGA,000000.00,0000.00000000,N,00000.00000000,E,0,0,0.0,0.000,M,-0.000,M,,*4
1223390856.253106, $GPGST,000000.00,0.000,0.000,0.000,0.0,0.000,0.000,0.000*5
1223390856.441058, $GPGGA,000000.00,0000.00000000,N,00000.00000000,E,0,0,0.0,0.000,M,-0.000,M,,*4
1223390856.452035, $GPGST,000000.00,0.000,0.000,0.000,0.0,0.000,0.000,0.000*5
1223390856.640989, $GPGGA,000000.00,0000.00000000,N,00000.00000000,E,0,0,0.0,0.000,M,-0.000,M,,*4
1223390856.651977, $GPGST,000000.00,0.000,0.000,0.000,0.0,0.000,0.000,0.000*5
1223390856.841016, $GPGGA,000000.00,0000.00000000,N,00000.00000000,E,0,0,0.0,0.000,M,-0.000,M,,*4
1223390856.852912, $GPGST,000000.00,0.000,0.000,0.000,0.0,0.000,0.000,0.000*5
1223390857.040847, $GPGGA,000000.00,0000.00000000,N,00000.00000000,E,0,0,0.0,0.000,M,-0.000,M,,*4
1223390857.052826, $GPGST,000000.00,0.000,0.000,0.000,0.0,0.000,0.000,0.000*5
1223390857.241775, $GPGGA,000000.00,0000.00000000,N,00000.00000000,E,0,0,0.0,0.000,M,-0.000,M,,*4
1223390857.252768, $GPGST,000000.00,0.000,0.000,0.000,0.0,0.000,0.000,0.000*5
1223390857.441704, $GPGGA,000000.00,0000.00000000,N,00000.00000000,E,0,0,0.0,0.000,M,-0.000,M,,*4
1223390857.452682, $GPGST,000000.00,0.000,0.000,0.000,0.0,0.000,0.000,0.000*5
1223390857.641633, $GPGGA,000000.00,0000.00000000,N,00000.00000000,E,0,0,0.0,0.000,M,-0.000,M,,*4
1223390857.652614, $GPGST,000000.00,0.000,0.000,0.000,0.0,0.000,0.000,0.000*5
1223390857.841563, $GPGGA,000000.00,0000.00000000,N,00000.00000000,E,0,0,0.0,0.000,M,-0.000,M,,*4
1223390857.852541, $GPGST,000000.00,0.000,0.000,0.000,0.0,0.000,0.000,0.000*5
1223390858.041493, $GPGGA,000000.00,0000.00000000,N,00000.00000000,E,0,0,0.0,0.000,M,-0.000,M,,*4
1223390858.052470, $GPGST,000000.00,0.000,0.000,0.000,0.0,0.000,0.000,0.000*5
1223390858.242421, $GPGGA,000000.00,0000.00000000,N,00000.00000000,E,0,0,0.0,0.000,M,-0.000,M,,*4
1223390858.253399, $GPGST,000000.00,0.000,0.000,0.000,0.0,0.000,0.000,0.000*5
1223390858.441351, $GPGGA,000000.00,0000.00000000,N,00000.00000000,E,0,0,0.0,0.000,M,-0.000,M,,*4
1223390858.453328, $GPGST,000000.00,0.000,0.000,0.000,0.0,0.000,0.000,0.000*5
1223390858.647277, $GPGGA,144736.40,4530.37126566,N,00909.97225628,E,1,3,5.1,115.960,M,48.022,M,,*5
1223390858.658263, $GPGST,144736.40,0.000,191.914,1.142,45.8,137.536,133.852,201.125*6
1223390859.251068, $GPGGA,144737.00,4530.36796100,N,00909.97603784,E,1,3,5.1,115.950,M,48.022,M,,*5
1223390859.262570, $GPGST,144737.00,0.000,191.914,1.142,45.8,137.536,133.852,201.125*6
1223390859.448004, $GPGGA,144737.20,4530.36801820,N,00909.97592609,E,1,3,5.1,115.951,M,48.022,M,,*5
1223390859.459977, $GPGST,144737.20,0.000,191.914,1.142,45.8,137.536,133.852,201.125*6
1223390859.649928, $GPGGA,144737.40,4530.36810366,N,00909.97580813,E,1,3,5.1,115.973,M,48.022,M,,*5
1223390859.661998, $GPGST,144737.40,0.000,190.736,1.143,45.8,136.680,133.041,199.810*6
1223390859.848863, $GPGGA,144737.60,4530.36817309,N,00909.97567087,E,1,3,5.1,115.972,M,48.022,M,,*5
1223390859.859832, $GPGST,144737.60,0.000,190.736,1.143,45.8,136.680,133.041,199.810*6
1223390860.048789, $GPGGA,144737.80,4530.36824399,N,00909.97554916,E,1,3,5.1,115.972,M,48.022,M,,*5
1223390860.059761, $GPGST,144737.80,0.000,190.736,1.143,45.8,136.680,133.041,199.810*6
1223390860.251715, $GPGGA,144738.00,4530.36832515,N,00909.97545908,E,1,3,5.1,115.972,M,48.022,M,,*5
1223390860.263174, $GPGST,144738.00,0.000,190.736,1.143,45.8,136.680,133.041,199.810*6
1223390860.448646, $GPGGA,144738.20,4530.36839596,N,00909.97535500,E,1,3,5.1,115.972,M,48.022,M,,*5
1223390860.459620, $GPGST,144738.20,0.000,190.736,1.143,45.8,136.680,133.041,199.810*6
1223390860.648577, $GPGGA,144738.40,4530.36846858,N,00909.97527580,E,1,3,5.1,115.972,M,48.022,M,,*5
1223390860.659550, $GPGST,144738.40,0.000,190.736,1.143,45.8,136.680,133.041,199.810*6
1223390860.848507, $GPGGA,144738.60,4530.36855041,N,00909.97515443,E,1,3,5.1,115.972,M,48.022,M,,*5
1223390860.859480, $GPGST,144738.60,0.000,190.736,1.143,45.8,136.680,133.041,199.810*6
1223390861.048430, $GPGGA,144738.80,4530.36862325,N,00909.97505692,E,1,3,5.1,115.972,M,48.022,M,,*5
1223390861.059415, $GPGST,144738.80,0.000,190.736,1.143,45.8,136.680,133.041,199.810*6
1223390861.251361, $GPGGA,144739.00,4530.36869876,N,00909.97496417,E,1,3,5.1,115.973,M,48.022,M,,*5
1223390861.262540, $GPGST,144739.00,0.000,190.736,1.143,45.8,136.680,133.041,199.810*6
1223390861.449356, $GPGGA,144739.20,4530.36876949,N,00909.97488726,E,1,3,5.1,115.973,M,48.022,M,,*5
1223390861.460271, $GPGST,144739.20,0.000,190.736,1.143,45.8,136.680,133.041,199.810*6
1223390861.651220, $GPGGA,144739.40,4530.36887627,N,00909.97478934,E,1,3,5.1,115.972,M,48.022,M,,*5
1223390861.662332, $GPGST,144739.40,0.000,192.916,1.142,45.8,138.230,134.575,201.392*6
1223390861.849154, $GPGGA,144739.60,4530.36896608,N,00909.97470349,E,1,3,5.1,115.972,M,48.022,M,,*5
1223390861.860126, $GPGST,144739.60,0.000,192.916,1.142,45.8,138.230,134.575,201.392*6
1223390862.049083, $GPGGA,144739.80,4530.36904917,N,00909.97465044,E,1,3,5.1,115.973,M,48.022,M,,*5
1223390862.060056, $GPGST,144739.80,0.000,192.916,1.142,45.8,138.230,134.575,201.392*6
1223390862.252005, $GPGGA,144740.00,4530.36914333,N,00909.97456707,E,1,3,5.1,115.972,M,48.022,M,,*5
1223390862.263077, $GPGST,144740.00,0.000,192.916,1.142,45.8,138.230,134.575,201.392*6
1223390862.448964, $GPGGA,144740.20,4530.36924529,N,00909.97450028,E,1,3,5.1,115.973,M,48.022,M,,*5
1223390862.459917, $GPGST,144740.20,0.000,192.916,1.142,45.8,138.230,134.575,201.392*6
1223390862.648871, $GPGGA,144740.40,4530.36933700,N,00909.97444877,E,1,3,5.1,115.973,M,48.022,M,,*5
1223390862.659844, $GPGST,144740.40,0.000,192.916,1.142,45.8,138.230,134.575,201.392*6
1223390862.848795, $GPGGA,144740.60,4530.36943734,N,00909.97441147,E,1,3,5.1,115.974,M,48.022,M,,*5
1223390862.860773, $GPGST,144740.60,0.000,192.916,1.142,45.8,138.230,134.575,201.392*6
1223390863.049729, $GPGGA,144740.80,4530.36950938,N,00909.97438244,E,1,3,5.1,115.975,M,48.022,M,,*5
1223390863.060703, $GPGST,144740.80,0.000,192.916,1.142,45.8,138.230,134.575,201.392*6
1223390863.252652, $GPGGA,144741.00,4530.36964509,N,00909.97431603,E,1,3,5.1,115.972,M,48.022,M,,*5
1223390863.263768, $GPGST,144741.00,0.000,192.916,1.142,45.8,138.230,134.575,201.392*6
1223390863.449588, $GPGGA,144741.20,4530.36975705,N,00909.97427641,E,1,3,5.1,115.973,M,48.022,M,,*5
1223390863.460676, $GPGST,144741.20,0.000,192.916,1.142,45.8,138.230,134.575,201.392*6
1223390863.651515, $GPGGA,144741.40,4530.36987080,N,00909.97424117,E,1,3,5.1,115.972,M,48.022,M,,*5
1223390863.662698, $GPGST,144741.40,0.000,192.615,1.142,45.8,138.008,134.371,200.729*6
1223390863.849452, $GPGGA,144741.60,4530.36997206,N,00909.97421515,E,1,3,5.1,115.973,M,48.022,M,,*5
1223390863.860421, $GPGST,144741.60,0.000,192.615,1.142,45.8,138.008,134.371,200.729*6
1223390864.049377, $GPGGA,144741.80,4530.37005653,N,00909.97421065,E,1,3,5.1,115.973,M,48.022,M,,*5
1223390864.060350, $GPGST,144741.80,0.000,192.615,1.142,45.8,138.008,134.371,200.729*6
1223390864.252299, $GPGGA,144742.00,4530.37017541,N,00909.97418226,E,1,3,5.1,115.972,M,48.022,M,,*5
1223390864.263332, $GPGST,144742.00,0.000,192.615,1.142,45.8,138.008,134.371,200.729*6
1223390864.449229, $GPGGA,144742.20,4530.37027696,N,00909.97419412,E,1,3,5.1,115.973,M,48.022,M,,*5
1223390864.460214, $GPGST,144742.20,0.000,192.615,1.142,45.8,138.008,134.371,200.729*6
1223390864.649158, $GPGGA,144742.40,4530.37038983,N,00909.97415691,E,1,3,5.1,115.973,M,48.022,M,,*5
1223390864.661136, $GPGST,144742.40,0.000,192.615,1.142,45.8,138.008,134.371,200.729*6
1223390864.849087, $GPGGA,144742.60,4530.37048171,N,00909.97417141,E,1,3,5.1,115.974,M,48.022,M,,*5
1223390864.861065, $GPGST,144742.60,0.000,192.615,1.142,45.8,138.008,134.371,200.729*6
1223390865.050022, $GPGGA,144742.80,4530.37059755,N,00909.97414274,E,1,3,5.1,115.974,M,48.022,M,,*5
1223390865.060994, $GPGST,144742.80,0.000,192.615,1.142,45.8,138.008,134.371,200.729*6
1223390865.252944, $GPGGA,144743.00,4530.37068873,N,00909.97417442,E,1,3,5.1,115.972,M,48.022,M,,*5
1223390865.264050, $GPGST,144743.00,0.000,192.615,1.142,45.8,138.008,134.371,200.729*6
1223390865.449880, $GPGGA,144743.20,4530.37080131,N,00909.97416496,E,1,3,5.1,115.973,M,48.022,M,,*5
1223390865.460853, $GPGST,144743.20,0.000,192.615,1.142,45.8,138.008,134.371,200.729*6
1223390865.651802, $GPGGA,144743.40,4530.37089765,N,00909.97417471,E,1,3,5.1,115.972,M,48.022,M,,*5
1223390865.662783, $GPGST,144743.40,0.000,192.691,1.141,45.8,138.056,134.430,200.458*6
1223390865.849733, $GPGGA,144743.60,4530.37101540,N,00909.97418513,E,1,3,5.1,115.973,M,48.022,M,,*5
1223390865.861710, $GPGST,144743.60,0.000,192.691,1.141,45.8,138.056,134.430,200.458*6
1223390866.049661, $GPGGA,144743.80,4530.37109837,N,00909.97422657,E,1,3,5.1,115.973,M,48.022,M,,*5
1223390866.060646, $GPGST,144743.80,0.000,192.691,1.141,45.8,138.056,134.430,200.458*6
1223390866.252596, $GPGGA,144744.00,4530.37118306,N,00909.97427708,E,1,3,5.1,115.972,M,48.022,M,,*5
1223390866.263903, $GPGST,144744.00,0.000,192.691,1.141,45.8,138.056,134.430,200.458*6
1223390866.449520, $GPGGA,144744.20,4530.37127761,N,00909.97430342,E,1,3,5.1,115.972,M,48.022,M,,*5
1223390866.461501, $GPGST,144744.20,0.000,192.691,1.141,45.8,138.056,134.430,200.458*6
1223390866.650458, $GPGGA,144744.40,4530.37135020,N,00909.97435964,E,1,3,5.1,115.973,M,48.022,M,,*5
1223390866.661446, $GPGST,144744.40,0.000,192.691,1.141,45.8,138.056,134.430,200.458*6
1223390866.850388, $GPGGA,144744.60,4530.37143711,N,00909.97440477,E,1,3,5.1,115.973,M,48.022,M,,*5
1223390866.861450, $GPGST,144744.60,0.000,192.691,1.141,45.8,138.056,134.430,200.458*6
1223390867.050314, $GPGGA,144744.80,4530.37148264,N,00909.97449220,E,1,3,5.1,115.973,M,48.022,M,,*5
1223390867.061285, $GPGST,144744.80,0.000,192.691,1.141,45.8,138.056,134.430,200.458*6
1223390867.254246, $GPGGA,144745.00,4530.37289663,N,00909.97290202,E,2,3,5.1,115.928,M,48.022,M,1.0,0000*7
1223390867.266321, $GPGST,144745.00,0.000,15.115,0.038,45.8,10.829,10.545,15.729*6
1223390867.452164, $GPGGA,144745.20,4530.37295281,N,00909.97301488,E,2,3,5.1,115.929,M,48.022,M,1.2,0000*7
1223390867.463144, $GPGST,144745.20,0.000,15.115,0.038,45.8,10.829,10.545,15.729*6
1223390867.654091, $GPGGA,144745.40,4530.37304327,N,00909.97311365,E,2,3,5.1,115.974,M,48.022,M,1.4,0000*7
1223390867.665165, $GPGST,144745.40,0.000,15.203,0.038,45.8,10.891,10.607,15.793*6
1223390867.852026, $GPGGA,144745.60,4530.37309625,N,00909.97324237,E,2,3,5.1,115.973,M,48.022,M,1.6,0000*7
1223390867.863007, $GPGST,144745.60,0.000,15.203,0.038,45.8,10.891,10.607,15.793*6
1223390868.052060, $GPGGA,144745.80,4530.37314282,N,00909.97337433,E,2,3,5.1,115.973,M,48.022,M,1.8,0000*7
1223390868.062980, $GPGST,144745.80,0.000,15.203,0.038,45.8,10.891,10.607,15.793*6
1223390868.254879, $GPGGA,144746.00,4530.37317179,N,00909.97350492,E,2,3,5.1,115.971,M,48.022,M,2.0,0000*7
1223390868.265950, $GPGST,144746.00,0.000,15.203,0.038,45.8,10.891,10.607,15.793*6
1223390868.451809, $GPGGA,144746.20,4530.37322778,N,00909.97362025,E,2,3,5.1,115.972,M,48.022,M,2.2,0000*7
1223390868.462788, $GPGST,144746.20,0.000,15.203,0.038,45.8,10.891,10.607,15.793*6
1223390868.651739, $GPGGA,144746.40,4530.37325338,N,00909.97376968,E,2,3,5.1,115.974,M,48.022,M,2.4,0000*7
1223390868.662726, $GPGST,144746.40,0.000,15.203,0.038,45.8,10.891,10.607,15.793*6
1223390868.852672, $GPGGA,144746.60,4530.37329810,N,00909.97390734,E,2,3,5.1,115.975,M,48.022,M,0.6,0000*7
1223390868.863726, $GPGST,144746.60,0.000,15.203,0.038,45.8,10.891,10.607,15.793*6
1223390869.052598, $GPGGA,144746.80,4530.37331872,N,00909.97405569,E,2,3,5.1,115.976,M,48.022,M,0.8,0000*7
1223390869.063591, $GPGST,144746.80,0.000,15.203,0.038,45.8,10.891,10.607,15.793*6
1223390869.255528, $GPGGA,144747.00,4530.37337406,N,00909.97415340,E,2,3,5.1,115.972,M,48.022,M,1.0,0000*7
1223390869.266636, $GPGST,144747.00,0.000,15.322,0.035,45.8,10.977,10.690,15.917*6
1223390869.452456, $GPGGA,144747.20,4530.37341702,N,00909.97427702,E,2,3,5.1,115.972,M,48.022,M,1.2,0000*7
1223390869.463437, $GPGST,144747.20,0.000,15.322,0.035,45.8,10.977,10.690,15.917*6
1223390869.654385, $GPGGA,144747.40,4530.37344555,N,00909.97444173,E,2,3,5.1,115.972,M,48.022,M,1.4,0000*7
1223390869.665447, $GPGST,144747.40,0.000,15.353,0.035,45.8,10.998,10.712,15.920*6
1223390869.852316, $GPGGA,144747.60,4530.37348197,N,00909.97460142,E,2,3,5.1,115.962,M,48.022,M,0.6,0000*7
1223390869.863360, $GPGST,144747.60,0.000,15.353,0.035,45.8,10.998,10.712,15.920*6
1223390870.052245, $GPGGA,144747.80,4530.37349684,N,00909.97472539,E,2,3,5.1,115.954,M,48.022,M,0.8,0000*7
1223390870.064228, $GPGST,144747.80,0.000,15.353,0.035,45.8,10.998,10.712,15.920*6
1223390870.255173, $GPGGA,144748.00,4530.37349022,N,00909.97485478,E,2,3,5.1,115.965,M,48.022,M,1.0,0000*7
1223390870.267265, $GPGST,144748.00,0.000,15.292,0.035,45.8,10.955,10.670,15.858*6
1223390870.452206, $GPGGA,144748.20,4530.37351393,N,00909.97500453,E,2,3,5.1,115.971,M,48.022,M,1.2,0000*7
1223390870.464129, $GPGST,144748.20,0.000,15.292,0.035,45.8,10.955,10.670,15.858*6
1223390870.653034, $GPGGA,144748.40,4530.37355393,N,00909.97513045,E,2,3,5.1,115.976,M,48.022,M,1.4,0000*7
1223390870.664056, $GPGST,144748.40,0.000,15.292,0.035,45.8,10.955,10.670,15.858*6
1223390870.894977, $GPGGA,144748.50,4530.37355594,N,00909.97521735,E,0,3,5.1,115.980,M,48.022,M,,*5
1223390870.906941, $GPGST,144748.50,0.000,15.292,0.035,45.8,10.955,10.670,15.858*6
1223390871.094900, $GPGGA,144748.50,4530.37355594,N,00909.97521735,E,0,3,5.1,115.980,M,48.022,M,,*5
1223390871.106873, $GPGST,144748.50,0.000,15.292,0.035,45.8,10.955,10.670,15.858*6
1223390871.295845, $GPGGA,144748.50,4530.37355594,N,00909.97521735,E,0,3,5.1,115.980,M,48.022,M,,*5
1223390871.306814, $GPGST,144748.50,0.000,15.292,0.035,45.8,10.955,10.670,15.858*6
1223390871.494769, $GPGGA,144748.50,4530.37355594,N,00909.97521735,E,0,3,5.1,115.980,M,48.022,M,,*5
1223390871.506733, $GPGST,144748.50,0.000,15.292,0.035,45.8,10.955,10.670,15.858*6
1223390871.696630, $GPGGA,144748.50,4530.37355594,N,00909.97521735,E,0,3,5.1,115.980,M,48.022,M,,*5
1223390871.706664, $GPGST,144748.50,0.000,15.292,0.035,45.8,10.955,10.670,15.858*6
1223390871.895624, $GPGGA,144748.50,4530.37355594,N,00909.97521735,E,0,3,5.1,115.980,M,48.022,M,,*5
1223390871.906589, $GPGST,144748.50,0.000,15.292,0.035,45.8,10.955,10.670,15.858*6
1223390872.095550, $GPGGA,144748.50,4530.37355594,N,00909.97521735,E,0,3,5.1,115.980,M,48.022,M,,*5
1223390872.106520, $GPGST,144748.50,0.000,15.292,0.035,45.8,10.955,10.670,15.858*6
1223390872.295613, $GPGGA,144748.50,4530.37355594,N,00909.97521735,E,0,3,5.1,115.980,M,48.022,M,,*5
1223390872.306552, $GPGST,144748.50,0.000,15.292,0.035,45.8,10.955,10.670,15.858*6
1223390872.495412, $GPGGA,144748.50,4530.37355594,N,00909.97521735,E,0,3,5.1,115.980,M,48.022,M,,*5
1223390872.508773, $GPGST,144748.50,0.000,15.292,0.035,45.8,10.955,10.670,15.858*6
1223390872.695496, $GPGGA,144748.50,4530.37355594,N,00909.97521735,E,0,3,5.1,115.980,M,48.022,M,,*5
1223390872.707327, $GPGST,144748.50,0.000,15.292,0.035,45.8,10.955,10.670,15.858*6
1223390872.895269, $GPGGA,144748.50,4530.37355594,N,00909.97521735,E,0,3,5.1,115.980,M,48.022,M,,*5
1223390872.907236, $GPGST,144748.50,0.000,15.292,0.035,45.8,10.955,10.670,15.858*6
1223390873.095193, $GPGGA,144748.50,4530.37355594,N,00909.97521735,E,0,3,5.1,115.980,M,48.022,M,,*5
1223390873.107165, $GPGST,144748.50,0.000,15.292,0.035,45.8,10.955,10.670,15.858*6
1223390873.297282, $GPGGA,144748.50,4530.37355594,N,00909.97521735,E,0,3,5.1,115.980,M,48.022,M,,*5
1223390873.307091, $GPGST,144748.50,0.000,15.292,0.035,45.8,10.955,10.670,15.858*6
1223390873.496053, $GPGGA,144748.50,4530.37355594,N,00909.97521735,E,0,3,5.1,115.980,M,48.022,M,,*5
1223390873.507020, $GPGST,144748.50,0.000,15.292,0.035,45.8,10.955,10.670,15.858*6
1223390873.696867, $GPGGA,144748.50,4530.37355594,N,00909.97521735,E,0,3,5.1,115.980,M,48.022,M,,*5
1223390873.706951, $GPGST,144748.50,0.000,15.292,0.035,45.8,10.955,10.670,15.858*6
1223390873.895917, $GPGGA,144748.50,4530.37355594,N,00909.97521735,E,0,3,5.1,115.980,M,48.022,M,,*5
1223390873.906877, $GPGST,144748.50,0.000,15.292,0.035,45.8,10.955,10.670,15.858*6
1223390874.095842, $GPGGA,144748.50,4530.37355594,N,00909.97521735,E,0,3,5.1,115.980,M,48.022,M,,*5
1223390874.106808, $GPGST,144748.50,0.000,15.292,0.035,45.8,10.955,10.670,15.858*6
1223390874.295776, $GPGGA,144748.50,4530.37355594,N,00909.97521735,E,0,3,5.1,115.980,M,48.022,M,,*5
1223390874.307749, $GPGST,144748.50,0.000,15.292,0.035,45.8,10.955,10.670,15.858*6
1223390874.495699, $GPGGA,144748.50,4530.37355594,N,00909.97521735,E,0,3,5.1,115.980,M,48.022,M,,*5
1223390874.507666, $GPGST,144748.50,0.000,15.292,0.035,45.8,10.955,10.670,15.858*6
1223390874.696632, $GPGGA,144748.50,4530.37355594,N,00909.97521735,E,0,3,5.1,115.980,M,48.022,M,,*5
1223390874.707592, $GPGST,144748.50,0.000,15.292,0.035,45.8,10.955,10.670,15.858*6
1223390874.896549, $GPGGA,144748.50,4530.37355594,N,00909.97521735,E,0,3,5.1,115.980,M,48.022,M,,*5
1223390874.907521, $GPGST,144748.50,0.000,15.292,0.035,45.8,10.955,10.670,15.858*6
1223390875.096485, $GPGGA,144748.50,4530.37355594,N,00909.97521735,E,0,3,5.1,115.980,M,48.022,M,,*5
1223390875.107448, $GPGST,144748.50,0.000,15.292,0.035,45.8,10.955,10.670,15.858*6
1223390875.296405, $GPGGA,144748.50,4530.37355594,N,00909.97521735,E,0,3,5.1,115.980,M,48.022,M,,*5
1223390875.307389, $GPGST,144748.50,0.000,15.292,0.035,45.8,10.955,10.670,15.858*6
1223390875.496614, $GPGGA,144748.50,4530.37355594,N,00909.97521735,E,0,3,5.1,115.980,M,48.022,M,,*5
1223390875.507292, $GPGST,144748.50,0.000,15.292,0.035,45.8,10.955,10.670,15.858*6
1223390875.696485, $GPGGA,144748.50,4530.37355594,N,00909.97521735,E,0,3,5.1,115.980,M,48.022,M,,*5
1223390875.708361, $GPGST,144748.50,0.000,15.292,0.035,45.8,10.955,10.670,15.858*6
1223390875.897508, $GPGGA,144748.50,4530.37355594,N,00909.97521735,E,0,3,5.1,115.980,M,48.022,M,,*5
1223390875.908166, $GPGST,144748.50,0.000,15.292,0.035,45.8,10.955,10.670,15.858*6
1223390876.096129, $GPGGA,144748.50,4530.37355594,N,00909.97521735,E,0,3,5.1,115.980,M,48.022,M,,*5
1223390876.107106, $GPGST,144748.50,0.000,15.292,0.035,45.8,10.955,10.670,15.858*6
1223390876.296054, $GPGGA,144748.50,4530.37355594,N,00909.97521735,E,0,3,5.1,115.980,M,48.022,M,,*5
1223390876.308022, $GPGST,144748.50,0.000,15.292,0.035,45.8,10.955,10.670,15.858*6
1223390876.495988, $GPGGA,144748.50,4530.37355594,N,00909.97521735,E,0,3,5.1,115.980,M,48.022,M,,*5
1223390876.507951, $GPGST,144748.50,0.000,15.292,0.035,45.8,10.955,10.670,15.858*6
1223390876.696911, $GPGGA,144748.50,4530.37355594,N,00909.97521735,E,0,3,5.1,115.980,M,48.022,M,,*5
1223390876.707882, $GPGST,144748.50,0.000,15.292,0.035,45.8,10.955,10.670,15.858*6
1223390876.896841, $GPGGA,144748.50,4530.37355594,N,00909.97521735,E,0,3,5.1,115.980,M,48.022,M,,*5
1223390876.907868, $GPGST,144748.50,0.000,15.292,0.035,45.8,10.955,10.670,15.858*6
1223390877.096789, $GPGGA,144748.50,4530.37355594,N,00909.97521735,E,0,3,5.1,115.980,M,48.022,M,,*5
1223390877.107745, $GPGST,144748.50,0.000,15.292,0.035,45.8,10.955,10.670,15.858*6
1223390877.296711, $GPGGA,144748.50,4530.37355594,N,00909.97521735,E,0,3,5.1,115.980,M,48.022,M,,*5
1223390877.307675, $GPGST,144748.50,0.000,15.292,0.035,45.8,10.955,10.670,15.858*6
1223390877.496635, $GPGGA,144748.50,4530.37355594,N,00909.97521735,E,0,3,5.1,115.980,M,48.022,M,,*5
1223390877.507502, $GPGST,144748.50,0.000,15.292,0.035,45.8,10.955,10.670,15.858*6
1223390877.696493, $GPGGA,144748.50,4530.37355594,N,00909.97521735,E,0,3,5.1,115.980,M,48.022,M,,*5
1223390877.708535, $GPGST,144748.50,0.000,15.292,0.035,45.8,10.955,10.670,15.858*6
1223390877.896487, $GPGGA,144748.50,4530.37355594,N,00909.97521735,E,0,3,5.1,115.980,M,48.022,M,,*5
1223390877.908466, $GPGST,144748.50,0.000,15.292,0.035,45.8,10.955,10.670,15.858*6
1223390878.097423, $GPGGA,144748.50,4530.37355594,N,00909.97521735,E,0,3,5.1,115.980,M,48.022,M,,*5
1223390878.108389, $GPGST,144748.50,0.000,15.292,0.035,45.8,10.955,10.670,15.858*6
1223390878.296350, $GPGGA,144748.50,4530.37355594,N,00909.97521735,E,0,3,5.1,115.980,M,48.022,M,,*5
1223390878.308337, $GPGST,144748.50,0.000,15.292,0.035,45.8,10.955,10.670,15.858*6
1223390878.497280, $GPGGA,144748.50,4530.37355594,N,00909.97521735,E,0,3,5.1,115.980,M,48.022,M,,*5
1223390878.508258, $GPGST,144748.50,0.000,15.292,0.035,45.8,10.955,10.670,15.858*6
1223390878.697210, $GPGGA,144748.50,4530.37355594,N,00909.97521735,E,0,3,5.1,115.980,M,48.022,M,,*5
1223390878.708177, $GPGST,144748.50,0.000,15.292,0.035,45.8,10.955,10.670,15.858*6
1223390878.899663, $GPGGA,144748.50,4530.37355594,N,00909.97521735,E,0,3,5.1,115.980,M,48.022,M,,*5
1223390878.908107, $GPGST,144748.50,0.000,15.292,0.035,45.8,10.955,10.670,15.858*6
1223390879.099007, $GPGGA,144748.50,4530.37355594,N,00909.97521735,E,0,3,5.1,115.980,M,48.022,M,,*5
1223390879.108039, $GPGST,144748.50,0.000,15.292,0.035,45.8,10.955,10.670,15.858*6
1223390879.299235, $GPGGA,144748.50,4530.37355594,N,00909.97521735,E,0,3,5.1,115.980,M,48.022,M,,*5
1223390879.309006, $GPGST,144748.50,0.000,15.292,0.035,45.8,10.955,10.670,15.858*6
1223390879.497670, $GPGGA,144748.50,4530.37355594,N,00909.97521735,E,0,3,5.1,115.980,M,48.022,M,,*5
1223390879.508921, $GPGST,144748.50,0.000,15.292,0.035,45.8,10.955,10.670,15.858*6
1223390879.697149, $GPGGA,144748.50,4530.37355594,N,00909.97521735,E,0,3,5.1,115.980,M,48.022,M,,*5
1223390879.708828, $GPGST,144748.50,0.000,15.292,0.035,45.8,10.955,10.670,15.858*6
1223390879.896786, $GPGGA,144748.50,4530.37355594,N,00909.97521735,E,0,3,5.1,115.980,M,48.022,M,,*5
1223390879.908752, $GPGST,144748.50,0.000,15.292,0.035,45.8,10.955,10.670,15.858*6
1223390880.097720, $GPGGA,144748.50,4530.37355594,N,00909.97521735,E,0,3,5.1,115.980,M,48.022,M,,*5
1223390880.108685, $GPGST,144748.50,0.000,15.292,0.035,45.8,10.955,10.670,15.858*6
1223390880.297642, $GPGGA,144748.50,4530.37355594,N,00909.97521735,E,0,3,5.1,115.980,M,48.022,M,,*5
1223390880.308616, $GPGST,144748.50,0.000,15.292,0.035,45.8,10.955,10.670,15.858*6
1223390880.497585, $GPGGA,144748.50,4530.37355594,N,00909.97521735,E,0,3,5.1,115.980,M,48.022,M,,*5
1223390880.508543, $GPGST,144748.50,0.000,15.292,0.035,45.8,10.955,10.670,15.858*6
1223390880.697498, $GPGGA,144748.50,4530.37355594,N,00909.97521735,E,0,3,5.1,115.980,M,48.022,M,,*5
1223390880.708473, $GPGST,144748.50,0.000,15.292,0.035,45.8,10.955,10.670,15.858*6
1223390880.897429, $GPGGA,144748.50,4530.37355594,N,00909.97521735,E,0,3,5.1,115.980,M,48.022,M,,*5
1223390880.908401, $GPGST,144748.50,0.000,15.292,0.035,45.8,10.955,10.670,15.858*6
1223390881.097358, $GPGGA,144748.50,4530.37355594,N,00909.97521735,E,0,3,5.1,115.980,M,48.022,M,,*5
1223390881.108332, $GPGST,144748.50,0.000,15.292,0.035,45.8,10.955,10.670,15.858*6
1223390881.300330, $GPGGA,144748.50,4530.37355594,N,00909.97521735,E,0,3,5.1,115.980,M,48.022,M,,*5
1223390881.309291, $GPGST,144748.50,0.000,15.292,0.035,45.8,10.955,10.670,15.858*6
1223390881.497231, $GPGGA,144748.50,4530.37355594,N,00909.97521735,E,0,3,5.1,115.980,M,48.022,M,,*5
1223390881.509189, $GPGST,144748.50,0.000,15.292,0.035,45.8,10.955,10.670,15.858*6
1223390881.698164, $GPGGA,144748.50,4530.37355594,N,00909.97521735,E,0,3,5.1,115.980,M,48.022,M,,*5
1223390881.709121, $GPGST,144748.50,0.000,15.292,0.035,45.8,10.955,10.670,15.858*6
1223390881.898080, $GPGGA,144748.50,4530.37355594,N,00909.97521735,E,0,3,5.1,115.980,M,48.022,M,,*5
1223390881.909049, $GPGST,144748.50,0.000,15.292,0.035,45.8,10.955,10.670,15.858*6
1223390882.098177, $GPGGA,144748.50,4530.37355594,N,00909.97521735,E,0,3,5.1,115.980,M,48.022,M,,*5
1223390882.108981, $GPGST,144748.50,0.000,15.292,0.035,45.8,10.955,10.670,15.858*6
1223390882.297638, $GPGGA,144748.50,4530.37355594,N,00909.97521735,E,0,3,5.1,115.980,M,48.022,M,,*5
1223390882.308916, $GPGST,144748.50,0.000,15.292,0.035,45.8,10.955,10.670,15.858*6
1223390882.497874, $GPGGA,144748.50,4530.37355594,N,00909.97521735,E,0,3,5.1,115.980,M,48.022,M,,*5
1223390882.508842, $GPGST,144748.50,0.000,15.292,0.035,45.8,10.955,10.670,15.858*6
1223390882.655787, $GPGGA,144800.40,4530.37178523,N,00909.97676685,E,1,3,2.5,115.960,M,48.022,M,,*5
1223390882.667934, $GPGST,144800.40,0.000,94.147,1.223,341.4,30.028,89.238,209.908*6
1223390882.853724, $GPGGA,144800.60,4530.37169431,N,00909.97667628,E,1,3,2.5,115.956,M,48.022,M,,*5
1223390882.864696, $GPGST,144800.60,0.000,94.147,1.223,341.4,30.028,89.238,209.908*6
1223390883.053654, $GPGGA,144800.80,4530.37160732,N,00909.97661206,E,1,3,2.5,115.952,M,48.022,M,,*5
1223390883.065629, $GPGST,144800.80,0.000,94.147,1.223,341.4,30.028,89.238,209.908*6
1223390883.256603, $GPGGA,144801.00,4530.37151875,N,00909.97652307,E,1,3,2.5,115.969,M,48.022,M,,*5
1223390883.268993, $GPGST,144801.00,0.000,95.123,1.227,341.4,30.339,90.163,212.083*6
1223390883.453513, $GPGGA,144801.20,4530.37143122,N,00909.97644195,E,1,3,2.5,115.969,M,48.022,M,,*5
1223390883.465485, $GPGST,144801.20,0.000,95.123,1.227,341.4,30.339,90.163,212.083*6
1223390883.656435, $GPGGA,144801.40,4530.37134681,N,00909.97636493,E,1,3,2.5,115.972,M,48.022,M,,*5
1223390883.667473, $GPGST,144801.40,0.000,96.174,1.231,341.4,30.731,91.140,214.296*6
1223390883.853366, $GPGGA,144801.60,4530.37126640,N,00909.97628031,E,1,3,2.5,115.971,M,48.022,M,,*5
1223390883.865344, $GPGST,144801.60,0.000,96.174,1.231,341.4,30.731,91.140,214.296*6
1223390884.054302, $GPGGA,144801.80,4530.37117858,N,00909.97619870,E,1,3,2.5,115.969,M,48.022,M,,*5
1223390884.066275, $GPGST,144801.80,0.000,96.174,1.231,341.4,30.731,91.140,214.296*6
1223390884.257223, $GPGGA,144802.00,4530.37109008,N,00909.97611474,E,1,3,2.5,115.971,M,48.022,M,,*5
1223390884.268354, $GPGST,144802.00,0.000,96.175,1.236,341.4,30.731,91.141,214.296*6
1223390884.454161, $GPGGA,144802.20,4530.37100736,N,00909.97601916,E,1,3,2.5,115.970,M,48.022,M,,*5
1223390884.465133, $GPGST,144802.20,0.000,96.175,1.236,341.4,30.731,91.141,214.296*6
1223390884.655099, $GPGGA,144802.40,4530.37092365,N,00909.97593153,E,1,3,2.5,115.969,M,48.022,M,,*5
1223390884.666065, $GPGST,144802.40,0.000,96.175,1.236,341.4,30.731,91.141,214.296*6
1223390884.854025, $GPGGA,144802.60,4530.37085069,N,00909.97583465,E,1,3,2.5,115.968,M,48.022,M,,*5
1223390884.866031, $GPGST,144802.60,0.000,96.175,1.236,341.4,30.731,91.141,214.296*6
1223390885.053949, $GPGGA,144802.80,4530.37077307,N,00909.97573957,E,1,3,2.5,115.968,M,48.022,M,,*5
