1223739331.176094, $GPGGA,153432.40,4530.34796108,N,00909.98412967,E,2,6,2.5,120.343,M,48.022,M,1.4,0000*7
1223739331.187073, $GPGST,153432.40,11.865,6.697,1.949,303.0,5.716,3.996,7.664*6
1223739331.377020, $GPGGA,153432.60,4530.34795948,N,00909.98412603,E,2,6,2.5,120.339,M,48.022,M,0.6,0000*7
1223739331.387000, $GPGST,153432.60,11.865,6.697,1.949,303.0,5.716,3.996,7.664*6
1223739331.576950, $GPGGA,153432.80,4530.34795183,N,00909.98412244,E,2,6,2.5,120.363,M,48.022,M,0.8,0000*7
1223739331.586930, $GPGST,153432.80,11.865,6.697,1.949,303.0,5.716,3.996,7.664*6
1223739331.780879, $GPGGA,153433.00,4530.34855822,N,00909.98467401,E,2,6,2.5,119.537,M,48.022,M,1.0,0000*7
1223739331.791857, $GPGST,153433.00,11.591,6.904,2.035,303.0,5.895,4.130,7.977*6
1223739331.980807, $GPGGA,153433.20,4530.34887151,N,00909.98495725,E,2,6,2.5,119.152,M,48.022,M,1.2,0000*7
1223739331.990787, $GPGST,153433.20,11.445,6.996,2.078,303.0,5.975,4.192,8.130*6
1223739332.176739, $GPGGA,153433.40,4530.34887005,N,00909.98495385,E,2,6,2.5,119.151,M,48.022,M,1.4,0000*7
1223739332.187718, $GPGST,153433.40,11.445,6.996,2.078,303.0,5.975,4.192,8.130*6
1223739332.376668, $GPGGA,153433.60,4530.34887403,N,00909.98497894,E,2,6,2.5,119.112,M,48.022,M,0.6,0000*7
1223739332.387648, $GPGST,153433.60,11.445,6.996,2.078,303.0,5.975,4.192,8.130*6
1223739332.576598, $GPGGA,153433.80,4530.34886985,N,00909.98500209,E,2,6,2.5,119.101,M,48.022,M,0.8,0000*7
1223739332.587577, $GPGST,153433.80,11.445,6.996,2.078,303.0,5.975,4.192,8.130*6
1223739332.781526, $GPGGA,153434.00,4530.34843030,N,00909.98464887,E,2,6,2.5,119.600,M,48.022,M,1.0,0000*7
1223739332.792505, $GPGST,153434.00,11.928,6.975,2.048,303.0,5.955,4.169,8.036*6
1223739332.977459, $GPGGA,153434.20,4530.34842798,N,00909.98465911,E,2,6,2.5,119.589,M,48.022,M,1.2,0000*7
1223739332.987452, $GPGST,153434.20,11.928,6.975,2.048,303.0,5.955,4.169,8.036*6
1223739333.177389, $GPGGA,153434.40,4530.34841873,N,00909.98466771,E,2,6,2.5,119.593,M,48.022,M,1.4,0000*7
1223739333.187368, $GPGST,153434.40,11.928,6.975,2.048,303.0,5.955,4.169,8.036*6
1223739333.377316, $GPGGA,153434.60,4530.34841985,N,00909.98468166,E,2,6,2.5,119.576,M,48.022,M,0.6,0000*7
1223739333.388297, $GPGST,153434.60,11.928,6.975,2.048,303.0,5.955,4.169,8.036*6
1223739333.577272, $GPGGA,153434.80,4530.34842194,N,00909.98469889,E,2,6,2.5,119.554,M,48.022,M,0.8,0000*7
1223739333.588234, $GPGST,153434.80,11.928,6.975,2.048,303.0,5.955,4.169,8.036*6
1223739333.781176, $GPGGA,153435.00,4530.34047307,N,00909.97755377,E,2,5,3.3,129.678,M,48.022,M,1.0,0000*7
1223739333.791179, $GPGST,153435.00,0.145,0.166,0.042,302.8,0.141,0.096,0.172*5
1223739333.982535, $GPGGA,153435.20,4530.34045687,N,00909.97755712,E,2,5,3.3,129.689,M,48.022,M,1.2,0000*7
1223739333.990087, $GPGST,153435.20,0.152,0.165,0.042,302.8,0.141,0.096,0.171*5
1223739334.177036, $GPGGA,153435.40,4530.34045643,N,00909.97756594,E,2,5,3.3,129.689,M,48.022,M,1.4,0000*7
1223739334.187015, $GPGST,153435.40,0.152,0.165,0.042,302.8,0.141,0.096,0.171*5
1223739334.376965, $GPGGA,153435.60,4530.34044649,N,00909.97756442,E,2,5,3.3,129.695,M,48.022,M,0.6,0000*7
1223739334.386945, $GPGST,153435.60,0.152,0.165,0.042,302.8,0.141,0.096,0.171*5
1223739334.576894, $GPGGA,153435.80,4530.34044193,N,00909.97756621,E,2,5,3.3,129.700,M,48.022,M,0.8,0000*7
1223739334.586875, $GPGST,153435.80,0.152,0.165,0.042,302.8,0.141,0.096,0.171*5
1223739334.780821, $GPGGA,153436.00,4530.34045397,N,00909.97756129,E,2,5,3.3,129.683,M,48.022,M,1.0,0000*7
1223739334.790803, $GPGST,153436.00,0.162,0.175,0.044,302.8,0.149,0.102,0.182*5
1223739334.976754, $GPGGA,153436.20,4530.34045525,N,00909.97755710,E,2,5,3.3,129.683,M,48.022,M,1.2,0000*7
1223739334.986746, $GPGST,153436.20,0.162,0.175,0.044,302.8,0.149,0.102,0.182*5
1223739335.177683, $GPGGA,153436.40,4530.34045525,N,00909.97756105,E,2,5,3.3,129.682,M,48.022,M,1.4,0000*7
1223739335.187663, $GPGST,153436.40,0.162,0.175,0.044,302.8,0.149,0.102,0.182*5
1223739335.376622, $GPGGA,153436.60,4530.34045864,N,00909.97756160,E,2,5,3.3,129.677,M,48.022,M,0.6,0000*7
1223739335.386594, $GPGST,153436.60,0.162,0.175,0.044,302.8,0.149,0.102,0.182*5
1223739335.577541, $GPGGA,153436.80,4530.34045578,N,00909.97756133,E,2,5,3.3,129.676,M,48.022,M,0.8,0000*7
1223739335.586523, $GPGST,153436.80,0.162,0.175,0.044,302.8,0.149,0.102,0.182*5
1223739335.781616, $GPGGA,153437.00,4530.34045791,N,00909.97754818,E,2,5,3.3,129.640,M,48.022,M,1.0,0000*7
1223739335.790471, $GPGST,153437.00,0.153,0.165,0.042,302.9,0.141,0.096,0.171*5
1223739335.980401, $GPGGA,153437.20,4530.34045577,N,00909.97754530,E,2,5,3.3,129.640,M,48.022,M,1.2,0000*7
1223739335.990383, $GPGST,153437.20,0.155,0.167,0.042,302.8,0.142,0.097,0.173*5
1223739336.177332, $GPGGA,153437.40,4530.34046474,N,00909.97755168,E,2,5,3.3,129.620,M,48.022,M,1.4,0000*7
1223739336.186311, $GPGST,153437.40,0.155,0.167,0.042,302.8,0.142,0.097,0.173*5
1223739336.377261, $GPGGA,153437.60,4530.34045851,N,00909.97754797,E,2,5,3.3,129.631,M,48.022,M,0.6,0000*7
1223739336.387241, $GPGST,153437.60,0.155,0.167,0.042,302.8,0.142,0.097,0.173*5
1223739336.577190, $GPGGA,153437.80,4530.34046242,N,00909.97754807,E,2,5,3.3,129.620,M,48.022,M,0.8,0000*7
1223739336.587170, $GPGST,153437.80,0.155,0.167,0.042,302.8,0.142,0.097,0.173*5
1223739336.781118, $GPGGA,153438.00,4530.34047427,N,00909.97756617,E,2,5,3.3,129.636,M,48.022,M,1.0,0000*7
1223739336.791101, $GPGST,153438.00,0.167,0.180,0.046,302.9,0.153,0.105,0.187*5
1223739336.977050, $GPGGA,153438.20,4530.34047642,N,00909.97756916,E,2,5,3.3,129.633,M,48.022,M,1.2,0000*7
1223739336.987032, $GPGST,153438.20,0.167,0.180,0.046,302.9,0.153,0.105,0.187*5
1223739337.176981, $GPGGA,153438.40,4530.34046955,N,00909.97756582,E,2,5,3.3,129.642,M,48.022,M,1.4,0000*7
1223739337.186961, $GPGST,153438.40,0.167,0.180,0.046,302.9,0.153,0.105,0.187*5
1223739337.377908, $GPGGA,153438.60,4530.34047970,N,00909.97757216,E,2,5,3.3,129.625,M,48.022,M,1.6,0000*7
1223739337.386889, $GPGST,153438.60,0.167,0.180,0.046,302.9,0.153,0.105,0.187*5
1223739337.577894, $GPGGA,153438.80,4530.34047571,N,00909.97757039,E,2,5,3.3,129.638,M,48.022,M,0.8,0000*7
1223739337.586820, $GPGST,153438.80,0.167,0.180,0.046,302.9,0.153,0.105,0.187*5
1223739337.781766, $GPGGA,153439.00,4530.34045260,N,00909.97755561,E,2,5,3.3,129.608,M,48.022,M,1.0,0000*7
1223739337.791753, $GPGST,153439.00,0.163,0.175,0.044,302.8,0.149,0.102,0.182*5
1223739337.980696, $GPGGA,153439.20,4530.34045353,N,00909.97755682,E,2,5,3.3,129.609,M,48.022,M,1.2,0000*7
1223739337.990676, $GPGST,153439.20,0.160,0.172,0.044,302.8,0.146,0.100,0.178*5
1223739338.177631, $GPGGA,153439.40,4530.34045479,N,00909.97755766,E,2,5,3.3,129.608,M,48.022,M,1.4,0000*7
1223739338.187607, $GPGST,153439.40,0.160,0.172,0.044,302.8,0.146,0.100,0.178*5
1223739338.377560, $GPGGA,153439.60,4530.34045514,N,00909.97755893,E,2,5,3.3,129.597,M,48.022,M,0.6,0000*7
1223739338.387537, $GPGST,153439.60,0.160,0.172,0.044,302.8,0.146,0.100,0.178*5
1223739338.577510, $GPGGA,153439.80,4530.34044906,N,00909.97755237,E,2,5,3.3,129.616,M,48.022,M,0.8,0000*7
1223739338.587510, $GPGST,153439.80,0.160,0.172,0.044,302.8,0.146,0.100,0.178*5
1223739338.782416, $GPGGA,153440.00,4530.34042047,N,00909.97756790,E,2,5,3.3,129.637,M,48.022,M,1.0,0000*7
1223739338.791397, $GPGST,153440.00,0.160,0.172,0.044,302.9,0.146,0.100,0.178*5
1223739338.977352, $GPGGA,153440.20,4530.34039752,N,00909.97758422,E,2,5,3.3,129.626,M,48.022,M,1.2,0000*7
1223739338.987328, $GPGST,153440.20,0.160,0.172,0.044,302.9,0.146,0.100,0.178*5
1223739339.177296, $GPGGA,153440.40,4530.34036603,N,00909.97759227,E,2,5,3.3,129.630,M,48.022,M,1.4,0000*7
1223739339.187257, $GPGST,153440.40,0.160,0.172,0.044,302.9,0.146,0.100,0.178*5
1223739339.378205, $GPGGA,153440.60,4530.34035083,N,00909.97760134,E,2,5,3.3,129.630,M,48.022,M,0.6,0000*7
1223739339.388192, $GPGST,153440.60,0.160,0.172,0.044,302.9,0.146,0.100,0.178*5
1223739339.578134, $GPGGA,153440.80,4530.34032721,N,00909.97761189,E,2,5,3.3,129.606,M,48.022,M,0.8,0000*7
1223739339.587119, $GPGST,153440.80,0.160,0.172,0.044,302.9,0.146,0.100,0.178*5
1223739339.782063, $GPGGA,153441.00,4530.34029999,N,00909.97763251,E,2,5,3.3,129.630,M,48.022,M,1.0,0000*7
1223739339.792042, $GPGST,153441.00,0.167,0.180,0.046,302.8,0.153,0.105,0.187*5
1223739339.980991, $GPGGA,153441.20,4530.34027745,N,00909.97764596,E,2,5,3.3,129.618,M,48.022,M,1.2,0000*7
1223739339.990972, $GPGST,153441.20,0.160,0.172,0.044,302.8,0.146,0.100,0.178*5
1223739340.177923, $GPGGA,153441.40,4530.34025179,N,00909.97765262,E,2,5,3.3,129.626,M,48.022,M,1.4,0000*7
1223739340.187903, $GPGST,153441.40,0.160,0.172,0.044,302.8,0.146,0.100,0.178*5
1223739340.377858, $GPGGA,153441.60,4530.34019257,N,00909.97766391,E,2,5,3.3,129.647,M,48.022,M,0.6,0000*7
1223739340.387833, $GPGST,153441.60,0.160,0.172,0.044,302.8,0.146,0.100,0.178*5
1223739340.577782, $GPGGA,153441.80,4530.34016493,N,00909.97767842,E,2,5,3.3,129.616,M,48.022,M,0.8,0000*7
1223739340.587763, $GPGST,153441.80,0.160,0.172,0.044,302.8,0.146,0.100,0.178*5
1223739340.782710, $GPGGA,153442.00,4530.34014330,N,00909.97768777,E,2,5,3.3,129.588,M,48.022,M,1.0,0000*7
1223739340.791691, $GPGST,153442.00,0.150,0.165,0.042,302.8,0.140,0.096,0.171*5
1223739340.978642, $GPGGA,153442.20,4530.34011411,N,00909.97769432,E,2,5,3.3,129.574,M,48.022,M,1.2,0000*7
1223739340.987622, $GPGST,153442.20,0.150,0.165,0.042,302.8,0.140,0.096,0.171*5
1223739341.178573, $GPGGA,153442.40,4530.34008663,N,00909.97771302,E,2,5,3.3,129.548,M,48.022,M,1.4,0000*7
1223739341.187556, $GPGST,153442.40,0.150,0.165,0.042,302.8,0.140,0.096,0.171*5
1223739341.378501, $GPGGA,153442.60,4530.34004808,N,00909.97772208,E,2,5,3.3,129.544,M,48.022,M,0.6,0000*7
1223739341.388481, $GPGST,153442.60,0.150,0.165,0.042,302.8,0.140,0.096,0.171*5
1223739341.578431, $GPGGA,153442.80,4530.34001458,N,00909.97772648,E,2,5,3.3,129.562,M,48.022,M,0.8,0000*7
1223739341.588411, $GPGST,153442.80,0.150,0.165,0.042,302.8,0.140,0.096,0.171*5
1223739341.782359, $GPGGA,153443.00,4530.33995878,N,00909.97773498,E,2,5,3.3,129.604,M,48.022,M,1.0,0000*7
1223739341.792339, $GPGST,153443.00,0.145,0.165,0.042,302.8,0.140,0.096,0.171*5
1223739341.981289, $GPGGA,153443.20,4530.33992179,N,00909.97774259,E,2,5,3.3,129.623,M,48.022,M,1.2,0000*7
1223739341.991270, $GPGST,153443.20,0.145,0.165,0.042,302.8,0.140,0.096,0.171*5
1223739342.178222, $GPGGA,153443.40,4530.33987803,N,00909.97774640,E,2,5,3.3,129.634,M,48.022,M,1.4,0000*7
1223739342.188202, $GPGST,153443.40,0.145,0.165,0.042,302.8,0.140,0.096,0.171*5
1223739342.379149, $GPGGA,153443.60,4530.33986462,N,00909.97776128,E,2,5,3.3,129.613,M,48.022,M,0.6,0000*7
1223739342.388130, $GPGST,153443.60,0.145,0.165,0.042,302.8,0.140,0.096,0.171*5
1223739342.578080, $GPGGA,153443.80,4530.33982960,N,00909.97777853,E,2,5,3.3,129.612,M,48.022,M,0.8,0000*7
1223739342.588060, $GPGST,153443.80,0.145,0.165,0.042,302.8,0.140,0.096,0.171*5
1223739342.783007, $GPGGA,153444.00,4530.33981343,N,00909.97781502,E,2,5,3.3,129.583,M,48.022,M,1.0,0000*7
1223739342.792988, $GPGST,153444.00,0.119,0.165,0.042,302.8,0.140,0.096,0.171*5
1223739342.978938, $GPGGA,153444.20,4530.33978443,N,00909.97785473,E,2,5,3.3,129.566,M,48.022,M,1.2,0000*7
1223739342.987919, $GPGST,153444.20,0.119,0.165,0.042,302.8,0.140,0.096,0.171*5
1223739343.178869, $GPGGA,153444.40,4530.33974832,N,00909.97786935,E,2,5,3.3,129.569,M,48.022,M,1.4,0000*7
1223739343.187870, $GPGST,153444.40,0.119,0.165,0.042,302.8,0.140,0.096,0.171*5
1223739343.378799, $GPGGA,153444.60,4530.33972030,N,00909.97789811,E,2,5,3.3,129.572,M,48.022,M,0.6,0000*7
1223739343.388779, $GPGST,153444.60,0.119,0.165,0.042,302.8,0.140,0.096,0.171*5
1223739343.578727, $GPGGA,153444.80,4530.33968348,N,00909.97792803,E,2,5,3.3,129.578,M,48.022,M,0.8,0000*7
1223739343.588711, $GPGST,153444.80,0.119,0.165,0.042,302.8,0.140,0.096,0.171*5
1223739343.782658, $GPGGA,153445.00,4530.33963844,N,00909.97795022,E,2,5,3.3,129.581,M,48.022,M,1.0,0000*7
1223739343.792639, $GPGST,153445.00,0.126,0.164,0.042,302.8,0.140,0.096,0.171*5
1223739343.981606, $GPGGA,153445.20,4530.33961238,N,00909.97799139,E,2,5,3.3,129.533,M,48.022,M,1.2,0000*7
1223739343.991587, $GPGST,153445.20,0.105,0.164,0.042,302.8,0.140,0.096,0.171*5
1223739344.178517, $GPGGA,153445.40,4530.33956309,N,00909.97803149,E,2,5,3.3,129.548,M,48.022,M,1.4,0000*7
1223739344.188498, $GPGST,153445.40,0.105,0.164,0.042,302.8,0.140,0.096,0.171*5
1223739344.378449, $GPGGA,153445.60,4530.33951584,N,00909.97808148,E,2,5,3.3,129.552,M,48.022,M,0.6,0000*7
1223739344.388427, $GPGST,153445.60,0.105,0.164,0.042,302.8,0.140,0.096,0.171*5
1223739344.579376, $GPGGA,153445.80,4530.33946887,N,00909.97812486,E,2,5,3.3,129.586,M,48.022,M,0.8,0000*7
1223739344.588364, $GPGST,153445.80,0.105,0.164,0.042,302.8,0.140,0.096,0.171*5
1223739344.783303, $GPGGA,153446.00,4530.33943400,N,00909.97818135,E,2,5,3.3,129.544,M,48.022,M,1.0,0000*7
1223739344.793284, $GPGST,153446.00,0.116,0.164,0.042,302.8,0.140,0.096,0.171*5
1223739344.979231, $GPGGA,153446.20,4530.33939443,N,00909.97822930,E,2,5,3.3,129.543,M,48.022,M,1.2,0000*7
1223739344.989216, $GPGST,153446.20,0.116,0.164,0.042,302.8,0.140,0.096,0.171*5
1223739345.179166, $GPGGA,153446.40,4530.33934368,N,00909.97828403,E,2,5,3.3,129.569,M,48.022,M,1.4,0000*7
1223739345.189150, $GPGST,153446.40,0.116,0.164,0.042,302.8,0.140,0.096,0.171*5
1223739345.379094, $GPGGA,153446.60,4530.33932035,N,00909.97833128,E,2,5,3.3,129.538,M,48.022,M,0.6,0000*7
1223739345.389075, $GPGST,153446.60,0.116,0.164,0.042,302.8,0.140,0.096,0.171*5
1223739345.579025, $GPGGA,153446.80,4530.33928203,N,00909.97837934,E,2,5,3.3,129.555,M,48.022,M,0.8,0000*7
1223739345.589005, $GPGST,153446.80,0.116,0.164,0.042,302.8,0.140,0.096,0.171*5
1223739345.783953, $GPGGA,153447.00,4530.33925165,N,00909.97846011,E,2,5,3.3,129.517,M,48.022,M,1.0,0000*7
1223739345.792933, $GPGST,153447.00,0.121,0.164,0.042,302.8,0.140,0.096,0.171*5
1223739345.982893, $GPGGA,153447.20,4530.33920723,N,00909.97851708,E,2,5,3.3,129.538,M,48.022,M,1.2,0000*7
1223739345.992862, $GPGST,153447.20,0.125,0.164,0.042,302.8,0.140,0.096,0.171*5
1223739346.179893, $GPGGA,153447.40,4530.33916525,N,00909.97858333,E,2,5,3.3,129.540,M,48.022,M,1.4,0000*7
1223739346.188810, $GPGST,153447.40,0.125,0.164,0.042,302.8,0.140,0.096,0.171*5
1223739346.379745, $GPGGA,153447.60,4530.33913664,N,00909.97865456,E,2,5,3.3,129.524,M,48.022,M,0.6,0000*7
1223739346.389742, $GPGST,153447.60,0.125,0.164,0.042,302.8,0.140,0.096,0.171*5
1223739346.579674, $GPGGA,153447.80,4530.33908093,N,00909.97871966,E,2,5,3.3,129.548,M,48.022,M,0.8,0000*7
1223739346.589654, $GPGST,153447.80,0.125,0.164,0.042,302.8,0.140,0.096,0.171*5
1223739346.783603, $GPGGA,153448.00,4530.33907286,N,00909.97880205,E,2,5,3.3,129.485,M,48.022,M,1.0,0000*7
1223739346.793582, $GPGST,153448.00,0.104,0.164,0.042,302.9,0.140,0.096,0.171*5
1223739346.979531, $GPGGA,153448.20,4530.33903087,N,00909.97889524,E,2,5,3.3,129.479,M,48.022,M,1.2,0000*7
1223739346.989512, $GPGST,153448.20,0.104,0.164,0.042,302.9,0.140,0.096,0.171*5
1223739347.179460, $GPGGA,153448.40,4530.33898050,N,00909.97898585,E,2,5,3.3,129.525,M,48.022,M,1.4,0000*7
1223739347.189441, $GPGST,153448.40,0.104,0.164,0.042,302.9,0.140,0.096,0.171*5
1223739347.379390, $GPGGA,153448.60,4530.33895784,N,00909.97907974,E,2,5,3.3,129.496,M,48.022,M,0.6,0000*7
1223739347.389371, $GPGST,153448.60,0.104,0.164,0.042,302.9,0.140,0.096,0.171*5
1223739347.579320, $GPGGA,153448.80,4530.33891126,N,00909.97918438,E,2,5,3.3,129.504,M,48.022,M,0.8,0000*7
1223739347.589300, $GPGST,153448.80,0.104,0.164,0.042,302.9,0.140,0.096,0.171*5
1223739347.784247, $GPGGA,153449.00,4530.33888892,N,00909.97929049,E,2,5,3.3,129.507,M,48.022,M,1.0,0000*7
1223739347.794228, $GPGST,153449.00,0.098,0.164,0.042,302.9,0.140,0.096,0.171*5
1223739347.983177, $GPGGA,153449.20,4530.33885882,N,00909.97939794,E,2,5,3.3,129.523,M,48.022,M,1.2,0000*7
1223739347.993158, $GPGST,153449.20,0.099,0.164,0.042,302.9,0.140,0.096,0.171*5
1223739348.180104, $GPGGA,153449.40,4530.33883027,N,00909.97949776,E,2,5,3.3,129.546,M,48.022,M,1.4,0000*7
1223739348.189089, $GPGST,153449.40,0.099,0.164,0.042,302.9,0.140,0.096,0.171*5
1223739348.380038, $GPGGA,153449.60,4530.33882461,N,00909.97961493,E,2,5,3.3,129.522,M,48.022,M,0.6,0000*7
1223739348.390024, $GPGST,153449.60,0.099,0.164,0.042,302.9,0.140,0.096,0.171*5
1223739348.579968, $GPGGA,153449.80,4530.33881663,N,00909.97972375,E,2,5,3.3,129.495,M,48.022,M,0.8,0000*7
1223739348.589948, $GPGST,153449.80,0.099,0.164,0.042,302.9,0.140,0.096,0.171*5
1223739348.783896, $GPGGA,153450.00,4530.33881645,N,00909.97984376,E,2,5,3.3,129.481,M,48.022,M,1.0,0000*7
1223739348.793877, $GPGST,153450.00,0.133,0.164,0.042,302.9,0.140,0.096,0.171*5
1223739348.979827, $GPGGA,153450.20,4530.33879105,N,00909.97995068,E,2,5,3.3,129.526,M,48.022,M,1.2,0000*7
1223739348.989828, $GPGST,153450.20,0.133,0.164,0.042,302.9,0.140,0.096,0.171*5
1223739349.179758, $GPGGA,153450.40,4530.33882664,N,00909.98005217,E,2,5,3.3,129.476,M,48.022,M,1.4,0000*7
1223739349.189738, $GPGST,153450.40,0.133,0.164,0.042,302.9,0.140,0.096,0.171*5
1223739349.382751, $GPGGA,153450.60,4530.33882204,N,00909.98014417,E,2,5,3.3,129.531,M,48.022,M,0.6,0000*7
1223739349.389669, $GPGST,153450.60,0.133,0.164,0.042,302.9,0.140,0.096,0.171*5
1223739349.582615, $GPGGA,153450.80,4530.33897553,N,00909.98025839,E,2,4,3.9,129.176,M,48.022,M,0.8,0000*7
1223739349.592595, $GPGST,153450.80,0.000,1.244,0.390,295.0,1.139,0.634,1.503*5
1223739349.783544, $GPGGA,153451.00,4530.33901625,N,00909.98038258,E,2,4,3.9,129.133,M,48.022,M,1.0,0000*7
1223739349.793524, $GPGST,153451.00,0.000,1.244,0.390,295.0,1.139,0.634,1.503*5
1223739349.983473, $GPGGA,153451.20,4530.33902976,N,00909.98047402,E,2,4,3.9,129.181,M,48.022,M,1.2,0000*7
1223739349.992454, $GPGST,153451.20,0.000,1.242,0.390,295.0,1.138,0.633,1.502*5
1223739350.180404, $GPGGA,153451.40,4530.33907720,N,00909.98056317,E,2,4,3.9,129.164,M,48.022,M,1.4,0000*7
1223739350.190385, $GPGST,153451.40,0.000,1.242,0.390,295.0,1.138,0.633,1.502*5
1223739350.380334, $GPGGA,153451.60,4530.33913060,N,00909.98064993,E,2,4,3.9,129.151,M,48.022,M,0.6,0000*7
1223739350.390314, $GPGST,153451.60,0.000,1.242,0.390,295.0,1.138,0.633,1.502*5
1223739350.580263, $GPGGA,153451.80,4530.33915712,N,00909.98073156,E,2,4,3.9,129.158,M,48.022,M,0.8,0000*7
1223739350.590244, $GPGST,153451.80,0.000,1.242,0.390,295.0,1.138,0.633,1.502*5
1223739350.784192, $GPGGA,153452.00,4530.33919359,N,00909.98080206,E,2,4,3.9,129.185,M,48.022,M,1.0,0000*7
1223739350.794173, $GPGST,153452.00,0.000,1.242,0.390,295.0,1.138,0.633,1.502*5
1223739350.981135, $GPGGA,153452.20,4530.33925044,N,00909.98085412,E,2,4,3.9,129.197,M,48.022,M,1.2,0000*7
1223739350.991103, $GPGST,153452.20,0.000,1.242,0.390,295.0,1.138,0.633,1.502*5
1223739351.180054, $GPGGA,153452.40,4530.33931668,N,00909.98093366,E,2,4,3.9,129.185,M,48.022,M,1.4,0000*7
1223739351.190034, $GPGST,153452.40,0.000,1.242,0.390,295.0,1.138,0.633,1.502*5
1223739351.382954, $GPGGA,153452.60,4530.33935681,N,00909.98098075,E,2,4,3.9,129.245,M,48.022,M,0.6,0000*7
1223739351.389979, $GPGST,153452.60,0.000,1.242,0.390,295.0,1.138,0.633,1.502*5
1223739351.580913, $GPGGA,153452.80,4530.33941031,N,00909.98102380,E,2,4,3.9,129.225,M,48.022,M,0.8,0000*7
1223739351.589894, $GPGST,153452.80,0.000,1.242,0.390,295.0,1.138,0.633,1.502*5
1223739351.784841, $GPGGA,153453.00,4530.33946933,N,00909.98107109,E,2,4,3.9,129.222,M,48.022,M,1.0,0000*7
1223739351.793822, $GPGST,153453.00,0.000,1.242,0.390,295.0,1.138,0.633,1.502*5
1223739351.983772, $GPGGA,153453.20,4530.33953342,N,00909.98110832,E,2,4,3.9,129.236,M,48.022,M,1.2,0000*7
1223739351.993754, $GPGST,153453.20,0.000,1.241,0.390,295.0,1.137,0.632,1.501*5
1223739352.181702, $GPGGA,153453.40,4530.33962735,N,00909.98113094,E,2,4,3.9,129.192,M,48.022,M,1.4,0000*7
1223739352.191684, $GPGST,153453.40,0.000,1.241,0.390,295.0,1.137,0.632,1.501*5
1223739352.380629, $GPGGA,153453.60,4530.33967558,N,00909.98113607,E,2,4,3.9,129.245,M,48.022,M,0.6,0000*7
1223739352.390634, $GPGST,153453.60,0.000,1.241,0.390,295.0,1.137,0.632,1.501*5
1223739352.580630, $GPGGA,153453.80,4530.33974319,N,00909.98113631,E,2,4,3.9,129.284,M,48.022,M,0.8,0000*7
1223739352.590544, $GPGST,153453.80,0.000,1.241,0.390,295.0,1.137,0.632,1.501*5
1223739352.784492, $GPGGA,153454.00,4530.33984845,N,00909.98114131,E,2,4,3.9,129.231,M,48.022,M,1.0,0000*7
1223739352.794474, $GPGST,153454.00,0.000,1.240,0.390,295.0,1.136,0.632,1.500*5
1223739352.980438, $GPGGA,153454.20,4530.33990005,N,00909.98112550,E,2,4,3.9,129.311,M,48.022,M,1.2,0000*7
1223739352.990402, $GPGST,153454.20,0.000,1.240,0.390,295.0,1.136,0.632,1.500*5
1223739353.181349, $GPGGA,153454.40,4530.33998277,N,00909.98111373,E,2,4,3.9,129.254,M,48.022,M,1.4,0000*7
1223739353.190330, $GPGST,153454.40,0.000,1.240,0.390,295.0,1.136,0.632,1.500*5
1223739353.381278, $GPGGA,153454.60,4530.34003532,N,00909.98109247,E,2,4,3.9,129.289,M,48.022,M,1.6,0000*7
1223739353.391269, $GPGST,153454.60,0.000,1.240,0.390,295.0,1.136,0.632,1.500*5
1223739353.581209, $GPGGA,153454.80,4530.34010192,N,00909.98103494,E,2,4,3.9,129.294,M,48.022,M,1.8,0000*7
1223739353.591189, $GPGST,153454.80,0.000,1.240,0.390,295.0,1.136,0.632,1.500*5
1223739353.785160, $GPGGA,153455.00,4530.34018939,N,00909.98101464,E,2,4,3.9,129.223,M,48.022,M,2.0,0000*7
1223739353.794161, $GPGST,153455.00,0.000,1.241,0.391,295.0,1.137,0.633,1.501*5
1223739353.984070, $GPGGA,153455.20,4530.34028309,N,00909.98097169,E,2,3,7.9,129.340,M,48.022,M,2.2,0000*7
1223739353.993050, $GPGST,153455.20,0.000,2.674,0.498,271.9,2.672,0.505,1.365*5
1223739354.181242, $GPGGA,153455.40,4530.34034875,N,00909.98091387,E,2,3,7.9,129.341,M,48.022,M,2.4,0000*7
1223739354.190980, $GPGST,153455.40,0.000,2.674,0.498,271.9,2.672,0.505,1.365*5
1223739354.380929, $GPGGA,153455.60,4530.34045159,N,00909.98085998,E,2,3,7.9,129.341,M,48.022,M,0.6,0000*7
1223739354.390910, $GPGST,153455.60,0.000,2.674,0.498,271.9,2.672,0.505,1.365*5
1223739354.580856, $GPGGA,153455.80,4530.34047567,N,00909.98078040,E,2,3,7.9,129.341,M,48.022,M,0.8,0000*7
1223739354.590837, $GPGST,153455.80,0.000,2.674,0.498,271.9,2.672,0.505,1.365*5
1223739354.784786, $GPGGA,153456.00,4530.34046033,N,00909.98072018,E,2,3,7.9,129.281,M,48.022,M,1.0,0000*7
1223739354.793785, $GPGST,153456.00,0.000,2.673,0.497,271.9,2.671,0.504,1.365*5
1223739354.981715, $GPGGA,153456.20,4530.34052281,N,00909.98063948,E,2,3,7.9,129.281,M,48.022,M,1.2,0000*7
1223739354.990697, $GPGST,153456.20,0.000,2.673,0.497,271.9,2.671,0.504,1.365*5
1223739355.181646, $GPGGA,153456.40,4530.34058938,N,00909.98057433,E,2,3,7.9,129.282,M,48.022,M,1.4,0000*7
1223739355.190626, $GPGST,153456.40,0.000,2.673,0.497,271.9,2.671,0.504,1.365*5
1223739355.381575, $GPGGA,153456.60,4530.34063390,N,00909.98048983,E,2,3,7.9,129.282,M,48.022,M,0.6,0000*7
1223739355.391555, $GPGST,153456.60,0.000,2.673,0.497,271.9,2.671,0.504,1.365*5
1223739355.581505, $GPGGA,153456.80,4530.34066787,N,00909.98038719,E,2,3,7.9,129.282,M,48.022,M,0.8,0000*7
1223739355.591485, $GPGST,153456.80,0.000,2.673,0.497,271.9,2.671,0.504,1.365*5
1223739355.784434, $GPGGA,153457.00,4530.34073945,N,00909.98031202,E,2,3,7.9,129.282,M,48.022,M,1.0,0000*7
1223739355.794414, $GPGST,153457.00,0.000,2.673,0.497,271.9,2.671,0.504,1.365*5
1223739355.984362, $GPGGA,153457.20,4530.34074593,N,00909.98022165,E,2,3,7.9,129.281,M,48.022,M,1.2,0000*7
1223739355.994344, $GPGST,153457.20,0.000,2.666,0.497,271.9,2.664,0.504,1.365*5
1223739356.181293, $GPGGA,153457.40,4530.34074982,N,00909.98012104,E,2,3,7.9,129.281,M,48.022,M,1.4,0000*7
1223739356.191274, $GPGST,153457.40,0.000,2.666,0.497,271.9,2.664,0.504,1.365*5
1223739356.381224, $GPGGA,153457.60,4530.34079206,N,00909.98002112,E,2,3,7.9,129.281,M,48.022,M,0.6,0000*7
1223739356.391204, $GPGST,153457.60,0.000,2.666,0.497,271.9,2.664,0.504,1.365*5
1223739356.582152, $GPGGA,153457.80,4530.34083715,N,00909.97991459,E,2,3,7.9,129.282,M,48.022,M,0.8,0000*7
1223739356.591133, $GPGST,153457.80,0.000,2.666,0.497,271.9,2.664,0.504,1.365*5
1223739356.785081, $GPGGA,153458.00,4530.34074546,N,00909.97980744,E,2,3,7.9,129.281,M,48.022,M,1.0,0000*7
1223739356.795062, $GPGST,153458.00,0.000,2.665,0.497,271.9,2.664,0.504,1.365*5
1223739356.982015, $GPGGA,153458.20,4530.34073560,N,00909.97971952,E,2,3,7.9,129.281,M,48.022,M,1.2,0000*7
1223739356.991003, $GPGST,153458.20,0.000,2.665,0.497,271.9,2.664,0.504,1.365*5
1223739357.181943, $GPGGA,153458.40,4530.34074262,N,00909.97963342,E,2,3,7.9,129.281,M,48.022,M,1.4,0000*7
1223739357.191922, $GPGST,153458.40,0.000,2.665,0.497,271.9,2.664,0.504,1.365*5
1223739357.381873, $GPGGA,153458.60,4530.34070266,N,00909.97952895,E,2,3,7.9,129.281,M,48.022,M,0.6,0000*7
1223739357.391854, $GPGST,153458.60,0.000,2.665,0.497,271.9,2.664,0.504,1.365*5
1223739357.581804, $GPGGA,153458.80,4530.34067897,N,00909.97943718,E,2,3,7.9,129.281,M,48.022,M,0.8,0000*7
1223739357.591783, $GPGST,153458.80,0.000,2.665,0.497,271.9,2.664,0.504,1.365*5
1223739357.785730, $GPGGA,153459.00,4530.34070497,N,00909.97933068,E,2,4,7.5,129.242,M,48.022,M,1.0,0000*7
1223739357.795713, $GPGST,153459.00,0.000,2.607,0.482,271.9,2.606,0.489,1.246*5
1223739357.985660, $GPGGA,153459.20,4530.34069637,N,00909.97922818,E,2,4,7.5,129.264,M,48.022,M,1.2,0000*7
1223739357.995731, $GPGST,153459.20,0.000,2.600,0.482,271.9,2.599,0.489,1.246*5
1223739358.182591, $GPGGA,153459.40,4530.34065684,N,00909.97914497,E,2,4,7.5,129.254,M,48.022,M,1.4,0000*7
1223739358.191572, $GPGST,153459.40,0.000,2.600,0.482,271.9,2.599,0.489,1.246*5
1223739358.382521, $GPGGA,153459.60,4530.34062312,N,00909.97905780,E,2,4,7.5,129.264,M,48.022,M,0.6,0000*7
1223739358.392501, $GPGST,153459.60,0.000,2.600,0.482,271.9,2.599,0.489,1.246*5
1223739358.582453, $GPGGA,153459.80,4530.34061242,N,00909.97900103,E,2,4,7.5,129.285,M,48.022,M,0.8,0000*7
1223739358.592432, $GPGST,153459.80,0.000,2.600,0.482,271.9,2.599,0.489,1.246*5
1223739358.786379, $GPGGA,153500.00,4530.34043560,N,00909.97894148,E,2,4,7.5,129.217,M,48.022,M,1.0,0000*7
1223739358.796361, $GPGST,153500.00,0.000,2.601,0.481,271.9,2.600,0.489,1.242*5
1223739358.982310, $GPGGA,153500.20,4530.34044751,N,00909.97887613,E,2,4,7.5,129.233,M,48.022,M,1.2,0000*7
1223739358.992290, $GPGST,153500.20,0.000,2.601,0.481,271.9,2.600,0.489,1.242*5
1223739359.182237, $GPGGA,153500.40,4530.34035921,N,00909.97882014,E,2,4,7.5,129.213,M,48.022,M,1.4,0000*7
1223739359.192218, $GPGST,153500.40,0.000,2.601,0.481,271.9,2.600,0.489,1.242*5
1223739359.382167, $GPGGA,153500.60,4530.34033548,N,00909.97877317,E,2,4,7.5,129.220,M,48.022,M,0.6,0000*7
1223739359.392147, $GPGST,153500.60,0.000,2.601,0.481,271.9,2.600,0.489,1.242*5
1223739359.582112, $GPGGA,153500.80,4530.34022536,N,00909.97873584,E,2,4,7.5,129.228,M,48.022,M,0.8,0000*7
1223739359.592077, $GPGST,153500.80,0.000,2.601,0.481,271.9,2.600,0.489,1.242*5
1223739359.787029, $GPGGA,153501.00,4530.34016548,N,00909.97866784,E,2,4,7.5,129.119,M,48.022,M,1.0,0000*7
1223739359.796008, $GPGST,153501.00,0.000,2.602,0.481,271.9,2.600,0.489,1.239*5
1223739359.985956, $GPGGA,153501.20,4530.34012274,N,00909.97861889,E,2,4,7.4,129.165,M,48.022,M,1.2,0000*7
1223739359.995937, $GPGST,153501.20,0.000,2.595,0.481,271.9,2.593,0.489,1.239*5
1223739360.182886, $GPGGA,153501.40,4530.34001481,N,00909.97861389,E,2,4,7.4,129.166,M,48.022,M,1.4,0000*7
1223739360.191866, $GPGST,153501.40,0.000,2.595,0.481,271.9,2.593,0.489,1.239*5
1223739360.382814, $GPGGA,153501.60,4530.33997934,N,00909.97858466,E,2,4,7.4,129.137,M,48.022,M,0.6,0000*7
1223739360.392795, $GPGST,153501.60,0.000,2.595,0.481,271.9,2.593,0.489,1.239*5
1223739360.582744, $GPGGA,153501.80,4530.33988775,N,00909.97860286,E,2,4,7.4,129.180,M,48.022,M,0.8,0000*7
1223739360.592725, $GPGST,153501.80,0.000,2.595,0.481,271.9,2.593,0.489,1.239*5
1223739360.786674, $GPGGA,153502.00,4530.33978282,N,00909.97862583,E,2,4,7.4,129.153,M,48.022,M,1.0,0000*7
1223739360.796653, $GPGST,153502.00,0.000,2.595,0.481,271.9,2.594,0.489,1.237*5
1223739360.982604, $GPGGA,153502.20,4530.33970939,N,00909.97863686,E,2,4,7.4,129.148,M,48.022,M,1.2,0000*7
1223739360.992584, $GPGST,153502.20,0.000,2.595,0.481,271.9,2.594,0.489,1.237*5
1223739361.182533, $GPGGA,153502.40,4530.33966427,N,00909.97865681,E,2,4,7.4,129.158,M,48.022,M,1.4,0000*7
1223739361.192514, $GPGST,153502.40,0.000,2.595,0.481,271.9,2.594,0.489,1.237*5
1223739361.383462, $GPGGA,153502.60,4530.33960192,N,00909.97868962,E,2,4,7.4,129.156,M,48.022,M,0.6,0000*7
1223739361.392443, $GPGST,153502.60,0.000,2.595,0.481,271.9,2.594,0.489,1.237*5
1223739361.583392, $GPGGA,153502.80,4530.33951088,N,00909.97873043,E,2,4,7.4,129.157,M,48.022,M,0.8,0000*7
1223739361.593372, $GPGST,153502.80,0.000,2.595,0.481,271.9,2.594,0.489,1.237*5
1223739361.787318, $GPGGA,153503.00,4530.33943849,N,00909.97877652,E,2,4,7.4,129.139,M,48.022,M,1.0,0000*7
1223739361.797302, $GPGST,153503.00,0.000,2.596,0.481,271.9,2.595,0.488,1.231*5
1223739361.986249, $GPGGA,153503.20,4530.33936030,N,00909.97884170,E,2,4,7.4,129.159,M,48.022,M,1.2,0000*7
1223739361.996231, $GPGST,153503.20,0.000,2.589,0.481,271.9,2.588,0.488,1.230*5
1223739362.183179, $GPGGA,153503.40,4530.33929861,N,00909.97892316,E,2,4,7.4,129.169,M,48.022,M,1.4,0000*7
1223739362.193161, $GPGST,153503.40,0.000,2.589,0.481,271.9,2.588,0.488,1.230*5
1223739362.383113, $GPGGA,153503.60,4530.33925571,N,00909.97899347,E,2,4,7.4,129.141,M,48.022,M,0.6,0000*7
1223739362.393108, $GPGST,153503.60,0.000,2.589,0.481,271.9,2.588,0.488,1.230*5
1223739362.583042, $GPGGA,153503.80,4530.33915413,N,00909.97905610,E,2,4,7.4,129.139,M,48.022,M,0.8,0000*7
1223739362.592528, $GPGST,153503.80,0.000,2.589,0.481,271.9,2.588,0.488,1.230*5
1223739362.786972, $GPGGA,153504.00,4530.33915581,N,00909.97911927,E,2,4,7.4,129.196,M,48.022,M,1.0,0000*7
1223739362.796953, $GPGST,153504.00,0.000,2.589,0.481,271.9,2.588,0.488,1.229*5
1223739362.983902, $GPGGA,153504.20,4530.33908853,N,00909.97920007,E,2,4,7.4,129.190,M,48.022,M,1.2,0000*7
1223739362.992883, $GPGST,153504.20,0.000,2.589,0.481,271.9,2.588,0.488,1.229*5
1223739363.183829, $GPGGA,153504.40,4530.33901709,N,00909.97927051,E,2,4,7.4,129.177,M,48.022,M,1.4,0000*7
1223739363.192921, $GPGST,153504.40,0.000,2.589,0.481,271.9,2.588,0.488,1.229*5
1223739363.383759, $GPGGA,153504.60,4530.33895693,N,00909.97934304,E,2,4,7.4,129.177,M,48.022,M,0.6,0000*7
1223739363.392739, $GPGST,153504.60,0.000,2.589,0.481,271.9,2.588,0.488,1.229*5
1223739363.583689, $GPGGA,153504.80,4530.33891792,N,00909.97941007,E,2,4,7.4,129.201,M,48.022,M,0.8,0000*7
1223739363.593669, $GPGST,153504.80,0.000,2.589,0.481,271.9,2.588,0.488,1.229*5
1223739363.787621, $GPGGA,153505.00,4530.33867349,N,00909.97954144,E,2,5,3.3,128.881,M,48.022,M,1.0,0000*7
1223739363.797601, $GPGST,153505.00,0.029,0.168,0.050,300.2,0.147,0.095,0.178*5
1223739363.987577, $GPGGA,153505.20,4530.33861114,N,00909.97962472,E,2,5,3.3,128.879,M,48.022,M,1.2,0000*7
1223739363.996638, $GPGST,153505.20,0.038,0.168,0.050,300.2,0.147,0.095,0.178*5
1223739364.183479, $GPGGA,153505.40,4530.33854582,N,00909.97970185,E,2,5,3.3,128.902,M,48.022,M,1.4,0000*7
1223739364.193460, $GPGST,153505.40,0.038,0.168,0.050,300.2,0.147,0.095,0.178*5
1223739364.384407, $GPGGA,153505.60,4530.33849543,N,00909.97978691,E,2,5,3.3,128.867,M,48.022,M,0.6,0000*7
1223739364.393388, $GPGST,153505.60,0.038,0.168,0.050,300.2,0.147,0.095,0.178*5
1223739364.584336, $GPGGA,153505.80,4530.33843219,N,00909.97986806,E,2,5,3.3,128.874,M,48.022,M,0.8,0000*7
1223739364.593318, $GPGST,153505.80,0.038,0.168,0.050,300.2,0.147,0.095,0.178*5
1223739364.788266, $GPGGA,153506.00,4530.33832661,N,00909.97994098,E,2,5,3.3,128.868,M,48.022,M,1.0,0000*7
1223739364.797246, $GPGST,153506.00,0.019,0.168,0.051,300.2,0.147,0.095,0.178*5
1223739364.984199, $GPGGA,153506.20,4530.33826845,N,00909.98003039,E,2,5,3.3,128.879,M,48.022,M,1.2,0000*7
1223739364.994179, $GPGST,153506.20,0.019,0.168,0.051,300.2,0.147,0.095,0.178*5
1223739365.184128, $GPGGA,153506.40,4530.33821251,N,00909.98010727,E,2,5,3.3,128.871,M,48.022,M,1.4,0000*7
1223739365.194108, $GPGST,153506.40,0.019,0.168,0.051,300.2,0.147,0.095,0.178*5
1223739365.384055, $GPGGA,153506.60,4530.33814963,N,00909.98019609,E,2,5,3.3,128.885,M,48.022,M,0.6,0000*7
1223739365.394035, $GPGST,153506.60,0.019,0.168,0.051,300.2,0.147,0.095,0.178*5
1223739365.583985, $GPGGA,153506.80,4530.33809143,N,00909.98027774,E,2,5,3.3,128.879,M,48.022,M,0.8,0000*7
1223739365.593965, $GPGST,153506.80,0.019,0.168,0.051,300.2,0.147,0.095,0.178*5
1223739365.788544, $GPGGA,153507.00,4530.33804597,N,00909.98036988,E,2,5,3.3,128.774,M,48.022,M,1.0,0000*7
1223739365.797908, $GPGST,153507.00,0.024,0.167,0.050,300.5,0.146,0.095,0.177*5
1223739365.987842, $GPGGA,153507.20,4530.33797982,N,00909.98045846,E,2,5,3.3,128.791,M,48.022,M,1.2,0000*7
1223739365.996823, $GPGST,153507.20,0.035,0.167,0.050,300.5,0.146,0.095,0.177*5
1223739366.184773, $GPGGA,153507.40,4530.33791598,N,00909.98054278,E,2,5,3.3,128.798,M,48.022,M,1.4,0000*7
1223739366.193754, $GPGST,153507.40,0.035,0.167,0.050,300.5,0.146,0.095,0.177*5
1223739366.384703, $GPGGA,153507.60,4530.33786176,N,00909.98063270,E,2,5,3.3,128.788,M,48.022,M,0.6,0000*7
1223739366.393684, $GPGST,153507.60,0.035,0.167,0.050,300.5,0.146,0.095,0.177*5
1223739366.584633, $GPGGA,153507.80,4530.33778823,N,00909.98071637,E,2,5,3.3,128.801,M,48.022,M,0.8,0000*7
1223739366.593613, $GPGST,153507.80,0.035,0.167,0.050,300.5,0.146,0.095,0.177*5
1223739366.788561, $GPGGA,153508.00,4530.33771987,N,00909.98078344,E,2,5,3.3,128.764,M,48.022,M,1.0,0000*7
1223739366.798542, $GPGST,153508.00,0.026,0.167,0.049,300.6,0.146,0.095,0.178*5
1223739366.984494, $GPGGA,153508.20,4530.33764783,N,00909.98086163,E,2,5,3.3,128.762,M,48.022,M,1.2,0000*7
1223739366.994537, $GPGST,153508.20,0.026,0.167,0.049,300.6,0.146,0.095,0.178*5
1223739367.184421, $GPGGA,153508.40,4530.33758428,N,00909.98091701,E,2,5,3.3,128.723,M,48.022,M,1.4,0000*7
1223739367.194402, $GPGST,153508.40,0.026,0.167,0.049,300.6,0.146,0.095,0.178*5
1223739367.387354, $GPGGA,153508.60,4530.33746721,N,00909.98098479,E,2,4,3.8,128.880,M,48.022,M,0.6,0000*7
1223739367.397334, $GPGST,153508.60,0.000,1.233,0.400,294.4,1.135,0.626,1.497*5
1223739367.584286, $GPGGA,153508.80,4530.33739625,N,00909.98103529,E,2,4,3.8,128.861,M,48.022,M,0.8,0000*7
1223739367.594262, $GPGST,153508.80,0.000,1.233,0.400,294.4,1.135,0.626,1.497*5
1223739367.788209, $GPGGA,153509.00,4530.33730890,N,00909.98108555,E,2,4,3.8,128.861,M,48.022,M,1.0,0000*7
1223739367.798191, $GPGST,153509.00,0.000,1.233,0.400,294.4,1.135,0.626,1.498*5
1223739367.987139, $GPGGA,153509.20,4530.33723143,N,00909.98113478,E,2,4,3.8,128.873,M,48.022,M,1.2,0000*7
1223739367.997120, $GPGST,153509.20,0.000,1.231,0.400,294.4,1.134,0.625,1.497*5
1223739368.184071, $GPGGA,153509.40,4530.33714433,N,00909.98116513,E,2,4,3.8,128.878,M,48.022,M,1.4,0000*7
1223739368.194051, $GPGST,153509.40,0.000,1.231,0.400,294.4,1.134,0.625,1.497*5
1223739368.384999, $GPGGA,153509.60,4530.33708694,N,00909.98118673,E,2,4,3.8,128.824,M,48.022,M,0.6,0000*7
1223739368.393981, $GPGST,153509.60,0.000,1.231,0.400,294.4,1.134,0.625,1.497*5
1223739368.585080, $GPGGA,153509.80,4530.33698788,N,00909.98121181,E,2,4,3.8,128.861,M,48.022,M,0.8,0000*7
1223739368.593911, $GPGST,153509.80,0.000,1.231,0.400,294.4,1.134,0.625,1.497*5
1223739368.787906, $GPGGA,153510.00,4530.33690504,N,00909.98122018,E,2,4,3.8,128.899,M,48.022,M,1.0,0000*7
1223739368.797843, $GPGST,153510.00,0.000,1.231,0.399,294.4,1.133,0.625,1.496*5
1223739368.984791, $GPGGA,153510.20,4530.33682921,N,00909.98124571,E,2,4,3.8,128.910,M,48.022,M,1.2,0000*7
1223739368.994772, $GPGST,153510.20,0.000,1.231,0.399,294.4,1.133,0.625,1.496*5
1223739369.184720, $GPGGA,153510.40,4530.33674553,N,00909.98127554,E,2,4,3.8,128.903,M,48.022,M,1.4,0000*7
1223739369.194701, $GPGST,153510.40,0.000,1.231,0.399,294.4,1.133,0.625,1.496*5
1223739369.384650, $GPGGA,153510.60,4530.33666553,N,00909.98130070,E,2,4,3.8,128.904,M,48.022,M,0.6,0000*7
1223739369.394631, $GPGST,153510.60,0.000,1.231,0.399,294.4,1.133,0.625,1.496*5
1223739369.584578, $GPGGA,153510.80,4530.33657381,N,00909.98132797,E,2,4,3.8,128.920,M,48.022,M,0.8,0000*7
1223739369.594558, $GPGST,153510.80,0.000,1.231,0.399,294.4,1.133,0.625,1.496*5
1223739369.788506, $GPGGA,153511.00,4530.33648354,N,00909.98137338,E,2,4,3.8,128.924,M,48.022,M,1.0,0000*7
1223739369.798488, $GPGST,153511.00,0.000,1.231,0.398,294.5,1.132,0.626,1.496*5
1223739369.987434, $GPGGA,153511.20,4530.33641245,N,00909.98139744,E,2,4,3.8,128.889,M,48.022,M,1.2,0000*7
1223739369.997416, $GPGST,153511.20,0.000,1.229,0.398,294.5,1.131,0.625,1.495*5
1223739370.185369, $GPGGA,153511.40,4530.33632801,N,00909.98141916,E,2,4,3.8,128.904,M,48.022,M,1.4,0000*7
1223739370.194350, $GPGST,153511.40,0.000,1.229,0.398,294.5,1.131,0.625,1.495*5
1223739370.385297, $GPGGA,153511.60,4530.33624532,N,00909.98144686,E,2,4,3.8,128.894,M,48.022,M,0.6,0000*7
1223739370.395277, $GPGST,153511.60,0.000,1.229,0.398,294.5,1.131,0.625,1.495*5
1223739370.585226, $GPGGA,153511.80,4530.33616329,N,00909.98147686,E,2,4,3.8,128.915,M,48.022,M,0.8,0000*7
1223739370.595210, $GPGST,153511.80,0.000,1.229,0.398,294.5,1.131,0.625,1.495*5
1223739370.789154, $GPGGA,153512.00,4530.33607909,N,00909.98151756,E,2,4,3.8,128.885,M,48.022,M,1.0,0000*7
1223739370.798145, $GPGST,153512.00,0.000,1.229,0.397,294.5,1.130,0.625,1.494*5
1223739370.985085, $GPGGA,153512.20,4530.33600857,N,00909.98155778,E,2,4,3.8,128.856,M,48.022,M,1.2,0000*7
1223739370.995067, $GPGST,153512.20,0.000,1.229,0.397,294.5,1.130,0.625,1.494*5
1223739371.185016, $GPGGA,153512.40,4530.33592491,N,00909.98158817,E,2,4,3.8,128.856,M,48.022,M,1.4,0000*7
1223739371.194996, $GPGST,153512.40,0.000,1.229,0.397,294.5,1.130,0.625,1.494*5
1223739371.384945, $GPGGA,153512.60,4530.33584639,N,00909.98162040,E,2,4,3.8,128.865,M,48.022,M,0.6,0000*7
1223739371.394925, $GPGST,153512.60,0.000,1.229,0.397,294.5,1.130,0.625,1.494*5
1223739371.584876, $GPGGA,153512.80,4530.33576464,N,00909.98165394,E,2,4,3.8,128.860,M,48.022,M,0.8,0000*7
1223739371.594858, $GPGST,153512.80,0.000,1.229,0.397,294.5,1.130,0.625,1.494*5
1223739371.788802, $GPGGA,153513.00,4530.33570998,N,00909.98165635,E,2,4,3.8,128.891,M,48.022,M,1.0,0000*7
1223739371.798784, $GPGST,153513.00,0.000,1.228,0.397,294.5,1.130,0.625,1.494*5
1223739371.987733, $GPGGA,153513.20,4530.33563111,N,00909.98168948,E,2,4,3.8,128.873,M,48.022,M,1.2,0000*7
1223739371.997715, $GPGST,153513.20,0.000,1.227,0.397,294.5,1.128,0.625,1.493*5
1223739372.185663, $GPGGA,153513.40,4530.33554879,N,00909.98171668,E,2,4,3.8,128.868,M,48.022,M,1.4,0000*7
1223739372.194644, $GPGST,153513.40,0.000,1.227,0.397,294.5,1.128,0.625,1.493*5
1223739372.385593, $GPGGA,153513.60,4530.33547087,N,00909.98174900,E,2,4,3.8,128.879,M,48.022,M,0.6,0000*7
1223739372.394583, $GPGST,153513.60,0.000,1.227,0.397,294.5,1.128,0.625,1.493*5
1223739372.585523, $GPGGA,153513.80,4530.33537495,N,00909.98178549,E,2,4,3.8,128.925,M,48.022,M,0.8,0000*7
1223739372.595503, $GPGST,153513.80,0.000,1.227,0.397,294.5,1.128,0.625,1.493*5
1223739372.789451, $GPGGA,153514.00,4530.33527058,N,00909.98180033,E,2,4,3.8,128.935,M,48.022,M,1.0,0000*7
1223739372.798448, $GPGST,153514.00,0.000,1.227,0.396,294.6,1.128,0.625,1.493*5
1223739372.985382, $GPGGA,153514.20,4530.33520005,N,00909.98181984,E,2,4,3.8,128.918,M,48.022,M,1.2,0000*7
1223739372.995362, $GPGST,153514.20,0.000,1.227,0.396,294.6,1.128,0.625,1.493*5
1223739373.185312, $GPGGA,153514.40,4530.33513661,N,00909.98184803,E,2,4,3.8,128.929,M,48.022,M,1.4,0000*7
1223739373.195292, $GPGST,153514.40,0.000,1.227,0.396,294.6,1.128,0.625,1.493*5
1223739373.385261, $GPGGA,153514.60,4530.33506390,N,00909.98186629,E,2,4,3.8,128.927,M,48.022,M,0.6,0000*7
1223739373.395221, $GPGST,153514.60,0.000,1.227,0.396,294.6,1.128,0.625,1.493*5
1223739373.585170, $GPGGA,153514.80,4530.33497863,N,00909.98190572,E,2,4,3.8,128.948,M,48.022,M,0.8,0000*7
1223739373.595151, $GPGST,153514.80,0.000,1.227,0.396,294.6,1.128,0.625,1.493*5
1223739373.789105, $GPGGA,153515.00,4530.33490345,N,00909.98193367,E,2,4,3.8,128.933,M,48.022,M,1.0,0000*7
1223739373.799084, $GPGST,153515.00,0.000,1.226,0.396,294.6,1.127,0.625,1.493*5
1223739373.989059, $GPGGA,153515.20,4530.33481682,N,00909.98195496,E,2,4,3.8,128.937,M,48.022,M,1.2,0000*7
1223739373.998058, $GPGST,153515.20,0.000,1.225,0.396,294.6,1.126,0.624,1.492*5
1223739374.186013, $GPGGA,153515.40,4530.33472421,N,00909.98195172,E,2,4,3.8,128.985,M,48.022,M,1.4,0000*7
1223739374.194942, $GPGST,153515.40,0.000,1.225,0.396,294.6,1.126,0.624,1.492*5
1223739374.385891, $GPGGA,153515.60,4530.33464453,N,00909.98195162,E,2,4,3.8,128.976,M,48.022,M,0.6,0000*7
1223739374.395873, $GPGST,153515.60,0.000,1.225,0.396,294.6,1.126,0.624,1.492*5
1223739374.585819, $GPGGA,153515.80,4530.33456011,N,00909.98192447,E,2,4,3.8,128.975,M,48.022,M,0.8,0000*7
1223739374.595799, $GPGST,153515.80,0.000,1.225,0.396,294.6,1.126,0.624,1.492*5
1223739374.789747, $GPGGA,153516.00,4530.33444794,N,00909.98189233,E,2,4,3.8,129.005,M,48.022,M,1.0,0000*7
1223739374.799735, $GPGST,153516.00,0.000,1.225,0.396,294.6,1.126,0.624,1.491*5
1223739374.985678, $GPGGA,153516.20,4530.33438933,N,00909.98186503,E,2,4,3.8,128.970,M,48.022,M,1.2,0000*7
1223739374.995658, $GPGST,153516.20,0.000,1.225,0.396,294.6,1.126,0.624,1.491*5
1223739375.186611, $GPGGA,153516.40,4530.33429993,N,00909.98182804,E,2,4,3.8,128.991,M,48.022,M,1.4,0000*7
1223739375.195608, $GPGST,153516.40,0.000,1.225,0.396,294.6,1.126,0.624,1.491*5
1223739375.386546, $GPGGA,153516.60,4530.33421963,N,00909.98177189,E,2,4,3.8,129.002,M,48.022,M,0.6,0000*7
1223739375.395520, $GPGST,153516.60,0.000,1.225,0.396,294.6,1.126,0.624,1.491*5
1223739375.586468, $GPGGA,153516.80,4530.33415904,N,00909.98173784,E,2,4,3.8,129.000,M,48.022,M,0.8,0000*7
1223739375.595450, $GPGST,153516.80,0.000,1.225,0.396,294.6,1.126,0.624,1.491*5
1223739375.789398, $GPGGA,153517.00,4530.33411392,N,00909.98169007,E,2,4,3.8,128.957,M,48.022,M,1.0,0000*7
1223739375.799381, $GPGST,153517.00,0.000,1.225,0.395,294.6,1.125,0.624,1.491*5
1223739375.989413, $GPGGA,153517.20,4530.33407221,N,00909.98165243,E,2,4,3.8,128.936,M,48.022,M,1.2,0000*7
1223739375.998331, $GPGST,153517.20,0.000,1.223,0.396,294.6,1.124,0.624,1.491*5
1223739376.186256, $GPGGA,153517.40,4530.33401688,N,00909.98160131,E,2,4,3.8,128.922,M,48.022,M,1.4,0000*7
1223739376.196236, $GPGST,153517.40,0.000,1.223,0.396,294.6,1.124,0.624,1.491*5
1223739376.386185, $GPGGA,153517.60,4530.33396924,N,00909.98153646,E,2,4,3.8,128.910,M,48.022,M,0.6,0000*7
1223739376.396166, $GPGST,153517.60,0.000,1.223,0.396,294.6,1.124,0.624,1.491*5
1223739376.586115, $GPGGA,153517.80,4530.33390731,N,00909.98148872,E,2,4,3.8,128.936,M,48.022,M,0.8,0000*7
1223739376.596096, $GPGST,153517.80,0.000,1.223,0.396,294.6,1.124,0.624,1.491*5
1223739376.790045, $GPGGA,153518.00,4530.33386403,N,00909.98140945,E,2,4,3.8,128.949,M,48.022,M,1.0,0000*7
1223739376.800066, $GPGST,153518.00,0.000,1.223,0.395,294.6,1.124,0.624,1.490*5
1223739376.985974, $GPGGA,153518.20,4530.33383134,N,00909.98135285,E,2,4,3.8,128.960,M,48.022,M,1.2,0000*7
1223739376.995955, $GPGST,153518.20,0.000,1.223,0.395,294.6,1.124,0.624,1.490*5
1223739377.185918, $GPGGA,153518.40,4530.33378590,N,00909.98129500,E,2,4,3.8,128.955,M,48.022,M,1.4,0000*7
1223739377.195884, $GPGST,153518.40,0.000,1.223,0.395,294.6,1.124,0.624,1.490*5
1223739377.386834, $GPGGA,153518.60,4530.33373653,N,00909.98124948,E,2,4,3.8,128.940,M,48.022,M,0.6,0000*7
1223739377.396814, $GPGST,153518.60,0.000,1.223,0.395,294.6,1.124,0.624,1.490*5
1223739377.586763, $GPGGA,153518.80,4530.33367577,N,00909.98119938,E,2,4,3.8,128.946,M,48.022,M,0.8,0000*7
1223739377.595744, $GPGST,153518.80,0.000,1.223,0.395,294.6,1.124,0.624,1.490*5
1223739377.790692, $GPGGA,153519.00,4530.33362826,N,00909.98113517,E,2,4,3.8,128.959,M,48.022,M,1.0,0000*7
1223739377.799672, $GPGST,153519.00,0.000,1.223,0.395,294.6,1.124,0.624,1.490*5
1223739377.989623, $GPGGA,153519.20,4530.33356595,N,00909.98108277,E,2,4,3.8,129.018,M,48.022,M,1.2,0000*7
1223739377.999604, $GPGST,153519.20,0.000,1.221,0.395,294.6,1.122,0.623,1.489*5
1223739378.186552, $GPGGA,153519.40,4530.33352755,N,00909.98102261,E,2,4,3.8,128.980,M,48.022,M,1.4,0000*7
1223739378.196539, $GPGST,153519.40,0.000,1.221,0.395,294.6,1.122,0.623,1.489*5
1223739378.386482, $GPGGA,153519.60,4530.33347003,N,00909.98092306,E,2,4,3.8,129.016,M,48.022,M,0.6,0000*7
1223739378.396463, $GPGST,153519.60,0.000,1.221,0.395,294.6,1.122,0.623,1.489*5
1223739378.586411, $GPGGA,153519.80,4530.33344371,N,00909.98082455,E,2,4,3.8,128.978,M,48.022,M,0.8,0000*7
1223739378.596392, $GPGST,153519.80,0.000,1.221,0.395,294.6,1.122,0.623,1.489*5
1223739378.790340, $GPGGA,153520.00,4530.33338238,N,00909.98073892,E,2,4,3.8,128.946,M,48.022,M,1.0,0000*7
1223739378.800322, $GPGST,153520.00,0.000,1.221,0.395,294.7,1.122,0.623,1.489*5
1223739378.986271, $GPGGA,153520.20,4530.33331217,N,00909.98069641,E,2,4,3.8,128.904,M,48.022,M,1.2,0000*7
1223739378.996251, $GPGST,153520.20,0.000,1.221,0.395,294.7,1.122,0.623,1.489*5
1223739379.187199, $GPGGA,153520.40,4530.33323042,N,00909.98060864,E,2,4,3.8,128.894,M,48.022,M,1.4,0000*7
1223739379.196181, $GPGST,153520.40,0.000,1.221,0.395,294.7,1.122,0.623,1.489*5
1223739379.387129, $GPGGA,153520.60,4530.33319754,N,00909.98054267,E,2,4,3.8,128.843,M,48.022,M,0.6,0000*7
1223739379.397110, $GPGST,153520.60,0.000,1.221,0.395,294.7,1.122,0.623,1.489*5
1223739379.587059, $GPGGA,153520.80,4530.33315328,N,00909.98045155,E,2,4,3.8,128.837,M,48.022,M,0.8,0000*7
1223739379.597040, $GPGST,153520.80,0.000,1.221,0.395,294.7,1.122,0.623,1.489*5
1223739379.790987, $GPGGA,153521.00,4530.33312971,N,00909.98038449,E,2,4,3.8,128.861,M,48.022,M,1.0,0000*7
1223739379.800968, $GPGST,153521.00,0.000,1.221,0.394,294.7,1.121,0.623,1.488*5
1223739379.989919, $GPGGA,153521.20,4530.33307487,N,00909.98028527,E,2,4,3.8,128.880,M,48.022,M,1.2,0000*7
1223739379.999901, $GPGST,153521.20,0.000,1.220,0.394,294.7,1.120,0.623,1.487*5
1223739380.186851, $GPGGA,153521.40,4530.33304746,N,00909.98021748,E,2,4,3.8,128.836,M,48.022,M,1.4,0000*7
1223739380.196831, $GPGST,153521.40,0.000,1.220,0.394,294.7,1.120,0.623,1.487*5
1223739380.387779, $GPGGA,153521.60,4530.33301471,N,00909.98009644,E,2,4,3.8,128.782,M,48.022,M,0.6,0000*7
1223739380.396760, $GPGST,153521.60,0.000,1.220,0.394,294.7,1.120,0.623,1.487*5
1223739380.587706, $GPGGA,153521.80,4530.33296226,N,00909.98002086,E,2,4,3.8,128.753,M,48.022,M,0.8,0000*7
1223739380.596688, $GPGST,153521.80,0.000,1.220,0.394,294.7,1.120,0.623,1.487*5
1223739380.791790, $GPGGA,153522.00,4530.33311254,N,00909.97999956,E,2,5,3.3,128.492,M,48.022,M,1.0,0000*7
1223739380.801616, $GPGST,153522.00,0.165,0.167,0.049,300.3,0.146,0.094,0.184*5
1223739380.987569, $GPGGA,153522.20,4530.33307720,N,00909.97997399,E,2,5,3.3,128.452,M,48.022,M,1.2,0000*7
1223739380.997546, $GPGST,153522.20,0.165,0.167,0.049,300.3,0.146,0.094,0.184*5
1223739381.187500, $GPGGA,153522.40,4530.33307132,N,00909.97994528,E,2,5,3.3,128.502,M,48.022,M,1.4,0000*7
1223739381.197476, $GPGST,153522.40,0.165,0.167,0.049,300.3,0.146,0.094,0.184*5
1223739381.387449, $GPGGA,153522.60,4530.33303399,N,00909.97985733,E,2,5,3.3,128.519,M,48.022,M,0.6,0000*7
1223739381.397446, $GPGST,153522.60,0.165,0.167,0.049,300.3,0.146,0.094,0.184*5
1223739381.587356, $GPGGA,153522.80,4530.33303529,N,00909.97982620,E,2,5,3.3,128.500,M,48.022,M,0.8,0000*7
1223739381.597335, $GPGST,153522.80,0.165,0.167,0.049,300.3,0.146,0.094,0.184*5
1223739381.792295, $GPGGA,153523.00,4530.33300368,N,00909.97975199,E,2,5,3.3,128.556,M,48.022,M,1.0,0000*7
1223739381.801266, $GPGST,153523.00,0.108,0.166,0.047,300.9,0.144,0.094,0.180*5
1223739381.991211, $GPGGA,153523.20,4530.33297326,N,00909.97966781,E,2,5,3.3,128.584,M,48.022,M,1.2,0000*7
1223739382.001193, $GPGST,153523.20,0.101,0.165,0.047,300.9,0.144,0.094,0.180*5
1223739382.188148, $GPGGA,153523.40,4530.33293897,N,00909.97961416,E,2,5,3.3,128.554,M,48.022,M,1.4,0000*7
1223739382.198124, $GPGST,153523.40,0.101,0.165,0.047,300.9,0.144,0.094,0.180*5
1223739382.388077, $GPGGA,153523.60,4530.33288034,N,00909.97954924,E,2,5,3.3,128.565,M,48.022,M,0.6,0000*7
1223739382.398053, $GPGST,153523.60,0.101,0.165,0.047,300.9,0.144,0.094,0.180*5
1223739382.588004, $GPGGA,153523.80,4530.33283307,N,00909.97949850,E,2,5,3.3,128.549,M,48.022,M,0.8,0000*7
1223739382.597985, $GPGST,153523.80,0.101,0.165,0.047,300.9,0.144,0.094,0.180*5
1223739382.792128, $GPGGA,153524.00,4530.33275059,N,00909.97944125,E,2,5,3.3,128.559,M,48.022,M,1.0,0000*7
1223739382.801436, $GPGST,153524.00,0.117,0.165,0.047,301.1,0.143,0.094,0.179*5
1223739382.987865, $GPGGA,153524.20,4530.33270226,N,00909.97936117,E,2,5,3.3,128.565,M,48.022,M,1.2,0000*7
1223739382.997845, $GPGST,153524.20,0.117,0.165,0.047,301.1,0.143,0.094,0.179*5
1223739383.187792, $GPGGA,153524.40,4530.33262761,N,00909.97930610,E,2,5,3.3,128.578,M,48.022,M,1.4,0000*7
1223739383.197772, $GPGST,153524.40,0.117,0.165,0.047,301.1,0.143,0.094,0.179*5
1223739383.388721, $GPGGA,153524.60,4530.33257329,N,00909.97928280,E,2,5,3.3,128.545,M,48.022,M,0.6,0000*7
1223739383.397701, $GPGST,153524.60,0.117,0.165,0.047,301.1,0.143,0.094,0.179*5
1223739383.588650, $GPGGA,153524.80,4530.33247563,N,00909.97924619,E,2,5,3.3,128.581,M,48.022,M,0.8,0000*7
1223739383.597631, $GPGST,153524.80,0.117,0.165,0.047,301.1,0.143,0.094,0.179*5
1223739383.792578, $GPGGA,153525.00,4530.33237522,N,00909.97921441,E,2,5,3.3,128.628,M,48.022,M,1.0,0000*7
1223739383.802563, $GPGST,153525.00,0.117,0.165,0.046,301.3,0.143,0.094,0.178*5
1223739383.991511, $GPGGA,153525.20,4530.33228791,N,00909.97919435,E,2,5,3.3,128.653,M,48.022,M,1.2,0000*7
1223739384.001507, $GPGST,153525.20,0.107,0.164,0.046,301.3,0.143,0.094,0.178*5
1223739384.188441, $GPGGA,153525.40,4530.33222114,N,00909.97917827,E,2,5,3.3,128.629,M,48.022,M,1.4,0000*7
1223739384.198423, $GPGST,153525.40,0.107,0.164,0.046,301.3,0.143,0.094,0.178*5
1223739384.388369, $GPGGA,153525.60,4530.33212163,N,00909.97918899,E,2,5,3.3,128.654,M,48.022,M,0.6,0000*7
1223739384.398368, $GPGST,153525.60,0.107,0.164,0.046,301.3,0.143,0.094,0.178*5
1223739384.588299, $GPGGA,153525.80,4530.33203411,N,00909.97920441,E,2,5,3.3,128.659,M,48.022,M,0.8,0000*7
1223739384.598279, $GPGST,153525.80,0.107,0.164,0.046,301.3,0.143,0.094,0.178*5
1223739384.793225, $GPGGA,153526.00,4530.33194886,N,00909.97921234,E,2,5,3.3,128.610,M,48.022,M,1.0,0000*7
1223739384.802207, $GPGST,153526.00,0.121,0.165,0.047,301.2,0.143,0.094,0.178*5
1223739384.989158, $GPGGA,153526.20,4530.33182878,N,00909.97921077,E,2,5,3.3,128.651,M,48.022,M,1.2,0000*7
1223739384.998138, $GPGST,153526.20,0.121,0.165,0.047,301.2,0.143,0.094,0.178*5
1223739385.189087, $GPGGA,153526.40,4530.33173891,N,00909.97921090,E,2,5,3.3,128.606,M,48.022,M,1.4,0000*7
1223739385.198068, $GPGST,153526.40,0.121,0.165,0.047,301.2,0.143,0.094,0.178*5
1223739385.389018, $GPGGA,153526.60,4530.33162989,N,00909.97920541,E,2,5,3.3,128.645,M,48.022,M,0.6,0000*7
1223739385.402235, $GPGST,153526.60,0.121,0.165,0.047,301.2,0.143,0.094,0.178*5
1223739385.588948, $GPGGA,153526.80,4530.33153853,N,00909.97922491,E,2,5,3.3,128.653,M,48.022,M,0.8,0000*7
1223739385.598927, $GPGST,153526.80,0.121,0.165,0.047,301.2,0.143,0.094,0.178*5
1223739385.792875, $GPGGA,153527.00,4530.33144563,N,00909.97923889,E,2,5,3.3,128.538,M,48.022,M,1.0,0000*7
1223739385.802855, $GPGST,153527.00,0.127,0.164,0.046,301.3,0.142,0.094,0.178*5
1223739385.991804, $GPGGA,153527.20,4530.33135810,N,00909.97926158,E,2,5,3.3,128.543,M,48.022,M,1.2,0000*7
1223739386.001785, $GPGST,153527.20,0.134,0.164,0.046,301.3,0.142,0.094,0.178*5
1223739386.188736, $GPGGA,153527.40,4530.33125761,N,00909.97929572,E,2,5,3.3,128.519,M,48.022,M,1.4,0000*7
1223739386.198716, $GPGST,153527.40,0.134,0.164,0.046,301.3,0.142,0.094,0.178*5
1223739386.388665, $GPGGA,153527.60,4530.33118539,N,00909.97933166,E,2,5,3.3,128.528,M,48.022,M,0.6,0000*7
1223739386.398646, $GPGST,153527.60,0.134,0.164,0.046,301.3,0.142,0.094,0.178*5
1223739386.588595, $GPGGA,153527.80,4530.33108838,N,00909.97937902,E,2,5,3.3,128.526,M,48.022,M,0.8,0000*7
1223739386.598575, $GPGST,153527.80,0.134,0.164,0.046,301.3,0.142,0.094,0.178*5
1223739386.793523, $GPGGA,153528.00,4530.33097354,N,00909.97937837,E,2,5,3.3,128.598,M,48.022,M,1.0,0000*7
1223739386.803503, $GPGST,153528.00,0.123,0.164,0.046,301.4,0.142,0.094,0.177*5
1223739386.989455, $GPGGA,153528.20,4530.33084770,N,00909.97944034,E,2,5,3.3,128.641,M,48.022,M,1.2,0000*7
1223739386.999434, $GPGST,153528.20,0.123,0.164,0.046,301.4,0.142,0.094,0.177*5
1223739387.189386, $GPGGA,153528.40,4530.33074756,N,00909.97945970,E,2,5,3.3,128.581,M,48.022,M,1.4,0000*7
1223739387.198367, $GPGST,153528.40,0.123,0.164,0.046,301.4,0.142,0.094,0.177*5
1223739387.391191, $GPGGA,153528.60,4530.33061701,N,00909.97946043,E,2,5,3.3,128.610,M,48.022,M,0.6,0000*7
1223739387.399311, $GPGST,153528.60,0.123,0.164,0.046,301.4,0.142,0.094,0.177*5
1223739387.589245, $GPGGA,153528.80,4530.33052108,N,00909.97951277,E,2,5,3.3,128.563,M,48.022,M,0.8,0000*7
1223739387.599253, $GPGST,153528.80,0.123,0.164,0.046,301.4,0.142,0.094,0.177*5
1223739387.793174, $GPGGA,153529.00,4530.33044998,N,00909.97952431,E,2,5,3.3,128.488,M,48.022,M,1.0,0000*7
1223739387.803155, $GPGST,153529.00,0.135,0.163,0.045,301.7,0.141,0.094,0.175*5
1223739387.993103, $GPGGA,153529.20,4530.33034196,N,00909.97955232,E,2,5,3.2,128.507,M,48.022,M,1.2,0000*7
1223739388.002083, $GPGST,153529.20,0.128,0.163,0.045,301.7,0.141,0.094,0.175*5
1223739388.189032, $GPGGA,153529.40,4530.33024346,N,00909.97959235,E,2,5,3.2,128.481,M,48.022,M,1.4,0000*7
1223739388.199012, $GPGST,153529.40,0.128,0.163,0.045,301.7,0.141,0.094,0.175*5
1223739388.390101, $GPGGA,153529.60,4530.33013179,N,00909.97961725,E,2,5,3.2,128.512,M,48.022,M,0.6,0000*7
1223739388.399945, $GPGST,153529.60,0.128,0.163,0.045,301.7,0.141,0.094,0.175*5
1223739388.589893, $GPGGA,153529.80,4530.33003894,N,00909.97964434,E,2,5,3.2,128.475,M,48.022,M,0.8,0000*7
1223739388.598876, $GPGST,153529.80,0.128,0.163,0.045,301.7,0.141,0.094,0.175*5
1223739388.793822, $GPGGA,153530.00,4530.32990533,N,00909.97964849,E,2,5,3.2,128.539,M,48.022,M,1.0,0000*7
1223739388.803802, $GPGST,153530.00,0.138,0.163,0.046,301.6,0.141,0.094,0.176*5
1223739388.989751, $GPGGA,153530.20,4530.32980137,N,00909.97967822,E,2,5,3.2,128.543,M,48.022,M,1.2,0000*7
1223739388.999739, $GPGST,153530.20,0.138,0.163,0.046,301.6,0.141,0.094,0.176*5
1223739389.189680, $GPGGA,153530.40,4530.32970149,N,00909.97970564,E,2,5,3.2,128.517,M,48.022,M,1.4,0000*7
1223739389.199660, $GPGST,153530.40,0.138,0.163,0.046,301.6,0.141,0.094,0.176*5
1223739389.389609, $GPGGA,153530.60,4530.32959392,N,00909.97973798,E,2,5,3.2,128.533,M,48.022,M,1.6,0000*7
1223739389.399590, $GPGST,153530.60,0.138,0.163,0.046,301.6,0.141,0.094,0.176*5
1223739389.589538, $GPGGA,153530.80,4530.32949774,N,00909.97977657,E,2,5,3.2,128.528,M,48.022,M,0.8,0000*7
1223739389.599520, $GPGST,153530.80,0.138,0.163,0.046,301.6,0.141,0.094,0.176*5
1223739389.793470, $GPGGA,153531.00,4530.32941227,N,00909.97980994,E,2,5,3.2,128.509,M,48.022,M,1.0,0000*7
1223739389.803450, $GPGST,153531.00,0.127,0.163,0.045,301.6,0.141,0.094,0.175*5
1223739389.993398, $GPGGA,153531.20,4530.32930477,N,00909.97983074,E,2,5,3.2,128.538,M,48.022,M,1.2,0000*7
1223739390.003380, $GPGST,153531.20,0.115,0.163,0.045,301.6,0.141,0.094,0.175*5
1223739390.190329, $GPGGA,153531.40,4530.32920861,N,00909.97986617,E,2,5,3.2,128.516,M,48.022,M,1.4,0000*7
1223739390.199309, $GPGST,153531.40,0.115,0.163,0.045,301.6,0.141,0.094,0.175*5
1223739390.390258, $GPGGA,153531.60,4530.32911832,N,00909.97989254,E,2,5,3.2,128.505,M,48.022,M,0.6,0000*7
1223739390.399238, $GPGST,153531.60,0.115,0.163,0.045,301.6,0.141,0.094,0.175*5
1223739390.590187, $GPGGA,153531.80,4530.32900707,N,00909.97991969,E,2,5,3.2,128.552,M,48.022,M,0.8,0000*7
1223739390.599170, $GPGST,153531.80,0.115,0.163,0.045,301.6,0.141,0.094,0.175*5
1223739390.794116, $GPGGA,153532.00,4530.32892303,N,00909.97995055,E,2,5,3.2,128.528,M,48.022,M,1.0,0000*7
1223739390.804096, $GPGST,153532.00,0.146,0.163,0.045,301.7,0.140,0.094,0.175*5
1223739390.990046, $GPGGA,153532.20,4530.32882116,N,00909.97997785,E,2,5,3.2,128.511,M,48.022,M,1.2,0000*7
1223739391.000027, $GPGST,153532.20,0.146,0.163,0.045,301.7,0.140,0.094,0.175*5
1223739391.189977, $GPGGA,153532.40,4530.32871323,N,00909.98000502,E,2,5,3.2,128.530,M,48.022,M,1.4,0000*7
1223739391.199957, $GPGST,153532.40,0.146,0.163,0.045,301.7,0.140,0.094,0.175*5
1223739391.389907, $GPGGA,153532.60,4530.32861467,N,00909.98004790,E,2,5,3.2,128.513,M,48.022,M,0.6,0000*7
1223739391.399887, $GPGST,153532.60,0.146,0.163,0.045,301.7,0.140,0.094,0.175*5
1223739391.589836, $GPGGA,153532.80,4530.32850595,N,00909.98007359,E,2,5,3.2,128.531,M,48.022,M,0.8,0000*7
1223739391.599819, $GPGST,153532.80,0.146,0.163,0.045,301.7,0.140,0.094,0.175*5
1223739391.793763, $GPGGA,153533.00,4530.32841523,N,00909.98009709,E,2,5,3.2,128.551,M,48.022,M,1.0,0000*7
1223739391.803745, $GPGST,153533.00,0.123,0.163,0.045,301.8,0.140,0.094,0.174*5
1223739391.993694, $GPGGA,153533.20,4530.32832911,N,00909.98012610,E,2,5,3.2,128.515,M,48.022,M,1.2,0000*7
1223739392.003674, $GPGST,153533.20,0.140,0.163,0.045,301.8,0.140,0.094,0.174*5
1223739392.190625, $GPGGA,153533.40,4530.32822095,N,00909.98016993,E,2,5,3.2,128.529,M,48.022,M,1.4,0000*7
1223739392.199606, $GPGST,153533.40,0.140,0.163,0.045,301.8,0.140,0.094,0.174*5
1223739392.390554, $GPGGA,153533.60,4530.32810073,N,00909.98020101,E,2,5,3.2,128.566,M,48.022,M,0.6,0000*7
1223739392.400535, $GPGST,153533.60,0.140,0.163,0.045,301.8,0.140,0.094,0.174*5
1223739392.590483, $GPGGA,153533.80,4530.32800832,N,00909.98024035,E,2,5,3.2,128.557,M,48.022,M,0.8,0000*7
1223739392.600464, $GPGST,153533.80,0.140,0.163,0.045,301.8,0.140,0.094,0.174*5
1223739392.794412, $GPGGA,153534.00,4530.32792385,N,00909.98027786,E,2,5,3.2,128.495,M,48.022,M,1.0,0000*7
1223739392.804393, $GPGST,153534.00,0.144,0.162,0.045,301.8,0.140,0.094,0.174*5
1223739392.990346, $GPGGA,153534.20,4530.32782346,N,00909.98031652,E,2,5,3.2,128.492,M,48.022,M,1.2,0000*7
1223739393.000325, $GPGST,153534.20,0.144,0.162,0.045,301.8,0.140,0.094,0.174*5
1223739393.190274, $GPGGA,153534.40,4530.32773233,N,00909.98036725,E,2,5,3.2,128.462,M,48.022,M,1.4,0000*7
1223739393.200257, $GPGST,153534.40,0.144,0.162,0.045,301.8,0.140,0.094,0.174*5
1223739393.390205, $GPGGA,153534.60,4530.32761705,N,00909.98039562,E,2,5,3.2,128.500,M,48.022,M,0.6,0000*7
1223739393.400187, $GPGST,153534.60,0.144,0.162,0.045,301.8,0.140,0.094,0.174*5
1223739393.590135, $GPGGA,153534.80,4530.32752824,N,00909.98043444,E,2,5,3.2,128.476,M,48.022,M,0.8,0000*7
1223739393.600116, $GPGST,153534.80,0.144,0.162,0.045,301.8,0.140,0.094,0.174*5
1223739393.795063, $GPGGA,153535.00,4530.32741318,N,00909.98045122,E,2,5,3.2,128.490,M,48.022,M,1.0,0000*7
1223739393.804043, $GPGST,153535.00,0.162,0.163,0.045,301.9,0.141,0.094,0.175*5
1223739393.993991, $GPGGA,153535.20,4530.32730723,N,00909.98048393,E,2,5,3.2,128.507,M,48.022,M,1.2,0000*7
1223739394.003971, $GPGST,153535.20,0.155,0.162,0.045,301.9,0.140,0.094,0.174*5
1223739394.190921, $GPGGA,153535.40,4530.32721562,N,00909.98052524,E,2,5,3.2,128.482,M,48.022,M,1.4,0000*7
1223739394.200901, $GPGST,153535.40,0.155,0.162,0.045,301.9,0.140,0.094,0.174*5
1223739394.390851, $GPGGA,153535.60,4530.32712005,N,00909.98056617,E,2,5,3.2,128.483,M,48.022,M,0.6,0000*7
1223739394.400831, $GPGST,153535.60,0.155,0.162,0.045,301.9,0.140,0.094,0.174*5
1223739394.590782, $GPGGA,153535.80,4530.32700955,N,00909.98059545,E,2,5,3.2,128.513,M,48.022,M,0.8,0000*7
1223739394.600764, $GPGST,153535.80,0.155,0.162,0.045,301.9,0.140,0.094,0.174*5
1223739394.794712, $GPGGA,153536.00,4530.32693707,N,00909.98065444,E,2,5,3.2,128.474,M,48.022,M,1.0,0000*7
1223739394.804691, $GPGST,153536.00,0.182,0.184,0.051,301.8,0.159,0.106,0.197*5
1223739394.990641, $GPGGA,153536.20,4530.32683799,N,00909.98069089,E,2,5,3.2,128.477,M,48.022,M,1.2,0000*7
1223739395.000624, $GPGST,153536.20,0.182,0.184,0.051,301.8,0.159,0.106,0.197*5
1223739395.190570, $GPGGA,153536.40,4530.32674534,N,00909.98073051,E,2,5,3.2,128.478,M,48.022,M,1.4,0000*7
