1223309581.123667, $GPGGA,143516.80,4530.37118644,N,00909.99763524,E,2,6,1.7,131.984,M,48.022,M,0.8,0000*7
1223309581.133660, $GPGST,143516.80,0.504,0.238,0.147,54.6,0.212,0.183,0.585*6
1223309581.328644, $GPGGA,143517.00,4530.37118842,N,00909.99764085,E,2,6,1.7,131.996,M,48.022,M,1.0,0000*7
1223309581.337713, $GPGST,143517.00,0.506,0.239,0.147,54.6,0.212,0.183,0.586*6
1223309581.523527, $GPGGA,143517.20,4530.37118762,N,00909.99764050,E,2,6,1.7,131.987,M,48.022,M,1.2,0000*7
1223309581.533505, $GPGST,143517.20,0.506,0.239,0.147,54.6,0.212,0.183,0.586*6
1223309581.723456, $GPGGA,143517.40,4530.37118831,N,00909.99763996,E,2,6,1.7,131.989,M,48.022,M,1.4,0000*7
1223309581.733436, $GPGST,143517.40,0.506,0.239,0.147,54.6,0.212,0.183,0.586*6
1223309581.923404, $GPGGA,143517.60,4530.37118810,N,00909.99764276,E,2,6,1.7,131.980,M,48.022,M,0.6,0000*7
1223309581.933365, $GPGST,143517.60,0.506,0.239,0.147,54.6,0.212,0.183,0.586*6
1223309582.124311, $GPGGA,143517.80,4530.37118799,N,00909.99764003,E,2,6,1.7,131.995,M,48.022,M,0.8,0000*7
1223309582.133292, $GPGST,143517.80,0.506,0.239,0.147,54.6,0.212,0.183,0.586*6
1223309582.328242, $GPGGA,143518.00,4530.37117999,N,00909.99763448,E,2,6,1.7,131.944,M,48.022,M,1.0,0000*7
1223309582.338317, $GPGST,143518.00,0.507,0.239,0.147,54.6,0.213,0.183,0.593*6
1223309582.528173, $GPGGA,143518.20,4530.37117112,N,00909.99759093,E,2,6,1.7,131.957,M,48.022,M,1.2,0000*7
1223309582.538280, $GPGST,143518.20,0.504,0.238,0.147,54.6,0.211,0.182,0.589*6
1223309582.724099, $GPGGA,143518.40,4530.37115776,N,00909.99755422,E,2,6,1.7,131.950,M,48.022,M,1.4,0000*7
1223309582.734081, $GPGST,143518.40,0.504,0.238,0.147,54.6,0.211,0.182,0.589*6
1223309582.924028, $GPGGA,143518.60,4530.37114841,N,00909.99752544,E,2,6,1.7,131.952,M,48.022,M,0.6,0000*7
1223309582.934011, $GPGST,143518.60,0.504,0.238,0.147,54.6,0.211,0.182,0.589*6
1223309583.123958, $GPGGA,143518.80,4530.37113544,N,00909.99748208,E,2,6,1.7,131.962,M,48.022,M,0.8,0000*7
1223309583.134005, $GPGST,143518.80,0.504,0.238,0.147,54.6,0.211,0.182,0.589*6
1223309583.328885, $GPGGA,143519.00,4530.37114941,N,00909.99743909,E,2,6,1.7,132.006,M,48.022,M,1.0,0000*7
1223309583.338956, $GPGST,143519.00,0.501,0.236,0.146,54.6,0.210,0.181,0.578*6
1223309583.523873, $GPGGA,143519.20,4530.37113073,N,00909.99740401,E,2,6,1.7,131.995,M,48.022,M,1.2,0000*7
1223309583.533815, $GPGST,143519.20,0.501,0.236,0.146,54.6,0.210,0.181,0.578*6
1223309583.724747, $GPGGA,143519.40,4530.37111234,N,00909.99735065,E,2,6,1.7,132.000,M,48.022,M,1.4,0000*7
1223309583.733728, $GPGST,143519.40,0.501,0.236,0.146,54.6,0.210,0.181,0.578*6
1223309583.924677, $GPGGA,143519.60,4530.37110346,N,00909.99727914,E,2,6,1.7,132.016,M,48.022,M,0.6,0000*7
1223309583.934738, $GPGST,143519.60,0.501,0.236,0.146,54.6,0.210,0.181,0.578*6
1223309584.124616, $GPGGA,143519.80,4530.37106905,N,00909.99720475,E,2,6,1.7,131.999,M,48.022,M,0.8,0000*7
1223309584.134591, $GPGST,143519.80,0.501,0.236,0.146,54.6,0.210,0.181,0.578*6
1223309584.329532, $GPGGA,143520.00,4530.37103730,N,00909.99713381,E,2,6,1.7,131.923,M,48.022,M,1.0,0000*7
1223309584.338593, $GPGST,143520.00,0.485,0.229,0.141,54.6,0.204,0.176,0.559*6
1223309584.528459, $GPGGA,143520.20,4530.37100834,N,00909.99704111,E,2,6,1.7,131.864,M,48.022,M,1.2,0000*7
1223309584.538548, $GPGST,143520.20,0.481,0.227,0.140,54.6,0.202,0.174,0.555*6
1223309584.724391, $GPGGA,143520.40,4530.37098119,N,00909.99692497,E,2,6,1.7,131.906,M,48.022,M,1.4,0000*7
1223309584.734374, $GPGST,143520.40,0.481,0.227,0.140,54.6,0.202,0.174,0.555*6
1223309584.924321, $GPGGA,143520.60,4530.37094094,N,00909.99681242,E,2,6,1.7,131.892,M,48.022,M,0.6,0000*7
1223309584.934302, $GPGST,143520.60,0.481,0.227,0.140,54.6,0.202,0.174,0.555*6
1223309585.125253, $GPGGA,143520.80,4530.37089751,N,00909.99666793,E,2,6,1.7,131.867,M,48.022,M,0.8,0000*7
1223309585.134231, $GPGST,143520.80,0.481,0.227,0.140,54.6,0.202,0.174,0.555*6
1223309585.329181, $GPGGA,143521.00,4530.37086789,N,00909.99652547,E,2,6,1.7,131.831,M,48.022,M,1.0,0000*7
1223309585.339270, $GPGST,143521.00,0.478,0.226,0.140,54.6,0.201,0.173,0.551*6
1223309585.525107, $GPGGA,143521.20,4530.37083252,N,00909.99639622,E,2,6,1.7,131.741,M,48.022,M,1.2,0000*7
1223309585.534089, $GPGST,143521.20,0.478,0.226,0.140,54.6,0.201,0.173,0.551*6
1223309585.725038, $GPGGA,143521.40,4530.37079493,N,00909.99625599,E,2,6,1.7,131.794,M,48.022,M,1.4,0000*7
1223309585.735038, $GPGST,143521.40,0.478,0.226,0.140,54.6,0.201,0.173,0.551*6
1223309585.927967, $GPGGA,143521.60,4530.37073159,N,00909.99607882,E,2,5,1.5,131.136,M,48.022,M,0.6,0000*7
1223309585.938053, $GPGST,143521.60,0.565,0.248,0.160,65.2,0.235,0.179,0.641*6
1223309586.124897, $GPGGA,143521.80,4530.37068798,N,00909.99593307,E,2,5,1.5,131.142,M,48.022,M,0.8,0000*7
1223309586.134880, $GPGST,143521.80,0.565,0.248,0.160,65.2,0.235,0.179,0.641*6
1223309586.328825, $GPGGA,143522.00,4530.37066119,N,00909.99579899,E,2,5,1.5,131.108,M,48.022,M,1.0,0000*7
1223309586.338908, $GPGST,143522.00,0.550,0.241,0.156,65.3,0.229,0.174,0.624*6
1223309586.528754, $GPGGA,143522.20,4530.37063154,N,00909.99564938,E,2,5,1.5,131.110,M,48.022,M,1.2,0000*7
1223309586.538866, $GPGST,143522.20,0.544,0.239,0.154,65.3,0.226,0.172,0.618*6
1223309586.724686, $GPGGA,143522.40,4530.37059319,N,00909.99549351,E,2,5,1.5,131.096,M,48.022,M,1.4,0000*7
1223309586.734667, $GPGST,143522.40,0.544,0.239,0.154,65.3,0.226,0.172,0.618*6
1223309586.924619, $GPGGA,143522.60,4530.37057768,N,00909.99536302,E,2,5,1.5,131.105,M,48.022,M,0.6,0000*7
1223309586.934601, $GPGST,143522.60,0.544,0.239,0.154,65.3,0.226,0.172,0.618*6
1223309587.124548, $GPGGA,143522.80,4530.37053885,N,00909.99522197,E,2,5,1.5,131.090,M,48.022,M,0.8,0000*7
1223309587.134527, $GPGST,143522.80,0.544,0.239,0.154,65.3,0.226,0.172,0.618*6
1223309587.329476, $GPGGA,143523.00,4530.37051061,N,00909.99507176,E,2,5,1.5,131.122,M,48.022,M,1.0,0000*7
1223309587.339583, $GPGST,143523.00,0.550,0.241,0.156,65.3,0.229,0.174,0.625*6
1223309587.525407, $GPGGA,143523.20,4530.37047494,N,00909.99493988,E,2,5,1.5,131.110,M,48.022,M,1.2,0000*7
1223309587.534386, $GPGST,143523.20,0.550,0.241,0.156,65.3,0.229,0.174,0.625*6
1223309587.725337, $GPGGA,143523.40,4530.37045887,N,00909.99479028,E,2,5,1.5,131.108,M,48.022,M,1.4,0000*7
1223309587.735335, $GPGST,143523.40,0.550,0.241,0.156,65.3,0.229,0.174,0.625*6
1223309587.925266, $GPGGA,143523.60,4530.37043839,N,00909.99464625,E,2,5,1.5,131.115,M,48.022,M,0.6,0000*7
1223309587.935257, $GPGST,143523.60,0.550,0.241,0.156,65.3,0.229,0.174,0.625*6
1223309588.125193, $GPGGA,143523.80,4530.37041262,N,00909.99451320,E,2,5,1.5,131.126,M,48.022,M,0.8,0000*7
1223309588.135180, $GPGST,143523.80,0.550,0.241,0.156,65.3,0.229,0.174,0.625*6
1223309588.330124, $GPGGA,143524.00,4530.37039110,N,00909.99437011,E,2,5,1.5,131.112,M,48.022,M,1.0,0000*7
1223309588.339219, $GPGST,143524.00,0.544,0.239,0.154,65.2,0.226,0.172,0.618*6
1223309588.529075, $GPGGA,143524.20,4530.37036106,N,00909.99422181,E,2,5,1.5,131.118,M,48.022,M,1.2,0000*7
1223309588.539185, $GPGST,143524.20,0.542,0.238,0.153,65.3,0.225,0.171,0.615*6
1223309588.725983, $GPGGA,143524.40,4530.37033123,N,00909.99407713,E,2,5,1.5,131.120,M,48.022,M,1.4,0000*7
1223309588.734964, $GPGST,143524.40,0.542,0.238,0.153,65.3,0.225,0.171,0.615*6
1223309588.924913, $GPGGA,143524.60,4530.37031158,N,00909.99393295,E,2,5,1.5,131.118,M,48.022,M,0.6,0000*7
1223309588.934895, $GPGST,143524.60,0.542,0.238,0.153,65.3,0.225,0.171,0.615*6
1223309589.125840, $GPGGA,143524.80,4530.37029145,N,00909.99378443,E,2,5,1.5,131.115,M,48.022,M,0.8,0000*7
1223309589.134820, $GPGST,143524.80,0.542,0.238,0.153,65.3,0.225,0.171,0.615*6
1223309589.329768, $GPGGA,143525.00,4530.37024441,N,00909.99364227,E,2,5,1.5,131.100,M,48.022,M,1.0,0000*7
1223309589.339857, $GPGST,143525.00,0.558,0.245,0.158,65.3,0.232,0.176,0.633*6
1223309589.525699, $GPGGA,143525.20,4530.37022723,N,00909.99348119,E,2,5,1.5,131.104,M,48.022,M,1.2,0000*7
1223309589.535680, $GPGST,143525.20,0.558,0.245,0.158,65.3,0.232,0.176,0.633*6
1223309589.725627, $GPGGA,143525.40,4530.37020287,N,00909.99334648,E,2,5,1.5,131.106,M,48.022,M,1.4,0000*7
1223309589.735611, $GPGST,143525.40,0.558,0.245,0.158,65.3,0.232,0.176,0.633*6
1223309589.925598, $GPGGA,143525.60,4530.37017572,N,00909.99320196,E,2,5,1.5,131.103,M,48.022,M,0.6,0000*7
1223309589.935540, $GPGST,143525.60,0.558,0.245,0.158,65.3,0.232,0.176,0.633*6
1223309590.125487, $GPGGA,143525.80,4530.37015749,N,00909.99306742,E,2,5,1.5,131.115,M,48.022,M,0.8,0000*7
1223309590.135514, $GPGST,143525.80,0.558,0.245,0.158,65.3,0.232,0.176,0.633*6
1223309590.330415, $GPGGA,143526.00,4530.37012248,N,00909.99291831,E,2,5,1.5,131.125,M,48.022,M,1.0,0000*7
1223309590.339536, $GPGST,143526.00,0.533,0.234,0.151,65.3,0.222,0.169,0.605*6
1223309590.529345, $GPGGA,143526.20,4530.37009107,N,00909.99276823,E,2,5,1.5,131.113,M,48.022,M,1.2,0000*7
1223309590.539424, $GPGST,143526.20,0.538,0.236,0.152,65.3,0.223,0.170,0.610*6
1223309590.726275, $GPGGA,143526.40,4530.37006657,N,00909.99261387,E,2,5,1.5,131.107,M,48.022,M,1.4,0000*7
1223309590.736288, $GPGST,143526.40,0.538,0.236,0.152,65.3,0.223,0.170,0.610*6
1223309590.926206, $GPGGA,143526.60,4530.37003517,N,00909.99247680,E,2,5,1.5,131.111,M,48.022,M,0.6,0000*7
1223309590.935185, $GPGST,143526.60,0.538,0.236,0.152,65.3,0.223,0.170,0.610*6
1223309591.126135, $GPGGA,143526.80,4530.37001989,N,00909.99232230,E,2,5,1.5,131.107,M,48.022,M,0.8,0000*7
1223309591.136139, $GPGST,143526.80,0.538,0.236,0.152,65.3,0.223,0.170,0.610*6
1223309591.331066, $GPGGA,143527.00,4530.36999028,N,00909.99217731,E,2,5,1.5,131.108,M,48.022,M,1.0,0000*7
1223309591.340140, $GPGST,143527.00,0.540,0.237,0.153,65.3,0.225,0.171,0.613*6
1223309591.525992, $GPGGA,143527.20,4530.36995174,N,00909.99204577,E,2,5,1.5,131.093,M,48.022,M,1.2,0000*7
1223309591.535975, $GPGST,143527.20,0.540,0.237,0.153,65.3,0.225,0.171,0.613*6
1223309591.725922, $GPGGA,143527.40,4530.36991104,N,00909.99190512,E,2,5,1.5,131.092,M,48.022,M,1.4,0000*7
1223309591.735904, $GPGST,143527.40,0.540,0.237,0.153,65.3,0.225,0.171,0.613*6
1223309591.928851, $GPGGA,143527.60,4530.36963386,N,00909.99182329,E,2,4,1.8,131.567,M,48.022,M,0.6,0000*7
1223309591.938924, $GPGST,143527.60,0.000,0.400,0.212,72.4,0.387,0.235,0.858*6
1223309592.125782, $GPGGA,143527.80,4530.36960356,N,00909.99168988,E,2,4,1.8,131.574,M,48.022,M,0.8,0000*7
1223309592.135762, $GPGST,143527.80,0.000,0.400,0.212,72.4,0.387,0.235,0.858*6
1223309592.329708, $GPGGA,143528.00,4530.36957316,N,00909.99154841,E,2,4,1.8,131.547,M,48.022,M,1.0,0000*7
1223309592.339784, $GPGST,143528.00,0.000,0.400,0.212,72.4,0.387,0.235,0.858*6
1223309592.528644, $GPGGA,143528.20,4530.36953677,N,00909.99140914,E,2,4,1.8,131.559,M,48.022,M,1.2,0000*7
1223309592.538705, $GPGST,143528.20,0.000,0.400,0.212,72.4,0.387,0.235,0.858*6
1223309592.832572, $GPGGA,143528.30,4530.36952267,N,00909.99133483,E,0,4,1.8,131.560,M,48.022,M,,*5
1223309592.840546, $GPGST,143528.30,0.000,0.400,0.212,72.4,0.387,0.235,0.858*6
1223309593.032633, $GPGGA,143528.30,4530.36952267,N,00909.99133483,E,0,4,1.8,131.560,M,48.022,M,,*5
1223309593.041464, $GPGST,143528.30,0.000,0.400,0.212,72.4,0.387,0.235,0.858*6
1223309593.232671, $GPGGA,143528.30,4530.36952267,N,00909.99133483,E,0,4,1.8,131.560,M,48.022,M,,*5
1223309593.241391, $GPGST,143528.30,0.000,0.400,0.212,72.4,0.387,0.235,0.858*6
1223309593.432703, $GPGGA,143528.30,4530.36952267,N,00909.99133483,E,0,4,1.8,131.560,M,48.022,M,,*5
1223309593.441343, $GPGST,143528.30,0.000,0.400,0.212,72.4,0.387,0.235,0.858*6
1223309593.634609, $GPGGA,143528.30,4530.36952267,N,00909.99133483,E,0,4,1.8,131.560,M,48.022,M,,*5
1223309593.641280, $GPGST,143528.30,0.000,0.400,0.212,72.4,0.387,0.235,0.858*6
1223309593.833335, $GPGGA,143528.30,4530.36952267,N,00909.99133483,E,0,4,1.8,131.560,M,48.022,M,,*5
1223309593.841198, $GPGST,143528.30,0.000,0.400,0.212,72.4,0.387,0.235,0.858*6
1223309594.036145, $GPGGA,143528.30,4530.36952267,N,00909.99133483,E,0,4,1.8,131.560,M,48.022,M,,*5
1223309594.041132, $GPGST,143528.30,0.000,0.400,0.212,72.4,0.387,0.235,0.858*6
1223309594.233034, $GPGGA,143528.30,4530.36952267,N,00909.99133483,E,0,4,1.8,131.560,M,48.022,M,,*5
1223309594.241039, $GPGST,143528.30,0.000,0.400,0.212,72.4,0.387,0.235,0.858*6
1223309594.328003, $GPGGA,143530.00,4530.36956777,N,00909.98964761,E,1,4,1.8,130.935,M,48.022,M,,*5
1223309594.338021, $GPGST,143530.00,0.000,1.661,0.315,59.4,1.439,0.887,1.197*6
1223309594.527934, $GPGGA,143530.20,4530.36954190,N,00909.98950768,E,1,4,1.8,130.910,M,48.022,M,,*5
1223309594.536990, $GPGST,143530.20,0.000,1.661,0.315,59.4,1.439,0.887,1.197*6
1223309594.724864, $GPGGA,143530.40,4530.36951021,N,00909.98935558,E,1,4,1.8,130.907,M,48.022,M,,*5
1223309594.734845, $GPGST,143530.40,0.000,1.661,0.315,59.4,1.439,0.887,1.197*6
1223309594.924800, $GPGGA,143530.60,4530.36947963,N,00909.98921958,E,1,4,1.8,130.900,M,48.022,M,,*5
1223309594.934819, $GPGST,143530.60,0.000,1.661,0.315,59.4,1.439,0.887,1.197*6
1223309595.124732, $GPGGA,143530.80,4530.36942139,N,00909.98909843,E,1,4,1.8,130.906,M,48.022,M,,*5
1223309595.134717, $GPGST,143530.80,0.000,1.661,0.315,59.4,1.439,0.887,1.197*6
1223309595.434045, $GPGGA,143530.90,4530.36939982,N,00909.98903248,E,0,4,1.8,130.894,M,48.022,M,,*5
1223309595.442551, $GPGST,143530.90,0.000,1.661,0.315,59.4,1.439,0.887,1.197*6
1223309595.633342, $GPGGA,143530.90,4530.36939982,N,00909.98903248,E,0,4,1.8,130.894,M,48.022,M,,*5
1223309595.641577, $GPGST,143530.90,0.000,1.661,0.315,59.4,1.439,0.887,1.197*6
1223309595.833384, $GPGGA,143530.90,4530.36939982,N,00909.98903248,E,0,4,1.8,130.894,M,48.022,M,,*5
1223309595.841504, $GPGST,143530.90,0.000,1.661,0.315,59.4,1.439,0.887,1.197*6
1223309596.033440, $GPGGA,143530.90,4530.36939982,N,00909.98903248,E,0,4,1.8,130.894,M,48.022,M,,*5
1223309596.041430, $GPGST,143530.90,0.000,1.661,0.315,59.4,1.439,0.887,1.197*6
1223309596.233445, $GPGGA,143530.90,4530.36939982,N,00909.98903248,E,0,4,1.8,130.894,M,48.022,M,,*5
1223309596.241456, $GPGST,143530.90,0.000,1.661,0.315,59.4,1.439,0.887,1.197*6
1223309596.433552, $GPGGA,143530.90,4530.36939982,N,00909.98903248,E,0,4,1.8,130.894,M,48.022,M,,*5
1223309596.442438, $GPGST,143530.90,0.000,1.661,0.315,59.4,1.439,0.887,1.197*6
1223309596.633102, $GPGGA,143530.90,4530.36939982,N,00909.98903248,E,0,4,1.8,130.894,M,48.022,M,,*5
1223309596.644216, $GPGST,143530.90,0.000,1.661,0.315,59.4,1.439,0.887,1.197*6
1223309596.833920, $GPGGA,143530.90,4530.36939982,N,00909.98903248,E,0,4,1.8,130.894,M,48.022,M,,*5
1223309596.844152, $GPGST,143530.90,0.000,1.661,0.315,59.4,1.439,0.887,1.197*6
1223309597.033247, $GPGGA,143530.90,4530.36939982,N,00909.98903248,E,0,4,1.8,130.894,M,48.022,M,,*5
1223309597.044077, $GPGST,143530.90,0.000,1.661,0.315,59.4,1.439,0.887,1.197*6
1223309597.233475, $GPGGA,143530.90,4530.36939982,N,00909.98903248,E,0,4,1.8,130.894,M,48.022,M,,*5
1223309597.242004, $GPGST,143530.90,0.000,1.661,0.315,59.4,1.439,0.887,1.197*6
1223309597.433318, $GPGGA,143530.90,4530.36939982,N,00909.98903248,E,0,4,1.8,130.894,M,48.022,M,,*5
1223309597.441949, $GPGST,143530.90,0.000,1.661,0.315,59.4,1.439,0.887,1.197*6
1223309597.633776, $GPGGA,143530.90,4530.36939982,N,00909.98903248,E,0,4,1.8,130.894,M,48.022,M,,*5
1223309597.641859, $GPGST,143530.90,0.000,1.661,0.315,59.4,1.439,0.887,1.197*6
1223309597.833349, $GPGGA,143530.90,4530.36939982,N,00909.98903248,E,0,4,1.8,130.894,M,48.022,M,,*5
1223309597.842791, $GPGST,143530.90,0.000,1.661,0.315,59.4,1.439,0.887,1.197*6
1223309598.033625, $GPGGA,143530.90,4530.36939982,N,00909.98903248,E,0,4,1.8,130.894,M,48.022,M,,*5
1223309598.043163, $GPGST,143530.90,0.000,1.661,0.315,59.4,1.439,0.887,1.197*6
1223309598.233506, $GPGGA,143530.90,4530.36939982,N,00909.98903248,E,0,4,1.8,130.894,M,48.022,M,,*5
1223309598.242649, $GPGST,143530.90,0.000,1.661,0.315,59.4,1.439,0.887,1.197*6
1223309598.433475, $GPGGA,143530.90,4530.36939982,N,00909.98903248,E,0,4,1.8,130.894,M,48.022,M,,*5
1223309598.442585, $GPGST,143530.90,0.000,1.661,0.315,59.4,1.439,0.887,1.197*6
1223309598.633572, $GPGGA,143530.90,4530.36939982,N,00909.98903248,E,0,4,1.8,130.894,M,48.022,M,,*5
1223309598.642496, $GPGST,143530.90,0.000,1.661,0.315,59.4,1.439,0.887,1.197*6
1223309598.834038, $GPGGA,143530.90,4530.36939982,N,00909.98903248,E,0,4,1.8,130.894,M,48.022,M,,*5
1223309598.842436, $GPGST,143530.90,0.000,1.661,0.315,59.4,1.439,0.887,1.197*6
1223309599.034274, $GPGGA,143530.90,4530.36939982,N,00909.98903248,E,0,4,1.8,130.894,M,48.022,M,,*5
1223309599.042478, $GPGST,143530.90,0.000,1.661,0.315,59.4,1.439,0.887,1.197*6
1223309599.233508, $GPGGA,143530.90,4530.36939982,N,00909.98903248,E,0,4,1.8,130.894,M,48.022,M,,*5
1223309599.243295, $GPGST,143530.90,0.000,1.661,0.315,59.4,1.439,0.887,1.197*6
1223309599.433543, $GPGGA,143530.90,4530.36939982,N,00909.98903248,E,0,4,1.8,130.894,M,48.022,M,,*5
1223309599.443235, $GPGST,143530.90,0.000,1.661,0.315,59.4,1.439,0.887,1.197*6
1223309599.633573, $GPGGA,143530.90,4530.36939982,N,00909.98903248,E,0,4,1.8,130.894,M,48.022,M,,*5
1223309599.642175, $GPGST,143530.90,0.000,1.661,0.315,59.4,1.439,0.887,1.197*6
1223309599.833619, $GPGGA,143530.90,4530.36939982,N,00909.98903248,E,0,4,1.8,130.894,M,48.022,M,,*5
1223309599.843068, $GPGST,143530.90,0.000,1.661,0.315,59.4,1.439,0.887,1.197*6
1223309600.033645, $GPGGA,143530.90,4530.36939982,N,00909.98903248,E,0,4,1.8,130.894,M,48.022,M,,*5
1223309600.043018, $GPGST,143530.90,0.000,1.661,0.315,59.4,1.439,0.887,1.197*6
1223309600.233686, $GPGGA,143530.90,4530.36939982,N,00909.98903248,E,0,4,1.8,130.894,M,48.022,M,,*5
1223309600.242919, $GPGST,143530.90,0.000,1.661,0.315,59.4,1.439,0.887,1.197*6
1223309600.433747, $GPGGA,143530.90,4530.36939982,N,00909.98903248,E,0,4,1.8,130.894,M,48.022,M,,*5
1223309600.445388, $GPGST,143530.90,0.000,1.661,0.315,59.4,1.439,0.887,1.197*6
1223309600.633788, $GPGGA,143530.90,4530.36939982,N,00909.98903248,E,0,4,1.8,130.894,M,48.022,M,,*5
1223309600.644433, $GPGST,143530.90,0.000,1.661,0.315,59.4,1.439,0.887,1.197*6
1223309600.833831, $GPGGA,143530.90,4530.36939982,N,00909.98903248,E,0,4,1.8,130.894,M,48.022,M,,*5
1223309600.843991, $GPGST,143530.90,0.000,1.661,0.315,59.4,1.439,0.887,1.197*6
1223309601.033880, $GPGGA,143530.90,4530.36939982,N,00909.98903248,E,0,4,1.8,130.894,M,48.022,M,,*5
1223309601.043260, $GPGST,143530.90,0.000,1.661,0.315,59.4,1.439,0.887,1.197*6
1223309601.234380, $GPGGA,143530.90,4530.36939982,N,00909.98903248,E,0,4,1.8,130.894,M,48.022,M,,*5
1223309601.243844, $GPGST,143530.90,0.000,1.661,0.315,59.4,1.439,0.887,1.197*6
1223309601.433533, $GPGGA,143530.90,4530.36939982,N,00909.98903248,E,0,4,1.8,130.894,M,48.022,M,,*5
1223309601.443524, $GPGST,143530.90,0.000,1.661,0.315,59.4,1.439,0.887,1.197*6
1223309601.633599, $GPGGA,143530.90,4530.36939982,N,00909.98903248,E,0,4,1.8,130.894,M,48.022,M,,*5
1223309601.643462, $GPGST,143530.90,0.000,1.661,0.315,59.4,1.439,0.887,1.197*6
1223309601.833646, $GPGGA,143530.90,4530.36939982,N,00909.98903248,E,0,4,1.8,130.894,M,48.022,M,,*5
1223309601.843550, $GPGST,143530.90,0.000,1.661,0.315,59.4,1.439,0.887,1.197*6
1223309602.033691, $GPGGA,143530.90,4530.36939982,N,00909.98903248,E,0,4,1.8,130.894,M,48.022,M,,*5
1223309602.043318, $GPGST,143530.90,0.000,1.661,0.315,59.4,1.439,0.887,1.197*6
1223309602.233738, $GPGGA,143530.90,4530.36939982,N,00909.98903248,E,0,4,1.8,130.894,M,48.022,M,,*5
1223309602.243239, $GPGST,143530.90,0.000,1.661,0.315,59.4,1.439,0.887,1.197*6
1223309602.433786, $GPGGA,143530.90,4530.36939982,N,00909.98903248,E,0,4,1.8,130.894,M,48.022,M,,*5
1223309602.443182, $GPGST,143530.90,0.000,1.661,0.315,59.4,1.439,0.887,1.197*6
1223309602.634678, $GPGGA,143530.90,4530.36939982,N,00909.98903248,E,0,4,1.8,130.894,M,48.022,M,,*5
1223309602.643094, $GPGST,143530.90,0.000,1.661,0.315,59.4,1.439,0.887,1.197*6
1223309602.834294, $GPGGA,143530.90,4530.36939982,N,00909.98903248,E,0,4,1.8,130.894,M,48.022,M,,*5
1223309602.843005, $GPGST,143530.90,0.000,1.661,0.315,59.4,1.439,0.887,1.197*6
1223309603.034362, $GPGGA,143530.90,4530.36939982,N,00909.98903248,E,0,4,1.8,130.894,M,48.022,M,,*5
1223309603.042951, $GPGST,143530.90,0.000,1.661,0.315,59.4,1.439,0.887,1.197*6
1223309603.234204, $GPGGA,143530.90,4530.36939982,N,00909.98903248,E,0,4,1.8,130.894,M,48.022,M,,*5
1223309603.242899, $GPGST,143530.90,0.000,1.661,0.315,59.4,1.439,0.887,1.197*6
1223309603.434262, $GPGGA,143530.90,4530.36939982,N,00909.98903248,E,0,4,1.8,130.894,M,48.022,M,,*5
1223309603.443796, $GPGST,143530.90,0.000,1.661,0.315,59.4,1.439,0.887,1.197*6
1223309603.633638, $GPGGA,143530.90,4530.36939982,N,00909.98903248,E,0,4,1.8,130.894,M,48.022,M,,*5
1223309603.643718, $GPGST,143530.90,0.000,1.661,0.315,59.4,1.439,0.887,1.197*6
1223309603.834427, $GPGGA,143530.90,4530.36939982,N,00909.98903248,E,0,4,1.8,130.894,M,48.022,M,,*5
1223309603.843715, $GPGST,143530.90,0.000,1.661,0.315,59.4,1.439,0.887,1.197*6
1223309604.034420, $GPGGA,143530.90,4530.36939982,N,00909.98903248,E,0,4,1.8,130.894,M,48.022,M,,*5
1223309604.043607, $GPGST,143530.90,0.000,1.661,0.315,59.4,1.439,0.887,1.197*6
1223309604.234385, $GPGGA,143530.90,4530.36939982,N,00909.98903248,E,0,4,1.8,130.894,M,48.022,M,,*5
1223309604.243589, $GPGST,143530.90,0.000,1.661,0.315,59.4,1.439,0.887,1.197*6
1223309604.433814, $GPGGA,143530.90,4530.36939982,N,00909.98903248,E,0,4,1.8,130.894,M,48.022,M,,*5
1223309604.443513, $GPGST,143530.90,0.000,1.661,0.315,59.4,1.439,0.887,1.197*6
1223309604.633871, $GPGGA,143530.90,4530.36939982,N,00909.98903248,E,0,4,1.8,130.894,M,48.022,M,,*5
1223309604.643520, $GPGST,143530.90,0.000,1.661,0.315,59.4,1.439,0.887,1.197*6
1223309604.833911, $GPGGA,143530.90,4530.36939982,N,00909.98903248,E,0,4,1.8,130.894,M,48.022,M,,*5
1223309604.844336, $GPGST,143530.90,0.000,1.661,0.315,59.4,1.439,0.887,1.197*6
1223309605.033948, $GPGGA,143530.90,4530.36939982,N,00909.98903248,E,0,4,1.8,130.894,M,48.022,M,,*5
1223309605.044259, $GPGST,143530.90,0.000,1.661,0.315,59.4,1.439,0.887,1.197*6
1223309605.233991, $GPGGA,143530.90,4530.36939982,N,00909.98903248,E,0,4,1.8,130.894,M,48.022,M,,*5
1223309605.244171, $GPGST,143530.90,0.000,1.661,0.315,59.4,1.439,0.887,1.197*6
1223309605.331124, $GPGGA,143541.00,4530.36283650,N,00909.98697978,E,1,4,3.2,117.092,M,48.022,M,,*5
1223309605.341198, $GPGST,143541.00,0.000,6.303,0.362,56.3,5.248,3.509,5.886*6
1223309605.527056, $GPGGA,143541.20,4530.36281589,N,00909.98682564,E,1,4,3.2,117.149,M,48.022,M,,*5
1223309605.537036, $GPGST,143541.20,0.000,6.303,0.362,56.3,5.248,3.509,5.886*6
1223309605.726987, $GPGGA,143541.40,4530.36279891,N,00909.98668449,E,1,4,3.2,117.113,M,48.022,M,,*5
1223309605.736968, $GPGST,143541.40,0.000,6.303,0.362,56.3,5.248,3.509,5.886*6
1223309605.926920, $GPGGA,143541.60,4530.36275711,N,00909.98656761,E,1,4,3.2,117.072,M,48.022,M,,*5
1223309605.936897, $GPGST,143541.60,0.000,6.303,0.362,56.3,5.248,3.509,5.886*6
1223309606.127843, $GPGGA,143541.80,4530.36278623,N,00909.98638200,E,1,4,3.2,117.173,M,48.022,M,,*5
1223309606.136827, $GPGST,143541.80,0.000,6.303,0.362,56.3,5.248,3.509,5.886*6
1223309606.332774, $GPGGA,143542.00,4530.36669862,N,00909.98260607,E,1,5,2.0,123.003,M,48.022,M,,*5
1223309606.341936, $GPGST,143542.00,2.567,2.929,0.280,54.9,2.401,1.701,3.844*6
1223309606.531701, $GPGGA,143542.20,4530.36667534,N,00909.98246727,E,1,5,2.0,122.982,M,48.022,M,,*5
1223309606.541778, $GPGST,143542.20,2.556,2.929,0.280,54.9,2.401,1.701,3.841*6
1223309606.727632, $GPGGA,143542.40,4530.36667869,N,00909.98232089,E,1,5,2.0,123.022,M,48.022,M,,*5
1223309606.737614, $GPGST,143542.40,2.556,2.929,0.280,54.9,2.401,1.701,3.841*6
1223309606.927562, $GPGGA,143542.60,4530.36666077,N,00909.98217655,E,1,5,2.0,122.976,M,48.022,M,,*5
1223309606.937544, $GPGST,143542.60,2.556,2.929,0.280,54.9,2.401,1.701,3.841*6
1223309607.127491, $GPGGA,143542.80,4530.36665689,N,00909.98203217,E,1,5,2.0,122.934,M,48.022,M,,*5
1223309607.137475, $GPGST,143542.80,2.556,2.929,0.280,54.9,2.401,1.701,3.841*6
1223309607.331419, $GPGGA,143543.00,4530.36750085,N,00909.98117758,E,1,4,3.4,119.579,M,48.022,M,,*5
1223309607.341480, $GPGST,143543.00,0.000,3.713,0.353,55.2,3.054,2.142,5.009*6
1223309607.527349, $GPGGA,143543.20,4530.36750899,N,00909.98102211,E,1,4,3.4,119.552,M,48.022,M,,*5
1223309607.537332, $GPGST,143543.20,0.000,3.713,0.353,55.2,3.054,2.142,5.009*6
1223309607.727279, $GPGGA,143543.40,4530.36750968,N,00909.98089462,E,1,4,3.4,119.564,M,48.022,M,,*5
1223309607.737314, $GPGST,143543.40,0.000,3.713,0.353,55.2,3.054,2.142,5.009*6
1223309607.928210, $GPGGA,143543.60,4530.36752645,N,00909.98074149,E,1,4,3.4,119.569,M,48.022,M,,*5
1223309607.937189, $GPGST,143543.60,0.000,3.713,0.353,55.2,3.054,2.142,5.009*6
1223309608.128139, $GPGGA,143543.80,4530.36751457,N,00909.98061758,E,1,4,3.4,119.488,M,48.022,M,,*5
1223309608.138155, $GPGST,143543.80,0.000,3.713,0.353,55.2,3.054,2.142,5.009*6
1223309608.332066, $GPGGA,143544.00,4530.36750748,N,00909.98047806,E,1,4,3.4,119.554,M,48.022,M,,*5
1223309608.342151, $GPGST,143544.00,0.000,3.713,0.353,55.2,3.054,2.142,5.009*6
1223309608.531995, $GPGGA,143544.20,4530.36752567,N,00909.98032533,E,1,4,3.4,119.619,M,48.022,M,,*5
1223309608.542047, $GPGST,143544.20,0.000,3.715,0.353,55.2,3.056,2.143,5.001*6
1223309608.727926, $GPGGA,143544.40,4530.36752397,N,00909.98019795,E,1,4,3.4,119.563,M,48.022,M,,*5
1223309608.737929, $GPGST,143544.40,0.000,3.715,0.353,55.2,3.056,2.143,5.001*6
1223309608.927861, $GPGGA,143544.60,4530.36754986,N,00909.98005009,E,1,4,3.4,119.534,M,48.022,M,,*5
1223309608.938233, $GPGST,143544.60,0.000,3.715,0.353,55.2,3.056,2.143,5.001*6
1223309609.127786, $GPGGA,143544.80,4530.36754438,N,00909.97990943,E,1,4,3.4,119.475,M,48.022,M,,*5
1223309609.137774, $GPGST,143544.80,0.000,3.715,0.353,55.2,3.056,2.143,5.001*6
1223309609.332715, $GPGGA,143545.00,4530.36754248,N,00909.97979495,E,1,4,3.4,119.343,M,48.022,M,,*5
1223309609.341775, $GPGST,143545.00,0.000,3.715,0.353,55.2,3.055,2.142,5.000*6
1223309609.528644, $GPGGA,143545.20,4530.36756309,N,00909.97963372,E,1,4,3.4,119.361,M,48.022,M,,*5
1223309609.537628, $GPGST,143545.20,0.000,3.715,0.353,55.2,3.055,2.142,5.000*6
1223309609.729575, $GPGGA,143545.40,4530.36758355,N,00909.97950400,E,1,4,3.4,119.325,M,48.022,M,,*5
1223309609.738630, $GPGST,143545.40,0.000,3.715,0.353,55.2,3.055,2.142,5.000*6
1223309609.928508, $GPGGA,143545.60,4530.36760805,N,00909.97935039,E,1,4,3.4,119.362,M,48.022,M,,*5
1223309609.937934, $GPGST,143545.60,0.000,3.715,0.353,55.2,3.055,2.142,5.000*6
1223309610.128433, $GPGGA,143545.80,4530.36767106,N,00909.97919697,E,1,4,3.4,119.412,M,48.022,M,,*5
1223309610.138478, $GPGST,143545.80,0.000,3.715,0.353,55.2,3.055,2.142,5.000*6
1223309610.332362, $GPGGA,143546.00,4530.36765011,N,00909.97910320,E,1,4,3.4,119.335,M,48.022,M,,*5
1223309610.342429, $GPGST,143546.00,0.000,3.716,0.353,55.2,3.056,2.143,5.004*6
1223309610.531292, $GPGGA,143546.20,4530.36767736,N,00909.97894796,E,1,4,3.4,119.383,M,48.022,M,,*5
1223309610.541363, $GPGST,143546.20,0.000,3.717,0.353,55.2,3.057,2.144,4.997*6
1223309610.728223, $GPGGA,143546.40,4530.36772226,N,00909.97878044,E,1,4,3.4,119.531,M,48.022,M,,*5
1223309610.738255, $GPGST,143546.40,0.000,3.717,0.353,55.2,3.057,2.144,4.997*6
1223309610.929152, $GPGGA,143546.60,4530.36772110,N,00909.97868273,E,1,4,3.4,119.305,M,48.022,M,,*5
1223309610.938205, $GPGST,143546.60,0.000,3.717,0.353,55.2,3.057,2.144,4.997*6
1223309611.128081, $GPGGA,143546.80,4530.36777373,N,00909.97850068,E,1,4,3.4,119.514,M,48.022,M,,*5
1223309611.138098, $GPGST,143546.80,0.000,3.717,0.353,55.2,3.057,2.144,4.997*6
1223309611.335009, $GPGGA,143547.00,4530.36864167,N,00909.97743205,E,2,4,3.4,128.969,M,48.022,M,1.0,0000*7
1223309611.344063, $GPGST,143547.00,0.000,1.159,0.145,52.3,0.921,0.718,2.291*6
1223309611.531941, $GPGGA,143547.20,4530.36900358,N,00909.97672095,E,2,3,3.7,131.805,M,48.022,M,1.2,0000*7
1223309611.542146, $GPGST,143547.20,0.000,1.293,0.172,45.9,0.937,0.908,3.314*6
1223309611.729871, $GPGGA,143547.40,4530.36903578,N,00909.97658102,E,2,3,3.7,131.805,M,48.022,M,1.4,0000*7
1223309611.740339, $GPGST,143547.40,0.000,1.293,0.172,45.9,0.937,0.908,3.314*6
1223309611.930803, $GPGGA,143547.60,4530.36907355,N,00909.97644285,E,2,3,3.7,131.806,M,48.022,M,0.6,0000*7
1223309611.939884, $GPGST,143547.60,0.000,1.293,0.172,45.9,0.937,0.908,3.314*6
1223309612.129731, $GPGGA,143547.80,4530.36908204,N,00909.97631094,E,2,3,3.7,131.806,M,48.022,M,0.8,0000*7
1223309612.139777, $GPGST,143547.80,0.000,1.293,0.172,45.9,0.937,0.908,3.314*6
1223309612.334664, $GPGGA,143548.00,4530.36912662,N,00909.97614374,E,2,3,3.7,131.832,M,48.022,M,1.0,0000*7
1223309612.343780, $GPGST,143548.00,0.000,1.289,0.173,45.8,0.933,0.907,3.314*6
1223309612.532586, $GPGGA,143548.20,4530.36916795,N,00909.97601135,E,2,3,3.7,131.832,M,48.022,M,1.2,0000*7
1223309612.542635, $GPGST,143548.20,0.000,1.292,0.170,45.8,0.934,0.909,3.315*6
1223309612.730516, $GPGGA,143548.40,4530.36921231,N,00909.97588494,E,2,3,3.7,131.832,M,48.022,M,1.4,0000*7
1223309612.740564, $GPGST,143548.40,0.000,1.292,0.170,45.8,0.934,0.909,3.315*6
1223309612.931443, $GPGGA,143548.60,4530.36847878,N,00909.97439019,E,1,4,3.9,134.449,M,48.022,M,,*5
1223309612.941542, $GPGST,143548.60,0.000,1.948,1.543,10.3,1.558,1.936,5.648*6
1223309613.128376, $GPGGA,143548.80,4530.36853817,N,00909.97427338,E,1,4,3.9,134.386,M,48.022,M,,*5
1223309613.138420, $GPGST,143548.80,0.000,1.948,1.543,10.3,1.558,1.936,5.648*6
1223309613.332311, $GPGGA,143549.00,4530.36860404,N,00909.97413125,E,1,4,3.9,134.454,M,48.022,M,,*5
1223309613.342425, $GPGST,143549.00,0.000,1.949,1.533,9.6,1.546,1.939,5.656*5
1223309613.529235, $GPGGA,143549.20,4530.36864884,N,00909.97401865,E,1,4,3.9,134.416,M,48.022,M,,*5
1223309613.538362, $GPGST,143549.20,0.000,1.949,1.533,9.6,1.546,1.939,5.656*5
1223309613.729165, $GPGGA,143549.40,4530.36871227,N,00909.97390433,E,1,4,3.9,134.391,M,48.022,M,,*5
1223309613.739212, $GPGST,143549.40,0.000,1.949,1.533,9.6,1.546,1.939,5.656*5
1223309613.931095, $GPGGA,143549.60,4530.36879735,N,00909.97378677,E,1,3,2.8,134.345,M,48.022,M,,*5
1223309613.942173, $GPGST,143549.60,0.000,1.795,1.499,343.2,1.526,1.772,5.666*5
1223309614.129028, $GPGGA,143549.80,4530.36885091,N,00909.97365474,E,1,3,2.8,134.346,M,48.022,M,,*5
1223309614.140147, $GPGST,143549.80,0.000,1.795,1.499,343.2,1.526,1.772,5.666*5
1223309614.331957, $GPGGA,143550.00,4530.36894080,N,00909.97354230,E,1,3,2.8,134.368,M,48.022,M,,*5
1223309614.343029, $GPGST,143550.00,0.000,1.796,1.499,343.2,1.526,1.773,5.666*5
1223309614.530886, $GPGGA,143550.20,4530.36899708,N,00909.97339611,E,1,3,2.8,134.368,M,48.022,M,,*5
1223309614.541987, $GPGST,143550.20,0.000,1.797,1.490,343.9,1.516,1.775,5.666*5
1223309614.728812, $GPGGA,143550.40,4530.36905412,N,00909.97327367,E,1,3,2.8,134.368,M,48.022,M,,*5
1223309614.739873, $GPGST,143550.40,0.000,1.797,1.490,343.9,1.516,1.775,5.666*5
1223309614.929740, $GPGGA,143550.60,4530.36910829,N,00909.97314078,E,1,3,2.8,134.369,M,48.022,M,,*5
1223309614.940844, $GPGST,143550.60,0.000,1.797,1.490,343.9,1.516,1.775,5.666*5
1223309615.129676, $GPGGA,143550.80,4530.36915873,N,00909.97302684,E,1,3,2.8,134.369,M,48.022,M,,*5
1223309615.139772, $GPGST,143550.80,0.000,1.797,1.490,343.9,1.516,1.775,5.666*5
1223309615.332603, $GPGGA,143551.00,4530.36921652,N,00909.97289497,E,1,3,2.8,134.368,M,48.022,M,,*5
1223309615.343663, $GPGST,143551.00,0.000,1.800,1.490,343.9,1.516,1.778,5.666*5
1223309615.529530, $GPGGA,143551.20,4530.36928551,N,00909.97279195,E,1,3,2.8,134.368,M,48.022,M,,*5
1223309615.540601, $GPGST,143551.20,0.000,1.800,1.490,343.9,1.516,1.778,5.666*5
1223309615.729459, $GPGGA,143551.40,4530.36934107,N,00909.97266368,E,1,3,2.8,134.369,M,48.022,M,,*5
1223309615.740520, $GPGST,143551.40,0.000,1.800,1.490,343.9,1.516,1.778,5.666*5
1223309615.929387, $GPGGA,143551.60,4530.36939958,N,00909.97253609,E,1,3,2.8,134.369,M,48.022,M,,*5
1223309615.940449, $GPGST,143551.60,0.000,1.800,1.490,343.9,1.516,1.778,5.666*5
1223309616.129318, $GPGGA,143551.80,4530.36944576,N,00909.97238663,E,1,3,2.8,134.369,M,48.022,M,,*5
1223309616.140376, $GPGST,143551.80,0.000,1.800,1.490,343.9,1.516,1.778,5.666*5
1223309616.332247, $GPGGA,143552.00,4530.36950064,N,00909.97227440,E,1,3,2.8,134.368,M,48.022,M,,*5
1223309616.343308, $GPGST,143552.00,0.000,1.803,1.484,344.3,1.510,1.782,5.666*5
1223309616.531181, $GPGGA,143552.20,4530.36955091,N,00909.97216325,E,1,3,2.8,134.368,M,48.022,M,,*5
1223309616.542228, $GPGST,143552.20,0.000,1.806,1.483,344.5,1.508,1.785,5.666*5
1223309616.730107, $GPGGA,143552.40,4530.36961117,N,00909.97203669,E,1,3,2.8,134.368,M,48.022,M,,*5
1223309616.741192, $GPGST,143552.40,0.000,1.806,1.483,344.5,1.508,1.785,5.666*5
1223309616.930040, $GPGGA,143552.60,4530.36967032,N,00909.97191231,E,1,3,2.8,134.369,M,48.022,M,,*5
1223309616.940285, $GPGST,143552.60,0.000,1.806,1.483,344.5,1.508,1.785,5.666*5
1223309617.129970, $GPGGA,143552.80,4530.36971261,N,00909.97178001,E,1,3,2.8,134.369,M,48.022,M,,*5
1223309617.146246, $GPGST,143552.80,0.000,1.806,1.483,344.5,1.508,1.785,5.666*5
1223309617.332897, $GPGGA,143553.00,4530.36977671,N,00909.97156456,E,1,4,3.9,134.791,M,48.022,M,,*5
1223309617.342994, $GPGST,143553.00,0.000,1.973,1.507,7.2,1.515,1.966,5.645*5
1223309617.530827, $GPGGA,143553.20,4530.36983072,N,00909.97142377,E,1,4,3.9,134.807,M,48.022,M,,*5
1223309617.541101, $GPGST,143553.20,0.000,1.973,1.507,7.2,1.515,1.966,5.645*5
1223309617.729756, $GPGGA,143553.40,4530.36988249,N,00909.97132405,E,1,4,3.9,134.709,M,48.022,M,,*5
1223309617.739843, $GPGST,143553.40,0.000,1.973,1.507,7.2,1.515,1.966,5.645*5
1223309617.929705, $GPGGA,143553.60,4530.36993729,N,00909.97118116,E,1,4,3.9,134.739,M,48.022,M,,*5
1223309617.939793, $GPGST,143553.60,0.000,1.973,1.507,7.2,1.515,1.966,5.645*5
1223309618.130615, $GPGGA,143553.80,4530.36999485,N,00909.97106334,E,1,4,3.9,134.746,M,48.022,M,,*5
1223309618.139695, $GPGST,143553.80,0.000,1.973,1.507,7.2,1.515,1.966,5.645*5
1223309618.334550, $GPGGA,143554.00,4530.37014662,N,00909.97164627,E,2,3,2.8,134.750,M,48.022,M,1.0,0000*7
1223309618.344616, $GPGST,143554.00,0.000,0.719,0.258,356.3,0.261,0.718,2.313*5
1223309618.534475, $GPGGA,143554.20,4530.37019570,N,00909.97151358,E,2,3,2.8,134.748,M,48.022,M,1.2,0000*7
1223309618.543548, $GPGST,143554.20,0.000,0.720,0.258,356.3,0.261,0.718,2.312*5
1223309618.731416, $GPGGA,143554.40,4530.37026242,N,00909.97139262,E,2,3,2.8,134.748,M,48.022,M,1.4,0000*7
1223309618.741477, $GPGST,143554.40,0.000,0.720,0.258,356.3,0.261,0.718,2.312*5
1223309618.932339, $GPGGA,143554.60,4530.37031059,N,00909.97126643,E,2,3,2.8,134.748,M,48.022,M,0.6,0000*7
1223309618.941404, $GPGST,143554.60,0.000,0.720,0.258,356.3,0.261,0.718,2.312*5
1223309619.132258, $GPGGA,143554.80,4530.37036030,N,00909.97112811,E,2,3,2.8,134.749,M,48.022,M,0.8,0000*7
1223309619.141327, $GPGST,143554.80,0.000,0.720,0.258,356.3,0.261,0.718,2.312*5
1223309619.335196, $GPGGA,143555.00,4530.37043384,N,00909.97098327,E,2,3,2.8,134.748,M,48.022,M,1.0,0000*7
1223309619.345303, $GPGST,143555.00,0.000,0.719,0.254,356.3,0.257,0.718,2.313*5
1223309619.532117, $GPGGA,143555.20,4530.37048584,N,00909.97084905,E,2,3,2.8,134.748,M,48.022,M,1.2,0000*7
1223309619.542306, $GPGST,143555.20,0.000,0.719,0.254,356.3,0.257,0.718,2.313*5
1223309619.732054, $GPGGA,143555.40,4530.37053644,N,00909.97071557,E,2,3,2.8,134.748,M,48.022,M,1.4,0000*7
1223309619.742622, $GPGST,143555.40,0.000,0.719,0.254,356.3,0.257,0.718,2.313*5
1223309619.932067, $GPGGA,143555.60,4530.37059515,N,00909.97058809,E,2,3,2.8,134.749,M,48.022,M,0.6,0000*7
1223309619.942043, $GPGST,143555.60,0.000,0.719,0.254,356.3,0.257,0.718,2.313*5
1223309620.132906, $GPGGA,143555.80,4530.37064306,N,00909.97045692,E,2,3,2.8,134.749,M,48.022,M,0.8,0000*7
1223309620.143021, $GPGST,143555.80,0.000,0.719,0.254,356.3,0.257,0.718,2.313*5
1223309620.334840, $GPGGA,143556.00,4530.37068082,N,00909.97034005,E,2,3,2.8,134.748,M,48.022,M,1.0,0000*7
1223309620.344908, $GPGST,143556.00,0.000,0.718,0.251,356.4,0.254,0.717,2.313*5
1223309620.534769, $GPGGA,143556.20,4530.37073739,N,00909.97020579,E,2,3,2.8,134.748,M,48.022,M,1.2,0000*7
1223309620.543881, $GPGST,143556.20,0.000,0.719,0.250,356.3,0.254,0.718,2.312*5
1223309620.732693, $GPGGA,143556.40,4530.37080240,N,00909.97009819,E,2,3,2.8,134.748,M,48.022,M,1.4,0000*7
1223309620.741759, $GPGST,143556.40,0.000,0.719,0.250,356.3,0.254,0.718,2.312*5
1223309620.932624, $GPGGA,143556.60,4530.37085225,N,00909.96996374,E,2,3,2.8,134.748,M,48.022,M,0.6,0000*7
1223309620.941738, $GPGST,143556.60,0.000,0.719,0.250,356.3,0.254,0.718,2.312*5
1223309621.132553, $GPGGA,143556.80,4530.37091118,N,00909.96983911,E,2,3,2.8,134.749,M,48.022,M,0.8,0000*7
1223309621.142619, $GPGST,143556.80,0.000,0.719,0.250,356.3,0.254,0.718,2.312*5
1223309621.335491, $GPGGA,143557.00,4530.37093573,N,00909.96970611,E,2,3,2.8,134.748,M,48.022,M,1.0,0000*7
1223309621.345548, $GPGST,143557.00,0.000,0.718,0.253,356.3,0.257,0.717,2.312*5
1223309621.532412, $GPGGA,143557.20,4530.37098705,N,00909.96958002,E,2,3,2.8,134.748,M,48.022,M,1.2,0000*7
1223309621.542466, $GPGST,143557.20,0.000,0.718,0.253,356.3,0.257,0.717,2.312*5
1223309621.732340, $GPGGA,143557.40,4530.37104352,N,00909.96945210,E,2,3,2.8,134.748,M,48.022,M,1.4,0000*7
1223309621.742410, $GPGST,143557.40,0.000,0.718,0.253,356.3,0.257,0.717,2.312*5
1223309621.932272, $GPGGA,143557.60,4530.37109651,N,00909.96930833,E,2,3,2.8,134.749,M,48.022,M,0.6,0000*7
1223309621.942334, $GPGST,143557.60,0.000,0.718,0.253,356.3,0.257,0.717,2.312*5
1223309622.132200, $GPGGA,143557.80,4530.37113774,N,00909.96917401,E,2,3,2.8,134.749,M,48.022,M,0.8,0000*7
1223309622.142263, $GPGST,143557.80,0.000,0.718,0.253,356.3,0.257,0.717,2.312*5
1223309622.337245, $GPGGA,143558.00,4530.37122258,N,00909.96905175,E,2,3,2.8,134.748,M,48.022,M,1.0,0000*7
1223309622.345223, $GPGST,143558.00,0.000,0.718,0.246,356.3,0.250,0.717,2.313*5
1223309622.535059, $GPGGA,143558.20,4530.37126308,N,00909.96890721,E,2,3,2.8,134.748,M,48.022,M,1.2,0000*7
1223309622.545148, $GPGST,143558.20,0.000,0.719,0.246,356.3,0.250,0.717,2.312*5
1223309622.733986, $GPGGA,143558.40,4530.37131217,N,00909.96877406,E,2,3,2.8,134.748,M,48.022,M,1.4,0000*7
1223309622.743074, $GPGST,143558.40,0.000,0.719,0.246,356.3,0.250,0.717,2.312*5
1223309622.932930, $GPGGA,143558.60,4530.37137438,N,00909.96865926,E,2,3,2.8,134.748,M,48.022,M,0.6,0000*7
1223309622.943057, $GPGST,143558.60,0.000,0.719,0.246,356.3,0.250,0.717,2.312*5
1223309623.132847, $GPGGA,143558.80,4530.37142160,N,00909.96853942,E,2,3,2.8,134.749,M,48.022,M,0.8,0000*7
1223309623.142928, $GPGST,143558.80,0.000,0.719,0.246,356.3,0.250,0.717,2.312*5
1223309623.336780, $GPGGA,143559.00,4530.37145717,N,00909.96994214,E,2,4,3.9,127.548,M,48.022,M,1.0,0000*7
1223309623.352289, $GPGST,143559.00,0.000,1.210,0.480,347.6,0.536,1.186,2.220*5
1223309623.533710, $GPGGA,143559.20,4530.37151257,N,00909.96981656,E,2,4,3.9,127.611,M,48.022,M,1.2,0000*7
1223309623.542796, $GPGST,143559.20,0.000,1.210,0.480,347.6,0.536,1.186,2.220*5
1223309623.733636, $GPGGA,143559.40,4530.37157427,N,00909.96967771,E,2,4,3.9,127.643,M,48.022,M,1.4,0000*7
1223309623.743150, $GPGST,143559.40,0.000,1.210,0.480,347.6,0.536,1.186,2.220*5
1223309623.933681, $GPGGA,143559.60,4530.37163135,N,00909.96954550,E,2,4,3.9,127.701,M,48.022,M,0.6,0000*7
1223309623.943076, $GPGST,143559.60,0.000,1.210,0.480,347.6,0.536,1.186,2.220*5
1223309624.133499, $GPGGA,143559.80,4530.37171352,N,00909.96944645,E,2,4,3.9,127.720,M,48.022,M,0.8,0000*7
1223309624.143646, $GPGST,143559.80,0.000,1.210,0.480,347.6,0.536,1.186,2.220*5
1223309624.338423, $GPGGA,143600.00,4530.37181856,N,00909.96941722,E,2,5,1.9,127.664,M,48.022,M,1.0,0000*7
1223309624.348505, $GPGST,143600.00,0.044,0.094,0.069,24.0,0.074,0.090,0.263*6
1223309624.536359, $GPGGA,143600.20,4530.37189102,N,00909.96932202,E,2,4,1.6,127.583,M,48.022,M,1.2,0000*7
1223309624.546437, $GPGST,143600.20,0.000,0.313,0.270,39.7,0.288,0.296,1.004*6
1223309624.733282, $GPGGA,143600.40,4530.37197378,N,00909.96923284,E,2,4,1.6,127.580,M,48.022,M,1.4,0000*7
1223309624.743355, $GPGST,143600.40,0.000,0.313,0.270,39.7,0.288,0.296,1.004*6
1223309624.933214, $GPGGA,143600.60,4530.37205880,N,00909.96914420,E,2,4,1.6,127.575,M,48.022,M,0.6,0000*7
1223309624.943283, $GPGST,143600.60,0.000,0.313,0.270,39.7,0.288,0.296,1.004*6
1223309625.134141, $GPGGA,143600.80,4530.37213986,N,00909.96906255,E,2,4,1.6,127.574,M,48.022,M,0.8,0000*7
1223309625.143208, $GPGST,143600.80,0.000,0.313,0.270,39.7,0.288,0.296,1.004*6
1223309625.338073, $GPGGA,143601.00,4530.37221818,N,00909.96898926,E,2,4,1.6,127.642,M,48.022,M,1.0,0000*7
1223309625.347187, $GPGST,143601.00,0.000,0.311,0.266,41.7,0.286,0.292,1.005*6
1223309625.534002, $GPGGA,143601.20,4530.37230541,N,00909.96892720,E,2,4,1.6,127.647,M,48.022,M,1.2,0000*7
1223309625.544070, $GPGST,143601.20,0.000,0.311,0.266,41.7,0.286,0.292,1.005*6
1223309625.733930, $GPGGA,143601.40,4530.37239977,N,00909.96885900,E,2,4,1.6,127.649,M,48.022,M,1.4,0000*7
1223309625.744000, $GPGST,143601.40,0.000,0.311,0.266,41.7,0.286,0.292,1.005*6
1223309625.933862, $GPGGA,143601.60,4530.37250008,N,00909.96879992,E,2,4,1.6,127.653,M,48.022,M,0.6,0000*7
1223309625.943924, $GPGST,143601.60,0.000,0.311,0.266,41.7,0.286,0.292,1.005*6
1223309626.133790, $GPGGA,143601.80,4530.37259111,N,00909.96874520,E,2,4,1.6,127.646,M,48.022,M,0.8,0000*7
1223309626.143845, $GPGST,143601.80,0.000,0.311,0.266,41.7,0.286,0.292,1.005*6
1223309626.337718, $GPGGA,143602.00,4530.37269045,N,00909.96868960,E,2,4,1.6,127.655,M,48.022,M,1.0,0000*7
1223309626.347780, $GPGST,143602.00,0.000,0.309,0.262,43.0,0.285,0.288,1.005*6
1223309626.536654, $GPGGA,143602.20,4530.37279244,N,00909.96865342,E,2,4,1.6,127.666,M,48.022,M,1.2,0000*7
1223309626.546717, $GPGST,143602.20,0.000,0.309,0.262,43.0,0.285,0.288,1.005*6
1223309626.734577, $GPGGA,143602.40,4530.37289511,N,00909.96862522,E,2,4,1.6,127.665,M,48.022,M,1.4,0000*7
1223309626.744249, $GPGST,143602.40,0.000,0.309,0.262,43.0,0.285,0.288,1.005*6
1223309626.934503, $GPGGA,143602.60,4530.37299367,N,00909.96859858,E,2,4,1.6,127.660,M,48.022,M,0.6,0000*7
1223309626.943566, $GPGST,143602.60,0.000,0.309,0.262,43.0,0.285,0.288,1.005*6
1223309627.134437, $GPGGA,143602.80,4530.37309276,N,00909.96858297,E,2,4,1.6,127.665,M,48.022,M,0.8,0000*7
1223309627.143520, $GPGST,143602.80,0.000,0.309,0.262,43.0,0.285,0.288,1.005*6
1223309627.338363, $GPGGA,143603.00,4530.37322142,N,00909.96856285,E,2,4,1.6,127.647,M,48.022,M,1.0,0000*7
1223309627.348421, $GPGST,143603.00,0.000,0.307,0.259,43.4,0.283,0.285,1.005*6
1223309627.534311, $GPGGA,143603.20,4530.37332847,N,00909.96856884,E,2,4,1.6,127.666,M,48.022,M,1.2,0000*7
1223309627.544380, $GPGST,143603.20,0.000,0.307,0.259,43.4,0.283,0.285,1.005*6
1223309627.734229, $GPGGA,143603.40,4530.37342739,N,00909.96856120,E,2,4,1.6,127.651,M,48.022,M,1.4,0000*7
1223309627.744358, $GPGST,143603.40,0.000,0.307,0.259,43.4,0.283,0.285,1.005*6
1223309627.934155, $GPGGA,143603.60,4530.37353067,N,00909.96857952,E,2,4,1.6,127.661,M,48.022,M,0.6,0000*7
1223309627.944200, $GPGST,143603.60,0.000,0.307,0.259,43.4,0.283,0.285,1.005*6
1223309628.134085, $GPGGA,143603.80,4530.37363886,N,00909.96859366,E,2,4,1.6,127.660,M,48.022,M,0.8,0000*7
1223309628.144128, $GPGST,143603.80,0.000,0.307,0.259,43.4,0.283,0.285,1.005*6
1223309628.338026, $GPGGA,143604.00,4530.37374058,N,00909.96864057,E,2,4,1.6,127.645,M,48.022,M,1.0,0000*7
1223309628.348093, $GPGST,143604.00,0.000,0.306,0.257,44.2,0.282,0.283,1.005*6
1223309628.536954, $GPGGA,143604.20,4530.37383918,N,00909.96867731,E,2,4,1.6,127.661,M,48.022,M,1.2,0000*7
1223309628.547030, $GPGST,143604.20,0.000,0.306,0.257,44.2,0.282,0.283,1.005*6
1223309628.734876, $GPGGA,143604.40,4530.37393756,N,00909.96869535,E,2,4,1.6,127.666,M,48.022,M,1.4,0000*7
1223309628.743991, $GPGST,143604.40,0.000,0.306,0.257,44.2,0.282,0.283,1.005*6
1223309628.934806, $GPGGA,143604.60,4530.37403957,N,00909.96873002,E,2,4,1.6,127.663,M,48.022,M,0.6,0000*7
1223309628.943912, $GPGST,143604.60,0.000,0.306,0.257,44.2,0.282,0.283,1.005*6
1223309629.134836, $GPGGA,143604.80,4530.37415113,N,00909.96876502,E,2,4,1.6,127.677,M,48.022,M,0.8,0000*7
1223309629.144845, $GPGST,143604.80,0.000,0.306,0.257,44.2,0.282,0.283,1.005*6
1223309629.338666, $GPGGA,143605.00,4530.37429331,N,00909.96857580,E,2,5,2.0,129.422,M,48.022,M,1.0,0000*7
1223309629.348780, $GPGST,143605.00,0.168,0.103,0.051,50.0,0.086,0.077,0.535*6
1223309629.534590, $GPGGA,143605.20,4530.37438600,N,00909.96860604,E,2,5,2.0,129.440,M,48.022,M,1.2,0000*7
1223309629.544666, $GPGST,143605.20,0.168,0.103,0.051,50.0,0.086,0.077,0.535*6
1223309629.734519, $GPGGA,143605.40,4530.37448613,N,00909.96866027,E,2,5,2.0,129.458,M,48.022,M,1.4,0000*7
1223309629.744591, $GPGST,143605.40,0.168,0.103,0.051,50.0,0.086,0.077,0.535*6
1223309629.935448, $GPGGA,143605.60,4530.37457164,N,00909.96873404,E,2,5,2.0,129.380,M,48.022,M,0.6,0000*7
1223309629.944518, $GPGST,143605.60,0.168,0.103,0.051,50.0,0.086,0.077,0.535*6
1223309630.135381, $GPGGA,143605.80,4530.37466683,N,00909.96879201,E,2,5,2.0,129.390,M,48.022,M,0.8,0000*7
1223309630.144761, $GPGST,143605.80,0.168,0.103,0.051,50.0,0.086,0.077,0.535*6
1223309630.339306, $GPGGA,143606.00,4530.37473786,N,00909.96890961,E,2,5,2.0,129.348,M,48.022,M,1.0,0000*7
1223309630.349412, $GPGST,143606.00,0.144,0.102,0.050,50.5,0.085,0.076,0.528*6
1223309630.538234, $GPGGA,143606.20,4530.37482342,N,00909.96898327,E,2,5,2.0,129.347,M,48.022,M,1.2,0000*7
1223309630.547294, $GPGST,143606.20,0.148,0.102,0.050,50.5,0.085,0.076,0.527*6
1223309630.735166, $GPGGA,143606.40,4530.37491337,N,00909.96907092,E,2,5,2.0,129.346,M,48.022,M,1.4,0000*7
1223309630.745225, $GPGST,143606.40,0.148,0.102,0.050,50.5,0.085,0.076,0.527*6
1223309630.935096, $GPGGA,143606.60,4530.37499354,N,00909.96916276,E,2,5,2.0,129.339,M,48.022,M,0.6,0000*7
1223309630.945149, $GPGST,143606.60,0.148,0.102,0.050,50.5,0.085,0.076,0.527*6
1223309631.135026, $GPGGA,143606.80,4530.37507114,N,00909.96925668,E,2,5,2.0,129.324,M,48.022,M,0.8,0000*7
1223309631.145092, $GPGST,143606.80,0.148,0.102,0.050,50.5,0.085,0.076,0.527*6
1223309631.338958, $GPGGA,143607.00,4530.37514155,N,00909.96940086,E,2,5,2.0,129.094,M,48.022,M,1.0,0000*7
1223309631.349013, $GPGST,143607.00,0.105,0.101,0.050,51.0,0.085,0.074,0.521*6
1223309631.534885, $GPGGA,143607.20,4530.37521144,N,00909.96951352,E,2,5,2.0,128.957,M,48.022,M,1.2,0000*7
1223309631.544976, $GPGST,143607.20,0.105,0.101,0.050,51.0,0.085,0.074,0.521*6
1223309631.735813, $GPGGA,143607.40,4530.37527180,N,00909.96962447,E,2,5,2.0,129.002,M,48.022,M,1.4,0000*7
1223309631.744897, $GPGST,143607.40,0.105,0.101,0.050,51.0,0.085,0.074,0.521*6
1223309631.934743, $GPGGA,143607.60,4530.37532832,N,00909.96975108,E,2,5,2.0,128.925,M,48.022,M,0.6,0000*7
1223309631.944826, $GPGST,143607.60,0.105,0.101,0.050,51.0,0.085,0.074,0.521*6
1223309632.135671, $GPGGA,143607.80,4530.37538057,N,00909.96984497,E,2,5,2.0,128.925,M,48.022,M,0.8,0000*7
1223309632.144721, $GPGST,143607.80,0.105,0.101,0.050,51.0,0.085,0.074,0.521*6
1223309632.339605, $GPGGA,143608.00,4530.37539253,N,00909.96998970,E,2,5,2.0,128.701,M,48.022,M,1.0,0000*7
1223309632.349701, $GPGST,143608.00,0.103,0.101,0.049,51.5,0.084,0.074,0.517*6
1223309632.538531, $GPGGA,143608.20,4530.37545322,N,00909.97010074,E,2,5,2.0,128.716,M,48.022,M,1.2,0000*7
1223309632.547577, $GPGST,143608.20,0.087,0.100,0.049,51.5,0.084,0.073,0.516*6
1223309632.735459, $GPGGA,143608.40,4530.37545489,N,00909.97027024,E,2,5,2.0,128.678,M,48.022,M,1.4,0000*7
1223309632.745507, $GPGST,143608.40,0.087,0.100,0.049,51.5,0.084,0.073,0.516*6
1223309632.935388, $GPGGA,143608.60,4530.37546122,N,00909.97041677,E,2,5,2.0,128.713,M,48.022,M,0.6,0000*7
1223309632.945434, $GPGST,143608.60,0.087,0.100,0.049,51.5,0.084,0.073,0.516*6
1223309633.135318, $GPGGA,143608.80,4530.37547545,N,00909.97055638,E,2,5,2.0,128.681,M,48.022,M,0.8,0000*7
1223309633.145393, $GPGST,143608.80,0.087,0.100,0.049,51.5,0.084,0.073,0.516*6
1223309633.339245, $GPGGA,143609.00,4530.37551176,N,00909.97066274,E,2,5,2.0,128.765,M,48.022,M,1.0,0000*7
1223309633.349307, $GPGST,143609.00,0.072,0.100,0.049,51.9,0.084,0.073,0.510*6
1223309633.535174, $GPGGA,143609.20,4530.37553097,N,00909.97079300,E,2,5,2.0,128.917,M,48.022,M,1.2,0000*7
1223309633.545241, $GPGST,143609.20,0.072,0.100,0.049,51.9,0.084,0.073,0.510*6
1223309633.735105, $GPGGA,143609.40,4530.37552565,N,00909.97095741,E,2,5,2.0,128.847,M,48.022,M,1.4,0000*7
1223309633.745168, $GPGST,143609.40,0.072,0.100,0.049,51.9,0.084,0.073,0.510*6
1223309633.935031, $GPGGA,143609.60,4530.37551621,N,00909.97111489,E,2,5,2.0,128.892,M,48.022,M,0.6,0000*7
1223309633.945089, $GPGST,143609.60,0.072,0.100,0.049,51.9,0.084,0.073,0.510*6
1223309634.137968, $GPGGA,143609.80,4530.37550987,N,00909.97126870,E,2,4,1.6,128.945,M,48.022,M,0.8,0000*7
1223309634.148020, $GPGST,143609.80,0.000,0.294,0.195,34.1,0.231,0.267,1.335*6
1223309634.339895, $GPGGA,143610.00,4530.37550345,N,00909.97139525,E,2,4,1.6,128.813,M,48.022,M,1.0,0000*7
1223309634.349018, $GPGST,143610.00,0.000,0.294,0.196,34.1,0.231,0.267,1.335*6
1223309634.539046, $GPGGA,143610.20,4530.37550995,N,00909.97149518,E,2,4,1.6,128.842,M,48.022,M,1.2,0000*7
1223309634.547955, $GPGST,143610.20,0.000,0.294,0.196,34.1,0.231,0.267,1.334*6
1223309634.735825, $GPGGA,143610.40,4530.37554523,N,00909.97163614,E,2,4,1.6,128.870,M,48.022,M,1.4,0000*7
1223309634.745857, $GPGST,143610.40,0.000,0.294,0.196,34.1,0.231,0.267,1.334*6
1223309634.935684, $GPGGA,143610.60,4530.37555176,N,00909.97176774,E,2,4,1.6,128.894,M,48.022,M,0.6,0000*7
1223309634.945806, $GPGST,143610.60,0.000,0.294,0.196,34.1,0.231,0.267,1.334*6
1223309635.135609, $GPGGA,143610.80,4530.37557776,N,00909.97190325,E,2,4,1.6,128.863,M,48.022,M,0.8,0000*7
1223309635.145657, $GPGST,143610.80,0.000,0.294,0.196,34.1,0.231,0.267,1.334*6
1223309635.339537, $GPGGA,143611.00,4530.37559706,N,00909.97201443,E,2,4,1.6,129.092,M,48.022,M,1.0,0000*7
1223309635.349588, $GPGST,143611.00,0.000,0.293,0.195,34.2,0.231,0.266,1.335*6
1223309635.537467, $GPGGA,143611.20,4530.37559499,N,00909.97211357,E,2,3,2.8,129.059,M,48.022,M,1.2,0000*7
1223309635.547602, $GPGST,143611.20,0.000,0.650,0.283,349.6,0.302,0.641,1.775*5
1223309635.735398, $GPGGA,143611.40,4530.37558591,N,00909.97225593,E,2,3,2.8,129.058,M,48.022,M,1.4,0000*7
1223309635.745510, $GPGST,143611.40,0.000,0.650,0.283,349.6,0.302,0.641,1.775*5
1223309635.935326, $GPGGA,143611.60,4530.37558140,N,00909.97242669,E,2,3,2.8,129.058,M,48.022,M,0.6,0000*7
1223309635.945481, $GPGST,143611.60,0.000,0.650,0.283,349.6,0.302,0.641,1.775*5
1223309636.135256, $GPGGA,143611.80,4530.37557543,N,00909.97256349,E,2,3,2.8,129.058,M,48.022,M,0.8,0000*7
1223309636.145601, $GPGST,143611.80,0.000,0.650,0.283,349.6,0.302,0.641,1.775*5
1223309636.339190, $GPGGA,143612.00,4530.37557662,N,00909.97270666,E,2,3,2.8,129.096,M,48.022,M,1.0,0000*7
1223309636.348259, $GPGST,143612.00,0.000,0.649,0.283,349.6,0.302,0.640,1.775*5
1223309636.537117, $GPGGA,143612.20,4530.37555241,N,00909.97283379,E,2,3,2.8,129.096,M,48.022,M,1.2,0000*7
1223309636.547353, $GPGST,143612.20,0.000,0.650,0.283,349.6,0.302,0.641,1.775*5
1223309636.735045, $GPGGA,143612.40,4530.37552708,N,00909.97297652,E,2,3,2.8,129.096,M,48.022,M,1.4,0000*7
1223309636.745124, $GPGST,143612.40,0.000,0.650,0.283,349.6,0.302,0.641,1.775*5
1223309636.934975, $GPGGA,143612.60,4530.37549876,N,00909.97312359,E,2,3,2.8,129.096,M,48.022,M,0.6,0000*7
1223309636.945044, $GPGST,143612.60,0.000,0.650,0.283,349.6,0.302,0.641,1.775*5
1223309637.134904, $GPGGA,143612.80,4530.37546433,N,00909.97325590,E,2,3,2.8,129.096,M,48.022,M,0.8,0000*7
1223309637.144976, $GPGST,143612.80,0.000,0.650,0.283,349.6,0.302,0.641,1.775*5
1223309637.338842, $GPGGA,143613.00,4530.37540647,N,00909.97336870,E,2,3,2.8,129.096,M,48.022,M,1.0,0000*7
1223309637.348911, $GPGST,143613.00,0.000,0.648,0.282,349.5,0.301,0.639,1.775*5
1223309637.535763, $GPGGA,143613.20,4530.37538651,N,00909.97351665,E,2,3,2.8,129.096,M,48.022,M,1.2,0000*7
1223309637.544826, $GPGST,143613.20,0.000,0.648,0.282,349.5,0.301,0.639,1.775*5
1223309637.735693, $GPGGA,143613.40,4530.37532377,N,00909.97363501,E,2,3,2.8,129.095,M,48.022,M,1.4,0000*7
1223309637.745758, $GPGST,143613.40,0.000,0.648,0.282,349.5,0.301,0.639,1.775*5
1223309637.935623, $GPGGA,143613.60,4530.37533414,N,00909.97365844,E,2,3,2.8,129.096,M,48.022,M,0.6,0000*7
1223309637.945689, $GPGST,143613.60,0.000,0.648,0.282,349.5,0.301,0.639,1.775*5
1223309638.135554, $GPGGA,143613.80,4530.37533455,N,00909.97363554,E,2,3,2.8,129.096,M,48.022,M,0.8,0000*7
1223309638.145967, $GPGST,143613.80,0.000,0.648,0.282,349.5,0.301,0.639,1.775*5
1223309638.339486, $GPGGA,143614.00,4530.37532295,N,00909.97368693,E,2,3,2.8,129.096,M,48.022,M,1.0,0000*7
1223309638.349583, $GPGST,143614.00,0.000,0.649,0.282,349.6,0.301,0.640,1.775*5
1223309638.537410, $GPGGA,143614.20,4530.37528741,N,00909.97376089,E,2,3,2.8,129.096,M,48.022,M,1.2,0000*7
1223309638.547475, $GPGST,143614.20,0.000,0.650,0.281,349.6,0.301,0.641,1.775*5
1223309638.735341, $GPGGA,143614.40,4530.37521496,N,00909.97382489,E,2,3,2.8,129.096,M,48.022,M,1.4,0000*7
1223309638.745403, $GPGST,143614.40,0.000,0.650,0.281,349.6,0.301,0.641,1.775*5
1223309638.935271, $GPGGA,143614.60,4530.37513594,N,00909.97394019,E,2,3,2.8,129.095,M,48.022,M,0.6,0000*7
1223309638.945331, $GPGST,143614.60,0.000,0.650,0.281,349.6,0.301,0.641,1.775*5
1223309639.135207, $GPGGA,143614.80,4530.37503489,N,00909.97398811,E,2,3,2.8,129.095,M,48.022,M,0.8,0000*7
1223309639.145287, $GPGST,143614.80,0.000,0.650,0.281,349.6,0.301,0.641,1.775*5
1223309639.339138, $GPGGA,143615.00,4530.37493737,N,00909.97404392,E,2,3,2.8,129.096,M,48.022,M,1.0,0000*7
1223309639.349173, $GPGST,143615.00,0.000,0.648,0.281,349.5,0.300,0.639,1.775*5
1223309639.536059, $GPGGA,143615.20,4530.37484683,N,00909.97409165,E,2,3,2.8,129.095,M,48.022,M,1.2,0000*7
1223309639.546146, $GPGST,143615.20,0.000,0.648,0.281,349.5,0.300,0.639,1.775*5
1223309639.735988, $GPGGA,143615.40,4530.37475482,N,00909.97416674,E,2,3,2.8,129.095,M,48.022,M,1.4,0000*7
1223309639.746104, $GPGST,143615.40,0.000,0.648,0.281,349.5,0.300,0.639,1.775*5
1223309639.935920, $GPGGA,143615.60,4530.37466684,N,00909.97422561,E,2,3,2.8,129.094,M,48.022,M,0.6,0000*7
1223309639.946242, $GPGST,143615.60,0.000,0.648,0.281,349.5,0.300,0.639,1.775*5
1223309640.135851, $GPGGA,143615.80,4530.37457258,N,00909.97429484,E,2,3,2.8,129.094,M,48.022,M,0.8,0000*7
1223309640.145930, $GPGST,143615.80,0.000,0.648,0.281,349.5,0.300,0.639,1.775*5
1223309640.339816, $GPGGA,143616.00,4530.37448813,N,00909.97434747,E,2,3,2.8,129.096,M,48.022,M,1.0,0000*7
1223309640.348855, $GPGST,143616.00,0.000,0.648,0.281,349.5,0.300,0.639,1.775*5
1223309640.538707, $GPGGA,143616.20,4530.37439345,N,00909.97439009,E,2,3,2.8,129.096,M,48.022,M,1.2,0000*7
1223309640.547823, $GPGST,143616.20,0.000,0.648,0.280,349.5,0.300,0.640,1.775*5
1223309640.736636, $GPGGA,143616.40,4530.37429200,N,00909.97442370,E,2,3,2.8,129.095,M,48.022,M,1.4,0000*7
1223309640.745718, $GPGST,143616.40,0.000,0.648,0.280,349.5,0.300,0.640,1.775*5
1223309640.935562, $GPGGA,143616.60,4530.37420065,N,00909.97445147,E,2,3,2.8,129.095,M,48.022,M,0.6,0000*7
1223309640.945645, $GPGST,143616.60,0.000,0.648,0.280,349.5,0.300,0.640,1.775*5
1223309641.136496, $GPGGA,143616.80,4530.37409601,N,00909.97448231,E,2,3,2.8,129.094,M,48.022,M,0.8,0000*7
1223309641.145572, $GPGST,143616.80,0.000,0.648,0.280,349.5,0.300,0.640,1.775*5
1223309641.339432, $GPGGA,143617.00,4530.37398928,N,00909.97447450,E,2,3,2.8,129.096,M,48.022,M,1.0,0000*7
1223309641.349506, $GPGST,143617.00,0.000,0.648,0.280,349.5,0.300,0.640,1.775*5
1223309641.536354, $GPGGA,143617.20,4530.37387153,N,00909.97447801,E,2,3,2.8,129.095,M,48.022,M,1.2,0000*7
1223309641.546431, $GPGST,143617.20,0.000,0.648,0.280,349.5,0.300,0.640,1.775*5
1223309641.736283, $GPGGA,143617.40,4530.37379319,N,00909.97447451,E,2,3,2.8,129.095,M,48.022,M,1.4,0000*7
1223309641.746396, $GPGST,143617.40,0.000,0.648,0.280,349.5,0.300,0.640,1.775*5
1223309641.936219, $GPGGA,143617.60,4530.37367909,N,00909.97445993,E,2,3,2.8,129.094,M,48.022,M,0.6,0000*7
1223309641.946284, $GPGST,143617.60,0.000,0.648,0.280,349.5,0.300,0.640,1.775*5
1223309642.136143, $GPGGA,143617.80,4530.37357251,N,00909.97444973,E,2,3,2.8,129.093,M,48.022,M,0.8,0000*7
1223309642.146207, $GPGST,143617.80,0.000,0.648,0.280,349.5,0.300,0.640,1.775*5
1223309642.340098, $GPGGA,143618.00,4530.37348308,N,00909.97448630,E,2,3,2.8,129.096,M,48.022,M,1.0,0000*7
1223309642.356455, $GPGST,143618.00,0.000,0.649,0.280,349.6,0.299,0.641,1.775*5
1223309642.539004, $GPGGA,143618.20,4530.37338205,N,00909.97449055,E,2,3,2.8,129.096,M,48.022,M,1.2,0000*7
1223309642.549485, $GPGST,143618.20,0.000,0.650,0.280,349.6,0.299,0.641,1.774*5
1223309642.736931, $GPGGA,143618.40,4530.37328134,N,00909.97448750,E,2,3,2.8,129.095,M,48.022,M,1.4,0000*7
1223309642.746074, $GPGST,143618.40,0.000,0.650,0.280,349.6,0.299,0.641,1.774*5
1223309642.936862, $GPGGA,143618.60,4530.37319557,N,00909.97449286,E,2,3,2.8,129.095,M,48.022,M,0.6,0000*7
1223309642.946921, $GPGST,143618.60,0.000,0.650,0.280,349.6,0.299,0.641,1.774*5
1223309643.136791, $GPGGA,143618.80,4530.37309651,N,00909.97450241,E,2,3,2.8,129.094,M,48.022,M,0.8,0000*7
1223309643.146848, $GPGST,143618.80,0.000,0.650,0.280,349.6,0.299,0.641,1.774*5
1223309643.340848, $GPGGA,143619.00,4530.37298673,N,00909.97449956,E,2,3,2.8,129.096,M,48.022,M,1.0,0000*7
1223309643.350819, $GPGST,143619.00,0.000,0.650,0.279,349.5,0.299,0.641,1.774*5
1223309643.536649, $GPGGA,143619.20,4530.37288522,N,00909.97452744,E,2,3,2.8,129.095,M,48.022,M,1.2,0000*7
1223309643.546716, $GPGST,143619.20,0.000,0.650,0.279,349.5,0.299,0.641,1.774*5
1223309643.736583, $GPGGA,143619.40,4530.37278486,N,00909.97457103,E,2,3,2.8,129.095,M,48.022,M,1.4,0000*7
1223309643.746666, $GPGST,143619.40,0.000,0.650,0.279,349.5,0.299,0.641,1.774*5
1223309643.936512, $GPGGA,143619.60,4530.37268024,N,00909.97456406,E,2,3,2.8,129.094,M,48.022,M,0.6,0000*7
1223309643.946595, $GPGST,143619.60,0.000,0.650,0.279,349.5,0.299,0.641,1.774*5
1223309644.136444, $GPGGA,143619.80,4530.37257780,N,00909.97458408,E,2,3,2.8,129.094,M,48.022,M,0.8,0000*7
1223309644.146527, $GPGST,143619.80,0.000,0.650,0.279,349.5,0.299,0.641,1.774*5
1223309644.340401, $GPGGA,143620.00,4530.37249805,N,00909.97458646,E,2,3,2.8,129.096,M,48.022,M,1.0,0000*7
1223309644.350534, $GPGST,143620.00,0.000,0.649,0.279,349.6,0.298,0.641,1.774*5
1223309644.539300, $GPGGA,143620.20,4530.37238846,N,00909.97459572,E,2,3,2.8,129.096,M,48.022,M,1.2,0000*7
1223309644.549427, $GPGST,143620.20,0.000,0.650,0.279,349.6,0.298,0.641,1.774*5
1223309644.737230, $GPGGA,143620.40,4530.37228924,N,00909.97464106,E,2,3,2.8,129.095,M,48.022,M,1.4,0000*7
1223309644.747359, $GPGST,143620.40,0.000,0.650,0.279,349.6,0.298,0.641,1.774*5
1223309644.937156, $GPGGA,143620.60,4530.37216936,N,00909.97463128,E,2,3,2.8,129.095,M,48.022,M,0.6,0000*7
1223309644.947309, $GPGST,143620.60,0.000,0.650,0.279,349.6,0.298,0.641,1.774*5
1223309645.137087, $GPGGA,143620.80,4530.37206039,N,00909.97460929,E,2,3,2.8,129.094,M,48.022,M,0.8,0000*7
1223309645.147130, $GPGST,143620.80,0.000,0.650,0.279,349.6,0.298,0.641,1.774*5
1223309645.341023, $GPGGA,143621.00,4530.37196807,N,00909.97466132,E,2,3,2.8,129.096,M,48.022,M,1.0,0000*7
1223309645.350173, $GPGST,143621.00,0.000,0.650,0.278,349.6,0.298,0.641,1.774*5
1223309645.536944, $GPGGA,143621.20,4530.37188132,N,00909.97467319,E,2,3,2.8,129.095,M,48.022,M,1.2,0000*7
1223309645.547059, $GPGST,143621.20,0.000,0.650,0.278,349.6,0.298,0.641,1.774*5
1223309645.737873, $GPGGA,143621.40,4530.37176288,N,00909.97467841,E,2,3,2.8,129.095,M,48.022,M,1.4,0000*7
1223309645.746950, $GPGST,143621.40,0.000,0.650,0.278,349.6,0.298,0.641,1.774*5
1223309645.937804, $GPGGA,143621.60,4530.37168672,N,00909.97473563,E,2,3,2.8,129.094,M,48.022,M,0.6,0000*7
1223309645.946907, $GPGST,143621.60,0.000,0.650,0.278,349.6,0.298,0.641,1.774*5
1223309646.137734, $GPGGA,143621.80,4530.37157325,N,00909.97471788,E,2,3,2.8,129.094,M,48.022,M,0.8,0000*7
1223309646.146922, $GPGST,143621.80,0.000,0.650,0.278,349.6,0.298,0.641,1.774*5
1223309646.340668, $GPGGA,143622.00,4530.37148760,N,00909.97472414,E,2,3,2.8,129.096,M,48.022,M,1.0,0000*7
