1223134360.127426, $GPGGA,135538.60,4530.37044717,N,00910.00239678,E,2,6,2.3,138.505,M,48.022,M,0.6,0000*7
1223134360.136419, $GPGST,135538.60,5.390,3.831,1.181,277.7,3.800,1.277,3.930*5
1223134360.327374, $GPGGA,135538.80,4530.37044955,N,00910.00239588,E,2,6,2.3,138.517,M,48.022,M,0.8,0000*7
1223134360.336313, $GPGST,135538.80,5.390,3.831,1.181,277.7,3.800,1.277,3.930*5
1223134360.532280, $GPGGA,135539.00,4530.37043475,N,00910.00233768,E,2,6,2.3,138.473,M,48.022,M,1.0,0000*7
1223134360.541243, $GPGST,135539.00,5.371,3.815,1.176,277.7,3.784,1.272,3.916*5
1223134360.730207, $GPGGA,135539.20,4530.37232182,N,00909.99758645,E,2,5,2.4,129.738,M,48.022,M,1.2,0000*7
1223134360.740205, $GPGST,135539.20,0.194,0.142,0.070,272.8,0.142,0.070,0.162*5
1223134360.927132, $GPGGA,135539.40,4530.37230291,N,00909.99753814,E,2,5,2.4,129.728,M,48.022,M,0.4,0000*7
1223134360.937128, $GPGST,135539.40,0.194,0.142,0.070,272.8,0.142,0.070,0.162*5
1223134361.127057, $GPGGA,135539.60,4530.37229125,N,00909.99751810,E,2,5,2.4,129.730,M,48.022,M,0.6,0000*7
1223134361.137070, $GPGST,135539.60,0.194,0.142,0.070,272.8,0.142,0.070,0.162*5
1223134361.326983, $GPGGA,135539.80,4530.37228769,N,00909.99751496,E,2,5,2.4,129.720,M,48.022,M,0.8,0000*7
1223134361.336997, $GPGST,135539.80,0.194,0.142,0.070,272.8,0.142,0.070,0.162*5
1223134361.530951, $GPGGA,135540.00,4530.37227278,N,00909.99747607,E,2,5,2.4,129.727,M,48.022,M,1.0,0000*7
1223134361.540919, $GPGST,135540.00,0.182,0.133,0.066,272.8,0.133,0.066,0.152*5
1223134361.726834, $GPGGA,135540.20,4530.37225375,N,00909.99741532,E,2,5,2.4,129.740,M,48.022,M,1.2,0000*7
1223134361.736849, $GPGST,135540.20,0.182,0.133,0.066,272.8,0.133,0.066,0.152*5
1223134361.926841, $GPGGA,135540.40,4530.37224565,N,00909.99738022,E,2,5,2.4,129.735,M,48.022,M,0.4,0000*7
1223134361.936773, $GPGST,135540.40,0.182,0.133,0.066,272.8,0.133,0.066,0.152*5
1223134362.126734, $GPGGA,135540.60,4530.37223835,N,00909.99734846,E,2,5,2.4,129.746,M,48.022,M,0.6,0000*7
1223134362.136701, $GPGST,135540.60,0.182,0.133,0.066,272.8,0.133,0.066,0.152*5
1223134362.327669, $GPGGA,135540.80,4530.37222727,N,00909.99731804,E,2,5,2.4,129.733,M,48.022,M,0.8,0000*7
1223134362.336630, $GPGST,135540.80,0.182,0.133,0.066,272.8,0.133,0.066,0.152*5
1223134362.531559, $GPGGA,135541.00,4530.37222702,N,00909.99726287,E,2,5,2.4,129.744,M,48.022,M,1.0,0000*7
1223134362.541572, $GPGST,135541.00,0.195,0.143,0.071,272.8,0.143,0.071,0.163*5
1223134362.727524, $GPGGA,135541.20,4530.37220394,N,00909.99720759,E,2,5,2.4,129.713,M,48.022,M,1.2,0000*7
1223134362.737494, $GPGST,135541.20,0.195,0.143,0.071,272.8,0.143,0.071,0.163*5
1223134362.927449, $GPGGA,135541.40,4530.37220228,N,00909.99716570,E,2,5,2.4,129.750,M,48.022,M,0.4,0000*7
1223134362.937462, $GPGST,135541.40,0.195,0.143,0.071,272.8,0.143,0.071,0.163*5
1223134363.127417, $GPGGA,135541.60,4530.37217626,N,00909.99711772,E,2,5,2.4,129.742,M,48.022,M,0.6,0000*7
1223134363.137340, $GPGST,135541.60,0.195,0.143,0.071,272.8,0.143,0.071,0.163*5
1223134363.327302, $GPGGA,135541.80,4530.37216094,N,00909.99705364,E,2,5,2.4,129.730,M,48.022,M,0.8,0000*7
1223134363.337268, $GPGST,135541.80,0.195,0.143,0.071,272.8,0.143,0.071,0.163*5
1223134363.532283, $GPGGA,135542.00,4530.37215868,N,00909.99700733,E,2,5,2.4,129.759,M,48.022,M,1.0,0000*7
1223134363.541713, $GPGST,135542.00,0.169,0.124,0.061,272.7,0.124,0.061,0.141*5
1223134363.727621, $GPGGA,135542.20,4530.37213069,N,00909.99695741,E,2,5,2.4,129.772,M,48.022,M,1.2,0000*7
1223134363.737440, $GPGST,135542.20,0.169,0.124,0.061,272.7,0.124,0.061,0.141*5
1223134363.927155, $GPGGA,135542.40,4530.37211337,N,00909.99687768,E,2,5,2.4,129.768,M,48.022,M,0.4,0000*7
1223134363.937132, $GPGST,135542.40,0.169,0.124,0.061,272.7,0.124,0.061,0.141*5
1223134364.128064, $GPGGA,135542.60,4530.37207777,N,00909.99678885,E,2,5,2.4,129.744,M,48.022,M,0.6,0000*7
1223134364.137030, $GPGST,135542.60,0.169,0.124,0.061,272.7,0.124,0.061,0.141*5
1223134364.330104, $GPGGA,135542.80,4530.37206393,N,00909.99672797,E,2,5,2.4,129.769,M,48.022,M,0.8,0000*7
1223134364.337146, $GPGST,135542.80,0.169,0.124,0.061,272.7,0.124,0.061,0.141*5
1223134364.532029, $GPGGA,135543.00,4530.37201985,N,00909.99664916,E,2,5,2.4,129.737,M,48.022,M,1.0,0000*7
1223134364.541919, $GPGST,135543.00,0.176,0.129,0.064,272.7,0.128,0.064,0.147*5
1223134364.727807, $GPGGA,135543.20,4530.37200937,N,00909.99658039,E,2,5,2.4,129.739,M,48.022,M,1.2,0000*7
1223134364.737813, $GPGST,135543.20,0.176,0.129,0.064,272.7,0.128,0.064,0.147*5
1223134364.927734, $GPGGA,135543.40,4530.37197407,N,00909.99649478,E,2,5,2.4,129.738,M,48.022,M,0.4,0000*7
1223134364.937734, $GPGST,135543.40,0.176,0.129,0.064,272.7,0.128,0.064,0.147*5
1223134365.127691, $GPGGA,135543.60,4530.37194086,N,00909.99639657,E,2,5,2.4,129.732,M,48.022,M,0.6,0000*7
1223134365.137631, $GPGST,135543.60,0.176,0.129,0.064,272.7,0.128,0.064,0.147*5
1223134365.327614, $GPGGA,135543.80,4530.37191489,N,00909.99632103,E,2,5,2.4,129.729,M,48.022,M,0.8,0000*7
1223134365.337558, $GPGST,135543.80,0.176,0.129,0.064,272.7,0.128,0.064,0.147*5
1223134365.532515, $GPGGA,135544.00,4530.37190389,N,00909.99625623,E,2,5,2.4,129.731,M,48.022,M,1.0,0000*7
1223134365.542528, $GPGST,135544.00,0.173,0.126,0.063,272.7,0.126,0.063,0.144*5
1223134365.727516, $GPGGA,135544.20,4530.37186363,N,00909.99617345,E,2,5,2.4,129.730,M,48.022,M,1.2,0000*7
1223134365.737452, $GPGST,135544.20,0.173,0.126,0.063,272.7,0.126,0.063,0.144*5
1223134365.928396, $GPGGA,135544.40,4530.37184864,N,00909.99607412,E,2,5,2.4,129.742,M,48.022,M,0.4,0000*7
1223134365.937381, $GPGST,135544.40,0.173,0.126,0.063,272.7,0.126,0.063,0.144*5
1223134366.128342, $GPGGA,135544.60,4530.37181233,N,00909.99598291,E,2,5,2.4,129.746,M,48.022,M,0.6,0000*7
1223134366.138313, $GPGST,135544.60,0.173,0.126,0.063,272.7,0.126,0.063,0.144*5
1223134366.328271, $GPGGA,135544.80,4530.37177134,N,00909.99585770,E,2,5,2.4,129.750,M,48.022,M,0.8,0000*7
1223134366.338267, $GPGST,135544.80,0.173,0.126,0.063,272.7,0.126,0.063,0.144*5
1223134366.532162, $GPGGA,135545.00,4530.37172841,N,00909.99572804,E,2,5,2.4,129.741,M,48.022,M,1.0,0000*7
1223134366.542156, $GPGST,135545.00,0.173,0.127,0.063,272.7,0.127,0.063,0.145*5
1223134366.728123, $GPGGA,135545.20,4530.37170642,N,00909.99560374,E,2,5,2.4,129.745,M,48.022,M,1.2,0000*7
1223134366.738121, $GPGST,135545.20,0.173,0.127,0.063,272.7,0.127,0.063,0.145*5
1223134366.928053, $GPGGA,135545.40,4530.37167830,N,00909.99548788,E,2,5,2.4,129.749,M,48.022,M,0.4,0000*7
1223134366.938016, $GPGST,135545.40,0.173,0.127,0.063,272.7,0.127,0.063,0.145*5
1223134367.127978, $GPGGA,135545.60,4530.37164195,N,00909.99538031,E,2,5,2.4,129.742,M,48.022,M,0.6,0000*7
1223134367.137945, $GPGST,135545.60,0.173,0.127,0.063,272.7,0.127,0.063,0.145*5
1223134367.327918, $GPGGA,135545.80,4530.37161758,N,00909.99525093,E,2,5,2.4,129.747,M,48.022,M,0.8,0000*7
1223134367.337884, $GPGST,135545.80,0.173,0.127,0.063,272.7,0.127,0.063,0.145*5
1223134367.532854, $GPGGA,135546.00,4530.37157062,N,00909.99512260,E,2,5,2.4,129.757,M,48.022,M,1.0,0000*7
1223134367.542828, $GPGST,135546.00,0.147,0.112,0.055,272.7,0.112,0.056,0.128*5
1223134367.728801, $GPGGA,135546.20,4530.37153191,N,00909.99501050,E,2,5,2.4,129.735,M,48.022,M,1.2,0000*7
1223134367.737777, $GPGST,135546.20,0.147,0.112,0.055,272.7,0.112,0.056,0.128*5
1223134367.928745, $GPGGA,135546.40,4530.37150194,N,00909.99488881,E,2,5,2.4,129.741,M,48.022,M,0.4,0000*7
1223134367.938667, $GPGST,135546.40,0.147,0.112,0.055,272.7,0.112,0.056,0.128*5
1223134368.128670, $GPGGA,135546.60,4530.37147325,N,00909.99476857,E,2,5,2.4,129.759,M,48.022,M,0.6,0000*7
1223134368.138641, $GPGST,135546.60,0.147,0.112,0.055,272.7,0.112,0.056,0.128*5
1223134368.331552, $GPGGA,135546.80,4530.37148376,N,00909.99465654,E,2,4,2.8,129.720,M,48.022,M,0.8,0000*7
1223134368.341574, $GPGST,135546.80,0.000,0.782,0.320,276.4,0.778,0.330,0.783*5
1223134368.532492, $GPGGA,135547.00,4530.37146764,N,00909.99452341,E,2,4,2.8,129.718,M,48.022,M,1.0,0000*7
1223134368.542504, $GPGST,135547.00,0.000,0.782,0.320,276.4,0.777,0.330,0.782*5
1223134368.728421, $GPGGA,135547.20,4530.37144461,N,00909.99440503,E,2,4,2.8,129.716,M,48.022,M,1.2,0000*7
1223134368.738421, $GPGST,135547.20,0.000,0.782,0.320,276.4,0.777,0.330,0.782*5
1223134368.928609, $GPGGA,135547.40,4530.37140569,N,00909.99428920,E,2,4,2.8,129.713,M,48.022,M,0.4,0000*7
1223134368.938430, $GPGST,135547.40,0.000,0.782,0.320,276.4,0.777,0.330,0.782*5
1223134369.128273, $GPGGA,135547.60,4530.37138294,N,00909.99416543,E,2,4,2.8,129.712,M,48.022,M,0.6,0000*7
1223134369.138273, $GPGST,135547.60,0.000,0.782,0.320,276.4,0.777,0.330,0.782*5
1223134369.328472, $GPGGA,135547.80,4530.37133570,N,00909.99404734,E,2,4,2.8,129.708,M,48.022,M,0.8,0000*7
1223134369.338285, $GPGST,135547.80,0.000,0.782,0.320,276.4,0.777,0.330,0.782*5
1223134369.533159, $GPGGA,135548.00,4530.37130853,N,00909.99392311,E,2,4,2.8,129.717,M,48.022,M,1.0,0000*7
1223134369.548306, $GPGST,135548.00,0.000,0.783,0.320,276.4,0.778,0.330,0.782*5
1223134369.729088, $GPGGA,135548.20,4530.37125576,N,00909.99379250,E,2,4,2.8,129.714,M,48.022,M,1.2,0000*7
1223134369.738048, $GPGST,135548.20,0.000,0.783,0.320,276.4,0.778,0.330,0.782*5
1223134369.929040, $GPGGA,135548.40,4530.37123730,N,00909.99367634,E,2,4,2.8,129.716,M,48.022,M,0.4,0000*7
1223134369.938979, $GPGST,135548.40,0.000,0.783,0.320,276.4,0.778,0.330,0.782*5
1223134370.128968, $GPGGA,135548.60,4530.37119635,N,00909.99356089,E,2,4,2.8,129.711,M,48.022,M,0.6,0000*7
1223134370.138906, $GPGST,135548.60,0.000,0.783,0.320,276.4,0.778,0.330,0.782*5
1223134370.328868, $GPGGA,135548.80,4530.37117306,N,00909.99343866,E,2,4,2.8,129.715,M,48.022,M,0.8,0000*7
1223134370.338836, $GPGST,135548.80,0.000,0.783,0.320,276.4,0.778,0.330,0.782*5
1223134370.532802, $GPGGA,135549.00,4530.37115604,N,00909.99330318,E,2,4,2.8,129.713,M,48.022,M,1.0,0000*7
1223134370.542799, $GPGST,135549.00,0.000,0.781,0.320,276.4,0.777,0.329,0.782*5
1223134370.728716, $GPGGA,135549.20,4530.37110449,N,00909.99318237,E,2,4,2.8,129.709,M,48.022,M,1.2,0000*7
1223134370.738704, $GPGST,135549.20,0.000,0.781,0.320,276.4,0.777,0.329,0.782*5
1223134370.928662, $GPGGA,135549.40,4530.37108347,N,00909.99306482,E,2,4,2.8,129.707,M,48.022,M,0.4,0000*7
1223134370.938656, $GPGST,135549.40,0.000,0.781,0.320,276.4,0.777,0.329,0.782*5
1223134371.128633, $GPGGA,135549.60,4530.37105037,N,00909.99294926,E,2,4,2.8,129.710,M,48.022,M,0.6,0000*7
1223134371.138870, $GPGST,135549.60,0.000,0.781,0.320,276.4,0.777,0.329,0.782*5
1223134371.329547, $GPGGA,135549.80,4530.37102112,N,00909.99281973,E,2,4,2.8,129.706,M,48.022,M,0.8,0000*7
1223134371.338529, $GPGST,135549.80,0.000,0.781,0.320,276.4,0.777,0.329,0.782*5
1223134371.533450, $GPGGA,135550.00,4530.37100211,N,00909.99269018,E,2,4,2.8,129.711,M,48.022,M,1.0,0000*7
1223134371.547978, $GPGST,135550.00,0.000,0.782,0.320,276.4,0.778,0.329,0.782*5
1223134371.729415, $GPGGA,135550.20,4530.37097236,N,00909.99256837,E,2,4,2.8,129.710,M,48.022,M,1.2,0000*7
1223134371.739381, $GPGST,135550.20,0.000,0.782,0.320,276.4,0.778,0.329,0.782*5
1223134371.929292, $GPGGA,135550.40,4530.37095176,N,00909.99243728,E,2,4,2.8,129.714,M,48.022,M,1.4,0000*7
1223134371.939309, $GPGST,135550.40,0.000,0.782,0.320,276.4,0.778,0.329,0.782*5
1223134372.129236, $GPGGA,135550.60,4530.37090059,N,00909.99234057,E,2,4,2.8,129.706,M,48.022,M,1.6,0000*7
1223134372.139235, $GPGST,135550.60,0.000,0.782,0.320,276.4,0.778,0.329,0.782*5
1223134372.329163, $GPGGA,135550.80,4530.37089443,N,00909.99220369,E,2,4,2.8,129.712,M,48.022,M,1.8,0000*7
1223134372.339162, $GPGST,135550.80,0.000,0.782,0.320,276.4,0.778,0.329,0.782*5
1223134372.534119, $GPGGA,135551.00,4530.37083797,N,00909.99208003,E,2,4,2.8,129.695,M,48.022,M,2.0,0000*7
1223134372.543097, $GPGST,135551.00,0.000,0.783,0.320,276.4,0.779,0.330,0.782*5
1223134372.729100, $GPGGA,135551.20,4530.37083326,N,00909.99197102,E,2,4,2.8,129.702,M,48.022,M,2.2,0000*7
1223134372.739037, $GPGST,135551.20,0.000,0.783,0.320,276.4,0.779,0.330,0.782*5
1223134372.930003, $GPGGA,135551.40,4530.37079101,N,00909.99184848,E,2,4,2.8,129.700,M,48.022,M,0.4,0000*7
1223134372.938964, $GPGST,135551.40,0.000,0.783,0.320,276.4,0.779,0.330,0.782*5
1223134373.129887, $GPGGA,135551.60,4530.37075710,N,00909.99172277,E,2,4,2.8,129.699,M,48.022,M,0.6,0000*7
1223134373.138899, $GPGST,135551.60,0.000,0.783,0.320,276.4,0.779,0.330,0.782*5
1223134373.329854, $GPGGA,135551.80,4530.37072765,N,00909.99159183,E,2,4,2.8,129.701,M,48.022,M,0.8,0000*7
1223134373.339828, $GPGST,135551.80,0.000,0.783,0.320,276.4,0.779,0.330,0.782*5
1223134373.533798, $GPGGA,135552.00,4530.37068334,N,00909.99148438,E,2,4,2.8,129.712,M,48.022,M,1.0,0000*7
1223134373.548172, $GPGST,135552.00,0.000,0.782,0.320,276.4,0.778,0.329,0.782*5
1223134373.729703, $GPGGA,135552.20,4530.37064582,N,00909.99138131,E,2,4,2.8,129.707,M,48.022,M,1.2,0000*7
1223134373.739681, $GPGST,135552.20,0.000,0.782,0.320,276.4,0.778,0.329,0.782*5
1223134373.929637, $GPGGA,135552.40,4530.37061482,N,00909.99125124,E,2,4,2.8,129.708,M,48.022,M,0.4,0000*7
1223134373.939657, $GPGST,135552.40,0.000,0.782,0.320,276.4,0.778,0.329,0.782*5
1223134374.129560, $GPGGA,135552.60,4530.37059082,N,00909.99113632,E,2,4,2.8,129.709,M,48.022,M,0.6,0000*7
1223134374.139525, $GPGST,135552.60,0.000,0.782,0.320,276.4,0.778,0.329,0.782*5
1223134374.329658, $GPGGA,135552.80,4530.37054477,N,00909.99101276,E,2,4,2.8,129.708,M,48.022,M,0.8,0000*7
1223134374.339538, $GPGST,135552.80,0.000,0.782,0.320,276.4,0.778,0.329,0.782*5
1223134374.533660, $GPGGA,135553.00,4530.37052507,N,00909.99089325,E,2,4,2.8,129.716,M,48.022,M,1.0,0000*7
1223134374.549045, $GPGST,135553.00,0.000,0.780,0.320,276.3,0.776,0.329,0.782*5
1223134374.729391, $GPGGA,135553.20,4530.37049743,N,00909.99077325,E,2,4,2.8,129.717,M,48.022,M,1.2,0000*7
1223134374.739321, $GPGST,135553.20,0.000,0.780,0.320,276.3,0.776,0.329,0.782*5
1223134374.930270, $GPGGA,135553.40,4530.37046319,N,00909.99065759,E,2,4,2.8,129.716,M,48.022,M,0.4,0000*7
1223134374.939248, $GPGST,135553.40,0.000,0.780,0.320,276.3,0.776,0.329,0.782*5
1223134375.130216, $GPGGA,135553.60,4530.37043324,N,00909.99053959,E,2,4,2.8,129.714,M,48.022,M,0.6,0000*7
1223134375.139176, $GPGST,135553.60,0.000,0.780,0.320,276.3,0.776,0.329,0.782*5
1223134375.330097, $GPGGA,135553.80,4530.37041353,N,00909.99041676,E,2,4,2.8,129.715,M,48.022,M,0.8,0000*7
1223134375.340108, $GPGST,135553.80,0.000,0.780,0.320,276.3,0.776,0.329,0.782*5
1223134375.535066, $GPGGA,135554.00,4530.37039044,N,00909.99027401,E,2,5,2.4,129.527,M,48.022,M,1.0,0000*7
1223134375.548775, $GPGST,135554.00,0.135,0.114,0.055,272.7,0.114,0.056,0.150*5
1223134375.729994, $GPGGA,135554.20,4530.37035253,N,00909.99016900,E,2,5,2.4,129.520,M,48.022,M,1.2,0000*7
1223134375.739961, $GPGST,135554.20,0.135,0.114,0.055,272.7,0.114,0.056,0.150*5
1223134375.930157, $GPGGA,135554.40,4530.37033458,N,00909.99004129,E,2,5,2.4,129.544,M,48.022,M,0.4,0000*7
1223134375.939916, $GPGST,135554.40,0.135,0.114,0.055,272.7,0.114,0.056,0.150*5
1223134376.129927, $GPGGA,135554.60,4530.37031358,N,00909.98992299,E,2,5,2.4,129.558,M,48.022,M,0.6,0000*7
1223134376.140047, $GPGST,135554.60,0.135,0.114,0.055,272.7,0.114,0.056,0.150*5
1223134376.330826, $GPGGA,135554.80,4530.37029038,N,00909.98979205,E,2,5,2.4,129.521,M,48.022,M,0.8,0000*7
1223134376.340197, $GPGST,135554.80,0.135,0.114,0.055,272.7,0.114,0.056,0.150*5
1223134376.534820, $GPGGA,135555.00,4530.37025411,N,00909.98964960,E,2,5,2.4,129.580,M,48.022,M,1.0,0000*7
1223134376.549253, $GPGST,135555.00,0.143,0.113,0.055,272.7,0.113,0.056,0.147*5
1223134376.730681, $GPGGA,135555.20,4530.37025043,N,00909.98952046,E,2,5,2.4,129.604,M,48.022,M,1.2,0000*7
1223134376.740657, $GPGST,135555.20,0.143,0.113,0.055,272.7,0.113,0.056,0.147*5
1223134376.930610, $GPGGA,135555.40,4530.37020411,N,00909.98939414,E,2,5,2.4,129.580,M,48.022,M,0.4,0000*7
1223134376.940652, $GPGST,135555.40,0.143,0.113,0.055,272.7,0.113,0.056,0.147*5
1223134377.130538, $GPGGA,135555.60,4530.37017053,N,00909.98925490,E,2,5,2.4,129.571,M,48.022,M,0.6,0000*7
1223134377.140500, $GPGST,135555.60,0.143,0.113,0.055,272.7,0.113,0.056,0.147*5
1223134377.330692, $GPGGA,135555.80,4530.37015848,N,00909.98915764,E,2,5,2.4,129.598,M,48.022,M,0.8,0000*7
1223134377.340439, $GPGST,135555.80,0.143,0.113,0.055,272.7,0.113,0.056,0.147*5
1223134377.535369, $GPGGA,135556.00,4530.37016109,N,00909.98902529,E,2,5,2.4,129.517,M,48.022,M,1.0,0000*7
1223134377.548424, $GPGST,135556.00,0.120,0.113,0.055,272.7,0.113,0.056,0.144*5
1223134377.730332, $GPGGA,135556.20,4530.37014068,N,00909.98891000,E,2,5,2.4,129.547,M,48.022,M,1.2,0000*7
1223134377.740270, $GPGST,135556.20,0.120,0.113,0.055,272.7,0.113,0.056,0.144*5
1223134377.931235, $GPGGA,135556.40,4530.37011090,N,00909.98877718,E,2,5,2.4,129.513,M,48.022,M,0.4,0000*7
1223134377.940197, $GPGST,135556.40,0.120,0.113,0.055,272.7,0.113,0.056,0.144*5
1223134378.131163, $GPGGA,135556.60,4530.37009430,N,00909.98863547,E,2,5,2.4,129.520,M,48.022,M,0.6,0000*7
1223134378.140122, $GPGST,135556.60,0.120,0.113,0.055,272.7,0.113,0.056,0.144*5
1223134378.331088, $GPGGA,135556.80,4530.37007118,N,00909.98852293,E,2,5,2.4,129.534,M,48.022,M,0.8,0000*7
1223134378.340135, $GPGST,135556.80,0.120,0.113,0.055,272.7,0.113,0.056,0.144*5
1223134378.535019, $GPGGA,135557.00,4530.37004061,N,00909.98840032,E,2,5,2.4,129.399,M,48.022,M,1.0,0000*7
1223134378.548097, $GPGST,135557.00,0.116,0.113,0.055,272.6,0.113,0.056,0.142*5
1223134378.730967, $GPGGA,135557.20,4530.37001550,N,00909.98829150,E,2,5,2.4,129.391,M,48.022,M,1.2,0000*7
1223134378.741223, $GPGST,135557.20,0.116,0.113,0.055,272.6,0.113,0.056,0.142*5
1223134378.930880, $GPGGA,135557.40,4530.36999437,N,00909.98815390,E,2,5,2.4,129.402,M,48.022,M,0.4,0000*7
1223134378.940895, $GPGST,135557.40,0.116,0.113,0.055,272.6,0.113,0.056,0.142*5
1223134379.130771, $GPGGA,135557.60,4530.36995018,N,00909.98801849,E,2,5,2.4,129.386,M,48.022,M,0.6,0000*7
1223134379.140767, $GPGST,135557.60,0.116,0.113,0.055,272.6,0.113,0.056,0.142*5
1223134379.330775, $GPGGA,135557.80,4530.36994102,N,00909.98791363,E,2,5,2.4,129.384,M,48.022,M,0.8,0000*7
1223134379.340746, $GPGST,135557.80,0.116,0.113,0.055,272.6,0.113,0.056,0.142*5
1223134379.535698, $GPGGA,135558.00,4530.36992579,N,00909.98779242,E,2,5,2.4,129.280,M,48.022,M,1.0,0000*7
1223134379.548427, $GPGST,135558.00,0.135,0.113,0.055,272.6,0.113,0.056,0.141*5
1223134379.732076, $GPGGA,135558.20,4530.36992471,N,00909.98765870,E,2,5,2.4,129.290,M,48.022,M,1.2,0000*7
1223134379.740621, $GPGST,135558.20,0.135,0.113,0.055,272.6,0.113,0.056,0.141*5
1223134379.931534, $GPGGA,135558.40,4530.36988100,N,00909.98752841,E,2,5,2.4,129.297,M,48.022,M,0.4,0000*7
1223134379.940545, $GPGST,135558.40,0.135,0.113,0.055,272.6,0.113,0.056,0.141*5
1223134380.131437, $GPGGA,135558.60,4530.36985365,N,00909.98740589,E,2,5,2.4,129.284,M,48.022,M,0.6,0000*7
1223134380.141450, $GPGST,135558.60,0.135,0.113,0.055,272.6,0.113,0.056,0.141*5
1223134380.331369, $GPGGA,135558.80,4530.36983548,N,00909.98728557,E,2,5,2.4,129.271,M,48.022,M,0.8,0000*7
1223134380.341416, $GPGST,135558.80,0.135,0.113,0.055,272.6,0.113,0.056,0.141*5
1223134380.536341, $GPGGA,135559.00,4530.36980964,N,00909.98715266,E,2,5,2.4,129.341,M,48.022,M,1.0,0000*7
1223134380.547556, $GPGST,135559.00,0.113,0.113,0.055,272.6,0.112,0.056,0.140*5
1223134380.731245, $GPGGA,135559.20,4530.36977834,N,00909.98703705,E,2,5,2.4,129.370,M,48.022,M,1.2,0000*7
1223134380.741248, $GPGST,135559.20,0.113,0.113,0.055,272.6,0.112,0.056,0.140*5
1223134380.934173, $GPGGA,135559.40,4530.36986569,N,00909.98685628,E,2,4,3.1,129.466,M,48.022,M,0.4,0000*7
1223134380.947206, $GPGST,135559.40,0.000,0.952,0.385,83.7,0.947,0.397,0.900*6
1223134381.131091, $GPGGA,135559.60,4530.36982217,N,00909.98673321,E,2,4,3.1,129.446,M,48.022,M,0.6,0000*7
1223134381.141104, $GPGST,135559.60,0.000,0.952,0.385,83.7,0.947,0.397,0.900*6
1223134381.332475, $GPGGA,135559.80,4530.36981405,N,00909.98660390,E,2,4,3.1,129.451,M,48.022,M,0.8,0000*7
1223134381.341071, $GPGST,135559.80,0.000,0.952,0.385,83.7,0.947,0.397,0.900*6
1223134381.534967, $GPGGA,135600.00,4530.36978555,N,00909.98649201,E,2,4,3.1,129.460,M,48.022,M,1.0,0000*7
1223134381.547252, $GPGST,135600.00,0.000,0.952,0.385,83.7,0.948,0.397,0.901*6
1223134381.732050, $GPGGA,135600.20,4530.36976331,N,00909.98635312,E,2,4,3.1,129.468,M,48.022,M,1.2,0000*7
1223134381.741061, $GPGST,135600.20,0.000,0.952,0.385,83.7,0.948,0.397,0.901*6
1223134381.932235, $GPGGA,135600.40,4530.36972405,N,00909.98623003,E,2,4,3.1,129.448,M,48.022,M,0.4,0000*7
1223134381.940830, $GPGST,135600.40,0.000,0.952,0.385,83.7,0.948,0.397,0.901*6
1223134382.131783, $GPGGA,135600.60,4530.36970718,N,00909.98610492,E,2,4,3.1,129.441,M,48.022,M,0.6,0000*7
1223134382.141062, $GPGST,135600.60,0.000,0.952,0.385,83.7,0.948,0.397,0.901*6
1223134382.331757, $GPGGA,135600.80,4530.36967540,N,00909.98600465,E,2,4,3.1,129.447,M,48.022,M,0.8,0000*7
1223134382.346735, $GPGST,135600.80,0.000,0.952,0.385,83.7,0.948,0.397,0.901*6
1223134382.535615, $GPGGA,135601.00,4530.36963770,N,00909.98586483,E,2,4,3.1,129.527,M,48.022,M,1.0,0000*7
1223134382.546656, $GPGST,135601.00,0.000,0.954,0.385,83.6,0.949,0.397,0.896*6
1223134382.731547, $GPGGA,135601.20,4530.36960406,N,00909.98573731,E,2,4,3.1,129.511,M,48.022,M,1.2,0000*7
1223134382.746354, $GPGST,135601.20,0.000,0.954,0.385,83.6,0.949,0.397,0.896*6
1223134382.931505, $GPGGA,135601.40,4530.36957522,N,00909.98561670,E,2,4,3.1,129.536,M,48.022,M,1.4,0000*7
1223134382.946408, $GPGST,135601.40,0.000,0.954,0.385,83.6,0.949,0.397,0.896*6
1223134383.131415, $GPGGA,135601.60,4530.36957178,N,00909.98548836,E,2,4,3.1,129.536,M,48.022,M,1.6,0000*7
1223134383.146311, $GPGST,135601.60,0.000,0.954,0.385,83.6,0.949,0.397,0.896*6
1223134383.331392, $GPGGA,135601.80,4530.36951711,N,00909.98538516,E,2,4,3.1,129.534,M,48.022,M,1.8,0000*7
1223134383.341395, $GPGST,135601.80,0.000,0.954,0.385,83.6,0.949,0.397,0.896*6
1223134383.535265, $GPGGA,135602.00,4530.36949845,N,00909.98524282,E,2,4,3.1,129.551,M,48.022,M,2.0,0000*7
1223134383.546350, $GPGST,135602.00,0.000,0.955,0.385,83.6,0.950,0.397,0.898*6
1223134383.732212, $GPGGA,135602.20,4530.36947307,N,00909.98510727,E,2,4,3.1,129.543,M,48.022,M,2.2,0000*7
1223134383.741195, $GPGST,135602.20,0.000,0.955,0.385,83.6,0.950,0.397,0.898*6
1223134383.932138, $GPGGA,135602.40,4530.36944225,N,00909.98499200,E,2,4,3.1,129.536,M,48.022,M,0.4,0000*7
1223134383.941182, $GPGST,135602.40,0.000,0.955,0.385,83.6,0.950,0.397,0.898*6
1223134384.132057, $GPGGA,135602.60,4530.36941879,N,00909.98487104,E,2,4,3.1,129.538,M,48.022,M,0.6,0000*7
1223134384.146290, $GPGST,135602.60,0.000,0.955,0.385,83.6,0.950,0.397,0.898*6
1223134384.331982, $GPGGA,135602.80,4530.36939835,N,00909.98476373,E,2,4,3.1,129.551,M,48.022,M,0.8,0000*7
1223134384.346350, $GPGST,135602.80,0.000,0.955,0.385,83.6,0.950,0.397,0.898*6
1223134384.536963, $GPGGA,135603.00,4530.36936530,N,00909.98461449,E,2,4,3.1,129.686,M,48.022,M,1.0,0000*7
1223134384.548256, $GPGST,135603.00,0.000,0.952,0.384,83.6,0.947,0.396,0.905*6
1223134384.732201, $GPGGA,135603.20,4530.36933739,N,00909.98450323,E,2,4,3.1,129.709,M,48.022,M,1.2,0000*7
1223134384.746719, $GPGST,135603.20,0.000,0.952,0.384,83.6,0.947,0.396,0.905*6
1223134384.932826, $GPGGA,135603.40,4530.36931795,N,00909.98438287,E,2,4,3.1,129.700,M,48.022,M,0.4,0000*7
1223134384.946255, $GPGST,135603.40,0.000,0.952,0.384,83.6,0.947,0.396,0.905*6
1223134385.132760, $GPGGA,135603.60,4530.36929758,N,00909.98426585,E,2,4,3.1,129.738,M,48.022,M,0.6,0000*7
1223134385.146172, $GPGST,135603.60,0.000,0.952,0.384,83.6,0.947,0.396,0.905*6
1223134385.332635, $GPGGA,135603.80,4530.36926907,N,00909.98415035,E,2,4,3.1,129.726,M,48.022,M,0.8,0000*7
1223134385.346218, $GPGST,135603.80,0.000,0.952,0.384,83.6,0.947,0.396,0.905*6
1223134385.535540, $GPGGA,135604.00,4530.36924112,N,00909.98403003,E,2,4,3.1,129.747,M,48.022,M,1.0,0000*7
1223134385.546357, $GPGST,135604.00,0.000,0.953,0.384,83.6,0.948,0.397,0.901*6
1223134385.732510, $GPGGA,135604.20,4530.36921404,N,00909.98390114,E,2,4,3.1,129.748,M,48.022,M,1.2,0000*7
1223134385.746343, $GPGST,135604.20,0.000,0.953,0.384,83.6,0.948,0.397,0.901*6
1223134385.932438, $GPGGA,135604.40,4530.36918137,N,00909.98377503,E,2,4,3.1,129.709,M,48.022,M,0.4,0000*7
1223134385.946356, $GPGST,135604.40,0.000,0.953,0.384,83.6,0.948,0.397,0.901*6
1223134386.132362, $GPGGA,135604.60,4530.36915260,N,00909.98364123,E,2,4,3.1,129.731,M,48.022,M,0.6,0000*7
1223134386.146396, $GPGST,135604.60,0.000,0.953,0.384,83.6,0.948,0.397,0.901*6
1223134386.332301, $GPGGA,135604.80,4530.36913804,N,00909.98352389,E,2,4,3.1,129.740,M,48.022,M,0.8,0000*7
1223134386.346399, $GPGST,135604.80,0.000,0.953,0.384,83.6,0.948,0.397,0.901*6
1223134386.536240, $GPGGA,135605.00,4530.36909141,N,00909.98338336,E,2,4,3.1,129.810,M,48.022,M,1.0,0000*7
1223134386.546491, $GPGST,135605.00,0.000,0.955,0.385,83.6,0.950,0.397,0.897*6
1223134386.733163, $GPGGA,135605.20,4530.36907964,N,00909.98326147,E,2,4,3.1,129.821,M,48.022,M,1.2,0000*7
1223134386.746422, $GPGST,135605.20,0.000,0.955,0.385,83.6,0.950,0.397,0.897*6
1223134386.933114, $GPGGA,135605.40,4530.36905224,N,00909.98312839,E,2,4,3.1,129.790,M,48.022,M,0.4,0000*7
1223134386.946456, $GPGST,135605.40,0.000,0.955,0.385,83.6,0.950,0.397,0.897*6
1223134387.133040, $GPGGA,135605.60,4530.36901803,N,00909.98300594,E,2,4,3.1,129.792,M,48.022,M,0.6,0000*7
1223134387.146510, $GPGST,135605.60,0.000,0.955,0.385,83.6,0.950,0.397,0.897*6
1223134387.332959, $GPGGA,135605.80,4530.36900310,N,00909.98287452,E,2,4,3.1,129.786,M,48.022,M,0.8,0000*7
1223134387.346467, $GPGST,135605.80,0.000,0.955,0.385,83.6,0.950,0.397,0.897*6
1223134387.536117, $GPGGA,135606.00,4530.36897790,N,00909.98274565,E,2,4,3.1,129.800,M,48.022,M,1.0,0000*7
1223134387.547375, $GPGST,135606.00,0.000,0.956,0.385,83.5,0.951,0.397,0.894*6
1223134387.732865, $GPGGA,135606.20,4530.36896666,N,00909.98261866,E,2,4,3.1,129.798,M,48.022,M,1.2,0000*7
1223134387.746926, $GPGST,135606.20,0.000,0.956,0.385,83.5,0.951,0.397,0.894*6
1223134387.932806, $GPGGA,135606.40,4530.36895058,N,00909.98250030,E,2,4,3.1,129.805,M,48.022,M,0.4,0000*7
1223134387.946515, $GPGST,135606.40,0.000,0.956,0.385,83.5,0.951,0.397,0.894*6
1223134388.133150, $GPGGA,135606.60,4530.36895164,N,00909.98237033,E,2,4,3.1,129.836,M,48.022,M,0.6,0000*7
1223134388.146607, $GPGST,135606.60,0.000,0.956,0.385,83.5,0.951,0.397,0.894*6
1223134388.333114, $GPGGA,135606.80,4530.36893293,N,00909.98223774,E,2,4,3.1,129.817,M,48.022,M,0.8,0000*7
1223134388.346623, $GPGST,135606.80,0.000,0.956,0.385,83.5,0.951,0.397,0.894*6
1223134388.536553, $GPGGA,135607.00,4530.36890860,N,00909.98212022,E,2,4,3.1,129.862,M,48.022,M,1.0,0000*7
1223134388.546731, $GPGST,135607.00,0.000,0.957,0.385,83.5,0.952,0.398,0.891*6
1223134388.733495, $GPGGA,135607.20,4530.36892577,N,00909.98199013,E,2,4,3.1,129.882,M,48.022,M,1.2,0000*7
1223134388.746587, $GPGST,135607.20,0.000,0.957,0.385,83.5,0.952,0.398,0.891*6
1223134388.933427, $GPGGA,135607.40,4530.36890153,N,00909.98186848,E,2,4,3.1,129.862,M,48.022,M,0.4,0000*7
1223134388.946634, $GPGST,135607.40,0.000,0.957,0.385,83.5,0.952,0.398,0.891*6
1223134389.133322, $GPGGA,135607.60,4530.36889156,N,00909.98173977,E,2,4,3.1,129.871,M,48.022,M,0.6,0000*7
1223134389.146568, $GPGST,135607.60,0.000,0.957,0.385,83.5,0.952,0.398,0.891*6
1223134389.333249, $GPGGA,135607.80,4530.36888827,N,00909.98161560,E,2,4,3.1,129.890,M,48.022,M,0.8,0000*7
1223134389.346599, $GPGST,135607.80,0.000,0.957,0.385,83.5,0.952,0.398,0.891*6
1223134389.537213, $GPGGA,135608.00,4530.36885627,N,00909.98148178,E,2,4,3.1,129.848,M,48.022,M,1.0,0000*7
1223134389.547420, $GPGST,135608.00,0.000,0.958,0.386,83.5,0.952,0.398,0.888*6
1223134389.733131, $GPGGA,135608.20,4530.36884881,N,00909.98134715,E,2,4,3.1,129.829,M,48.022,M,1.2,0000*7
1223134389.747280, $GPGST,135608.20,0.000,0.958,0.386,83.5,0.952,0.398,0.888*6
1223134389.933059, $GPGGA,135608.40,4530.36884369,N,00909.98121749,E,2,4,3.1,129.853,M,48.022,M,0.4,0000*7
1223134389.948796, $GPGST,135608.40,0.000,0.958,0.386,83.5,0.952,0.398,0.888*6
1223134390.133985, $GPGGA,135608.60,4530.36881877,N,00909.98108234,E,2,4,3.1,129.831,M,48.022,M,0.6,0000*7
1223134390.146699, $GPGST,135608.60,0.000,0.958,0.386,83.5,0.952,0.398,0.888*6
1223134390.333914, $GPGGA,135608.80,4530.36882580,N,00909.98095733,E,2,4,3.1,129.859,M,48.022,M,0.8,0000*7
1223134390.346772, $GPGST,135608.80,0.000,0.958,0.386,83.5,0.952,0.398,0.888*6
1223134390.536818, $GPGGA,135609.00,4530.36882183,N,00909.98083566,E,2,4,3.1,129.797,M,48.022,M,1.0,0000*7
1223134390.546902, $GPGST,135609.00,0.000,0.959,0.386,83.5,0.953,0.398,0.886*6
1223134390.733773, $GPGGA,135609.20,4530.36882651,N,00909.98070651,E,2,4,3.1,129.809,M,48.022,M,1.2,0000*7
1223134390.746838, $GPGST,135609.20,0.000,0.959,0.386,83.5,0.953,0.398,0.886*6
1223134390.933700, $GPGGA,135609.40,4530.36881867,N,00909.98058051,E,2,4,3.1,129.816,M,48.022,M,0.4,0000*7
1223134390.946891, $GPGST,135609.40,0.000,0.959,0.386,83.5,0.953,0.398,0.886*6
1223134391.133633, $GPGGA,135609.60,4530.36881426,N,00909.98044112,E,2,4,3.1,129.796,M,48.022,M,0.6,0000*7
1223134391.146910, $GPGST,135609.60,0.000,0.959,0.386,83.5,0.953,0.398,0.886*6
1223134391.333559, $GPGGA,135609.80,4530.36882256,N,00909.98030316,E,2,4,3.1,129.786,M,48.022,M,0.8,0000*7
1223134391.346945, $GPGST,135609.80,0.000,0.959,0.386,83.5,0.953,0.398,0.886*6
1223134391.537491, $GPGGA,135610.00,4530.36883713,N,00909.98018661,E,2,4,3.1,129.740,M,48.022,M,1.0,0000*7
1223134391.547014, $GPGST,135610.00,0.000,0.959,0.387,83.5,0.954,0.399,0.884*6
1223134391.733405, $GPGGA,135610.20,4530.36883932,N,00909.98006659,E,2,4,3.1,129.761,M,48.022,M,1.2,0000*7
1223134391.746980, $GPGST,135610.20,0.000,0.959,0.387,83.5,0.954,0.399,0.884*6
1223134391.934370, $GPGGA,135610.40,4530.36883309,N,00909.97992613,E,2,4,3.1,129.730,M,48.022,M,0.4,0000*7
1223134391.947754, $GPGST,135610.40,0.000,0.959,0.387,83.5,0.954,0.399,0.884*6
1223134392.134281, $GPGGA,135610.60,4530.36884246,N,00909.97979071,E,2,4,3.1,129.750,M,48.022,M,0.6,0000*7
1223134392.147043, $GPGST,135610.60,0.000,0.959,0.387,83.5,0.954,0.399,0.884*6
1223134392.334209, $GPGGA,135610.80,4530.36886040,N,00909.97966857,E,2,4,3.1,129.742,M,48.022,M,0.8,0000*7
1223134392.347055, $GPGST,135610.80,0.000,0.959,0.387,83.5,0.954,0.399,0.884*6
1223134392.537136, $GPGGA,135611.00,4530.36885126,N,00909.97953752,E,2,4,3.1,129.756,M,48.022,M,1.0,0000*7
1223134392.547186, $GPGST,135611.00,0.000,0.960,0.386,83.4,0.955,0.399,0.882*6
1223134392.734061, $GPGGA,135611.20,4530.36887615,N,00909.97941690,E,2,4,3.1,129.794,M,48.022,M,1.2,0000*7
1223134392.747181, $GPGST,135611.20,0.000,0.960,0.386,83.4,0.955,0.399,0.882*6
1223134392.933998, $GPGGA,135611.40,4530.36887308,N,00909.97929044,E,2,4,3.1,129.759,M,48.022,M,0.4,0000*7
1223134392.947132, $GPGST,135611.40,0.000,0.960,0.386,83.4,0.955,0.399,0.882*6
1223134393.133932, $GPGGA,135611.60,4530.36887681,N,00909.97915892,E,2,4,3.1,129.779,M,48.022,M,0.6,0000*7
1223134393.147201, $GPGST,135611.60,0.000,0.960,0.386,83.4,0.955,0.399,0.882*6
1223134393.334283, $GPGGA,135611.80,4530.36889841,N,00909.97904572,E,2,4,3.1,129.793,M,48.022,M,0.8,0000*7
1223134393.347959, $GPGST,135611.80,0.000,0.960,0.386,83.4,0.955,0.399,0.882*6
1223134393.537778, $GPGGA,135612.00,4530.36887989,N,00909.97892483,E,2,4,3.1,129.783,M,48.022,M,1.0,0000*7
1223134393.547279, $GPGST,135612.00,0.000,0.961,0.386,83.4,0.955,0.399,0.880*6
1223134393.734746, $GPGGA,135612.20,4530.36888952,N,00909.97880130,E,2,4,3.1,129.787,M,48.022,M,1.2,0000*7
1223134393.747231, $GPGST,135612.20,0.000,0.961,0.386,83.4,0.955,0.399,0.880*6
1223134393.934648, $GPGGA,135612.40,4530.36891115,N,00909.97866459,E,2,4,3.1,129.793,M,48.022,M,0.4,0000*7
1223134393.947234, $GPGST,135612.40,0.000,0.961,0.386,83.4,0.955,0.399,0.880*6
1223134394.134580, $GPGGA,135612.60,4530.36890581,N,00909.97854080,E,2,4,3.1,129.784,M,48.022,M,0.6,0000*7
1223134394.148185, $GPGST,135612.60,0.000,0.961,0.386,83.4,0.955,0.399,0.880*6
1223134394.334545, $GPGGA,135612.80,4530.36893777,N,00909.97841162,E,2,4,3.1,129.781,M,48.022,M,0.8,0000*7
1223134394.347860, $GPGST,135612.80,0.000,0.961,0.386,83.4,0.955,0.399,0.880*6
1223134394.538519, $GPGGA,135613.00,4530.36896637,N,00909.97827339,E,2,4,3.1,129.779,M,48.022,M,1.0,0000*7
1223134394.548020, $GPGST,135613.00,0.000,0.961,0.386,83.4,0.956,0.399,0.878*6
1223134394.734409, $GPGGA,135613.20,4530.36897242,N,00909.97815689,E,2,4,3.1,129.739,M,48.022,M,1.2,0000*7
1223134394.747931, $GPGST,135613.20,0.000,0.961,0.386,83.4,0.956,0.399,0.878*6
1223134394.934273, $GPGGA,135613.40,4530.36900404,N,00909.97804089,E,2,4,3.1,129.782,M,48.022,M,0.4,0000*7
1223134394.947802, $GPGST,135613.40,0.000,0.961,0.386,83.4,0.956,0.399,0.878*6
1223134395.134312, $GPGGA,135613.60,4530.36902854,N,00909.97792237,E,2,4,3.1,129.775,M,48.022,M,0.6,0000*7
1223134395.147425, $GPGST,135613.60,0.000,0.961,0.386,83.4,0.956,0.399,0.878*6
1223134395.335160, $GPGGA,135613.80,4530.36906548,N,00909.97779803,E,2,4,3.1,129.787,M,48.022,M,0.8,0000*7
1223134395.347491, $GPGST,135613.80,0.000,0.961,0.386,83.4,0.956,0.399,0.878*6
1223134395.538062, $GPGGA,135614.00,4530.36911008,N,00909.97769910,E,2,4,3.1,129.755,M,48.022,M,1.0,0000*7
1223134395.547561, $GPGST,135614.00,0.000,0.962,0.387,83.4,0.956,0.400,0.877*6
1223134395.735032, $GPGGA,135614.20,4530.36917167,N,00909.97758782,E,2,4,3.1,129.773,M,48.022,M,1.2,0000*7
1223134395.747522, $GPGST,135614.20,0.000,0.962,0.387,83.4,0.956,0.400,0.877*6
1223134395.934958, $GPGGA,135614.40,4530.36919890,N,00909.97746440,E,2,4,3.1,129.756,M,48.022,M,1.4,0000*7
1223134395.947629, $GPGST,135614.40,0.000,0.962,0.387,83.4,0.956,0.400,0.877*6
1223134396.134887, $GPGGA,135614.60,4530.36924735,N,00909.97735899,E,2,4,3.1,129.820,M,48.022,M,1.6,0000*7
1223134396.147597, $GPGST,135614.60,0.000,0.962,0.387,83.4,0.956,0.400,0.877*6
1223134396.334789, $GPGGA,135614.80,4530.36927763,N,00909.97725440,E,2,4,3.1,129.802,M,48.022,M,1.8,0000*7
1223134396.347612, $GPGST,135614.80,0.000,0.962,0.387,83.4,0.956,0.400,0.877*6
1223134396.537718, $GPGGA,135615.00,4530.36933836,N,00909.97713936,E,2,3,3.3,129.831,M,48.022,M,2.0,0000*7
1223134396.547715, $GPGST,135615.00,0.000,0.930,0.379,87.5,0.929,0.380,0.843*6
1223134396.734679, $GPGGA,135615.20,4530.36938248,N,00909.97703971,E,2,3,3.3,129.831,M,48.022,M,2.2,0000*7
1223134396.747712, $GPGST,135615.20,0.000,0.930,0.379,87.5,0.929,0.380,0.843*6
1223134396.934609, $GPGGA,135615.40,4530.36942429,N,00909.97693925,E,2,3,3.3,129.831,M,48.022,M,2.4,0000*7
1223134396.947749, $GPGST,135615.40,0.000,0.930,0.379,87.5,0.929,0.380,0.843*6
1223134397.134539, $GPGGA,135615.60,4530.36948839,N,00909.97685219,E,2,3,3.3,129.832,M,48.022,M,2.6,0000*7
1223134397.148132, $GPGST,135615.60,0.000,0.930,0.379,87.5,0.929,0.380,0.843*6
1223134397.334612, $GPGGA,135615.80,4530.36954873,N,00909.97674949,E,2,3,3.3,129.832,M,48.022,M,2.8,0000*7
1223134397.348464, $GPGST,135615.80,0.000,0.930,0.379,87.5,0.929,0.380,0.843*6
1223134397.538403, $GPGGA,135616.00,4530.36960218,N,00909.97665482,E,2,3,3.3,129.816,M,48.022,M,3.0,0000*7
1223134397.547977, $GPGST,135616.00,0.000,0.932,0.379,87.5,0.931,0.381,0.842*6
1223134397.735362, $GPGGA,135616.20,4530.36966609,N,00909.97656697,E,2,3,3.3,129.817,M,48.022,M,3.2,0000*7
1223134397.747908, $GPGST,135616.20,0.000,0.932,0.379,87.5,0.931,0.381,0.842*6
1223134397.935254, $GPGGA,135616.40,4530.36972460,N,00909.97648322,E,2,3,3.3,129.817,M,48.022,M,0.4,0000*7
1223134397.947953, $GPGST,135616.40,0.000,0.932,0.379,87.5,0.931,0.381,0.842*6
1223134398.135172, $GPGGA,135616.60,4530.36979238,N,00909.97640160,E,2,3,3.3,129.817,M,48.022,M,0.6,0000*7
1223134398.147928, $GPGST,135616.60,0.000,0.932,0.379,87.5,0.931,0.381,0.842*6
1223134398.335132, $GPGGA,135616.80,4530.36987915,N,00909.97632472,E,2,3,3.3,129.818,M,48.022,M,0.8,0000*7
1223134398.348987, $GPGST,135616.80,0.000,0.932,0.379,87.5,0.931,0.381,0.842*6
1223134398.538030, $GPGGA,135617.00,4530.36994982,N,00909.97625464,E,2,3,3.3,129.816,M,48.022,M,1.0,0000*7
1223134398.548133, $GPGST,135617.00,0.000,0.929,0.378,87.5,0.929,0.380,0.843*6
1223134398.735035, $GPGGA,135617.20,4530.37000993,N,00909.97618249,E,2,3,3.3,129.817,M,48.022,M,1.2,0000*7
1223134398.748052, $GPGST,135617.20,0.000,0.929,0.378,87.5,0.929,0.380,0.843*6
1223134398.934909, $GPGGA,135617.40,4530.37009937,N,00909.97611998,E,2,3,3.3,129.817,M,48.022,M,0.4,0000*7
1223134398.948099, $GPGST,135617.40,0.000,0.929,0.378,87.5,0.929,0.380,0.843*6
1223134399.134837, $GPGGA,135617.60,4530.37019135,N,00909.97605798,E,2,3,3.3,129.818,M,48.022,M,0.6,0000*7
1223134399.148160, $GPGST,135617.60,0.000,0.929,0.378,87.5,0.929,0.380,0.843*6
1223134399.334881, $GPGGA,135617.80,4530.37027216,N,00909.97601161,E,2,3,3.3,129.818,M,48.022,M,0.8,0000*7
1223134399.348972, $GPGST,135617.80,0.000,0.929,0.378,87.5,0.929,0.380,0.843*6
1223134399.539721, $GPGGA,135618.00,4530.37041794,N,00909.97593427,E,2,4,2.8,129.855,M,48.022,M,1.0,0000*7
1223134399.548962, $GPGST,135618.00,0.000,0.789,0.327,273.8,0.788,0.330,0.800*5
1223134399.735646, $GPGGA,135618.20,4530.37049378,N,00909.97588884,E,2,4,2.8,129.855,M,48.022,M,1.2,0000*7
1223134399.748252, $GPGST,135618.20,0.000,0.789,0.327,273.8,0.788,0.330,0.800*5
1223134399.935545, $GPGGA,135618.40,4530.37056652,N,00909.97584633,E,2,4,2.8,129.856,M,48.022,M,0.4,0000*7
1223134399.948341, $GPGST,135618.40,0.000,0.789,0.327,273.8,0.788,0.330,0.800*5
1223134400.135457, $GPGGA,135618.60,4530.37065891,N,00909.97581077,E,2,4,2.8,129.856,M,48.022,M,0.6,0000*7
1223134400.148334, $GPGST,135618.60,0.000,0.789,0.327,273.8,0.788,0.330,0.800*5
1223134400.335435, $GPGGA,135618.80,4530.37075799,N,00909.97577481,E,2,4,2.8,129.855,M,48.022,M,0.8,0000*7
1223134400.348857, $GPGST,135618.80,0.000,0.789,0.327,273.8,0.788,0.330,0.800*5
1223134400.539322, $GPGGA,135619.00,4530.37082454,N,00909.97578758,E,2,4,2.8,129.851,M,48.022,M,1.0,0000*7
1223134400.549043, $GPGST,135619.00,0.000,0.787,0.326,274.0,0.785,0.329,0.801*5
1223134400.735358, $GPGGA,135619.20,4530.37091723,N,00909.97577534,E,2,4,2.8,129.851,M,48.022,M,1.2,0000*7
1223134400.748898, $GPGST,135619.20,0.000,0.787,0.326,274.0,0.785,0.329,0.801*5
1223134400.936205, $GPGGA,135619.40,4530.37101130,N,00909.97576167,E,2,4,2.8,129.853,M,48.022,M,0.4,0000*7
1223134400.948449, $GPGST,135619.40,0.000,0.787,0.326,274.0,0.785,0.329,0.801*5
1223134401.136131, $GPGGA,135619.60,4530.37110385,N,00909.97575844,E,2,4,2.8,129.853,M,48.022,M,0.6,0000*7
1223134401.148442, $GPGST,135619.60,0.000,0.787,0.326,274.0,0.785,0.329,0.801*5
1223134401.336059, $GPGGA,135619.80,4530.37117725,N,00909.97575497,E,2,4,2.8,129.854,M,48.022,M,0.8,0000*7
1223134401.348486, $GPGST,135619.80,0.000,0.787,0.326,274.0,0.785,0.329,0.801*5
1223134401.539994, $GPGGA,135620.00,4530.37125566,N,00909.97575941,E,2,4,2.8,129.846,M,48.022,M,1.0,0000*7
1223134401.549953, $GPGST,135620.00,0.000,0.785,0.325,274.2,0.783,0.329,0.802*5
1223134401.735939, $GPGGA,135620.20,4530.37135063,N,00909.97577055,E,2,4,2.8,129.851,M,48.022,M,1.2,0000*7
1223134401.748565, $GPGST,135620.20,0.000,0.785,0.325,274.2,0.783,0.329,0.802*5
1223134401.935874, $GPGGA,135620.40,4530.37142898,N,00909.97576173,E,2,4,2.8,129.849,M,48.022,M,0.4,0000*7
1223134401.948580, $GPGST,135620.40,0.000,0.785,0.325,274.2,0.783,0.329,0.802*5
1223134402.135803, $GPGGA,135620.60,4530.37153328,N,00909.97577815,E,2,4,2.8,129.854,M,48.022,M,0.6,0000*7
1223134402.148596, $GPGST,135620.60,0.000,0.785,0.325,274.2,0.783,0.329,0.802*5
1223134402.336766, $GPGGA,135620.80,4530.37163202,N,00909.97580772,E,2,4,2.8,129.853,M,48.022,M,0.8,0000*7
1223134402.348714, $GPGST,135620.80,0.000,0.785,0.325,274.2,0.783,0.329,0.802*5
1223134402.539693, $GPGGA,135621.00,4530.37171306,N,00909.97579812,E,2,4,2.8,129.862,M,48.022,M,1.0,0000*7
1223134402.551276, $GPGST,135621.00,0.000,0.783,0.324,274.4,0.781,0.328,0.802*5
1223134402.737075, $GPGGA,135621.20,4530.37181956,N,00909.97580824,E,2,4,2.8,129.873,M,48.022,M,1.2,0000*7
1223134402.748912, $GPGST,135621.20,0.000,0.783,0.324,274.4,0.781,0.328,0.802*5
1223134402.936548, $GPGGA,135621.40,4530.37190126,N,00909.97581660,E,2,4,2.8,129.871,M,48.022,M,0.4,0000*7
1223134402.948823, $GPGST,135621.40,0.000,0.783,0.324,274.4,0.781,0.328,0.802*5
1223134403.136470, $GPGGA,135621.60,4530.37199601,N,00909.97582708,E,2,4,2.8,129.874,M,48.022,M,0.6,0000*7
1223134403.148846, $GPGST,135621.60,0.000,0.783,0.324,274.4,0.781,0.328,0.802*5
1223134403.336401, $GPGGA,135621.80,4530.37209146,N,00909.97584161,E,2,4,2.8,129.874,M,48.022,M,0.8,0000*7
1223134403.348879, $GPGST,135621.80,0.000,0.783,0.324,274.4,0.781,0.328,0.802*5
1223134403.540297, $GPGGA,135622.00,4530.37219132,N,00909.97583539,E,2,4,2.8,129.877,M,48.022,M,1.0,0000*7
1223134403.550249, $GPGST,135622.00,0.000,0.785,0.325,274.0,0.784,0.329,0.801*5
1223134403.768140, $GPGGA,135622.10,4530.37223813,N,00909.97584682,E,0,4,2.8,129.884,M,48.022,M,,*5
1223134403.778118, $GPGST,135622.10,0.000,0.785,0.325,274.0,0.784,0.329,0.801*5
1223134403.968069, $GPGGA,135622.10,4530.37223813,N,00909.97584682,E,0,4,2.8,129.884,M,48.022,M,,*5
1223134403.979048, $GPGST,135622.10,0.000,0.785,0.325,274.0,0.784,0.329,0.801*5
1223134404.168001, $GPGGA,135622.10,4530.37223813,N,00909.97584682,E,0,4,2.8,129.884,M,48.022,M,,*5
1223134404.178982, $GPGST,135622.10,0.000,0.785,0.325,274.0,0.784,0.329,0.801*5
1223134404.367933, $GPGGA,135622.10,4530.37223813,N,00909.97584682,E,0,4,2.8,129.884,M,48.022,M,,*5
1223134404.378913, $GPGST,135622.10,0.000,0.785,0.325,274.0,0.784,0.329,0.801*5
1223134404.540960, $GPGGA,135623.00,4530.37265062,N,00909.97585793,E,2,4,2.8,129.967,M,48.022,M,1.0,0000*7
1223134404.553930, $GPGST,135623.00,0.000,0.791,0.328,273.4,0.789,0.331,0.799*5
1223134404.736900, $GPGGA,135623.20,4530.37276265,N,00909.97583840,E,2,4,2.8,129.975,M,48.022,M,1.2,0000*7
1223134404.749654, $GPGST,135623.20,0.000,0.791,0.328,273.4,0.789,0.331,0.799*5
1223134404.967722, $GPGGA,135623.30,4530.37280928,N,00909.97582911,E,0,4,2.8,129.966,M,48.022,M,,*5
1223134404.978702, $GPGST,135623.30,0.000,0.791,0.328,273.4,0.789,0.331,0.799*5
1223134405.167676, $GPGGA,135623.30,4530.37280928,N,00909.97582911,E,0,4,2.8,129.966,M,48.022,M,,*5
1223134405.178630, $GPGST,135623.30,0.000,0.791,0.328,273.4,0.789,0.331,0.799*5
1223134405.367580, $GPGGA,135623.30,4530.37280928,N,00909.97582911,E,0,4,2.8,129.966,M,48.022,M,,*5
1223134405.378560, $GPGST,135623.30,0.000,0.791,0.328,273.4,0.789,0.331,0.799*5
1223134405.568513, $GPGGA,135623.30,4530.37280928,N,00909.97582911,E,0,4,2.8,129.966,M,48.022,M,,*5
1223134405.578490, $GPGST,135623.30,0.000,0.791,0.328,273.4,0.789,0.331,0.799*5
1223134405.768445, $GPGGA,135623.30,4530.37280928,N,00909.97582911,E,0,4,2.8,129.966,M,48.022,M,,*5
1223134405.778420, $GPGST,135623.30,0.000,0.791,0.328,273.4,0.789,0.331,0.799*5
1223134405.968411, $GPGGA,135623.30,4530.37280928,N,00909.97582911,E,0,4,2.8,129.966,M,48.022,M,,*5
1223134405.979402, $GPGST,135623.30,0.000,0.791,0.328,273.4,0.789,0.331,0.799*5
1223134406.168304, $GPGGA,135623.30,4530.37280928,N,00909.97582911,E,0,4,2.8,129.966,M,48.022,M,,*5
1223134406.179283, $GPGST,135623.30,0.000,0.791,0.328,273.4,0.789,0.331,0.799*5
1223134406.368232, $GPGGA,135623.30,4530.37280928,N,00909.97582911,E,0,4,2.8,129.966,M,48.022,M,,*5
1223134406.379211, $GPGST,135623.30,0.000,0.791,0.328,273.4,0.789,0.331,0.799*5
1223134406.568162, $GPGGA,135623.30,4530.37280928,N,00909.97582911,E,0,4,2.8,129.966,M,48.022,M,,*5
1223134406.579141, $GPGST,135623.30,0.000,0.791,0.328,273.4,0.789,0.331,0.799*5
1223134406.768093, $GPGGA,135623.30,4530.37280928,N,00909.97582911,E,0,4,2.8,129.966,M,48.022,M,,*5
1223134406.779071, $GPGST,135623.30,0.000,0.791,0.328,273.4,0.789,0.331,0.799*5
1223134406.968022, $GPGGA,135623.30,4530.37280928,N,00909.97582911,E,0,4,2.8,129.966,M,48.022,M,,*5
1223134406.979002, $GPGST,135623.30,0.000,0.791,0.328,273.4,0.789,0.331,0.799*5
1223134407.168954, $GPGGA,135623.30,4530.37280928,N,00909.97582911,E,0,4,2.8,129.966,M,48.022,M,,*5
1223134407.178932, $GPGST,135623.30,0.000,0.791,0.328,273.4,0.789,0.331,0.799*5
1223134407.368882, $GPGGA,135623.30,4530.37280928,N,00909.97582911,E,0,4,2.8,129.966,M,48.022,M,,*5
1223134407.378862, $GPGST,135623.30,0.000,0.791,0.328,273.4,0.789,0.331,0.799*5
1223134407.568813, $GPGGA,135623.30,4530.37280928,N,00909.97582911,E,0,4,2.8,129.966,M,48.022,M,,*5
1223134407.579792, $GPGST,135623.30,0.000,0.791,0.328,273.4,0.789,0.331,0.799*5
1223134407.768743, $GPGGA,135623.30,4530.37280928,N,00909.97582911,E,0,4,2.8,129.966,M,48.022,M,,*5
1223134407.779722, $GPGST,135623.30,0.000,0.791,0.328,273.4,0.789,0.331,0.799*5
1223134407.968673, $GPGGA,135623.30,4530.37280928,N,00909.97582911,E,0,4,2.8,129.966,M,48.022,M,,*5
1223134407.979655, $GPGST,135623.30,0.000,0.791,0.328,273.4,0.789,0.331,0.799*5
1223134408.168604, $GPGGA,135623.30,4530.37280928,N,00909.97582911,E,0,4,2.8,129.966,M,48.022,M,,*5
1223134408.179583, $GPGST,135623.30,0.000,0.791,0.328,273.4,0.789,0.331,0.799*5
1223134408.368534, $GPGGA,135623.30,4530.37280928,N,00909.97582911,E,0,4,2.8,129.966,M,48.022,M,,*5
1223134408.379514, $GPGST,135623.30,0.000,0.791,0.328,273.4,0.789,0.331,0.799*5
1223134408.568464, $GPGGA,135623.30,4530.37280928,N,00909.97582911,E,0,4,2.8,129.966,M,48.022,M,,*5
1223134408.579444, $GPGST,135623.30,0.000,0.791,0.328,273.4,0.789,0.331,0.799*5
1223134408.769394, $GPGGA,135623.30,4530.37280928,N,00909.97582911,E,0,4,2.8,129.966,M,48.022,M,,*5
1223134408.779374, $GPGST,135623.30,0.000,0.791,0.328,273.4,0.789,0.331,0.799*5
1223134408.969324, $GPGGA,135623.30,4530.37280928,N,00909.97582911,E,0,4,2.8,129.966,M,48.022,M,,*5
1223134408.979316, $GPGST,135623.30,0.000,0.791,0.328,273.4,0.789,0.331,0.799*5
1223134409.169258, $GPGGA,135623.30,4530.37280928,N,00909.97582911,E,0,4,2.8,129.966,M,48.022,M,,*5
1223134409.180237, $GPGST,135623.30,0.000,0.791,0.328,273.4,0.789,0.331,0.799*5
1223134409.369192, $GPGGA,135623.30,4530.37280928,N,00909.97582911,E,0,4,2.8,129.966,M,48.022,M,,*5
1223134409.380170, $GPGST,135623.30,0.000,0.791,0.328,273.4,0.789,0.331,0.799*5
1223134409.569118, $GPGGA,135623.30,4530.37280928,N,00909.97582911,E,0,4,2.8,129.966,M,48.022,M,,*5
1223134409.580098, $GPGST,135623.30,0.000,0.791,0.328,273.4,0.789,0.331,0.799*5
1223134409.769049, $GPGGA,135623.30,4530.37280928,N,00909.97582911,E,0,4,2.8,129.966,M,48.022,M,,*5
1223134409.780028, $GPGST,135623.30,0.000,0.791,0.328,273.4,0.789,0.331,0.799*5
1223134409.968976, $GPGGA,135623.30,4530.37280928,N,00909.97582911,E,0,4,2.8,129.966,M,48.022,M,,*5
1223134409.979961, $GPGST,135623.30,0.000,0.791,0.328,273.4,0.789,0.331,0.799*5
1223134410.168906, $GPGGA,135623.30,4530.37280928,N,00909.97582911,E,0,4,2.8,129.966,M,48.022,M,,*5
1223134410.179886, $GPGST,135623.30,0.000,0.791,0.328,273.4,0.789,0.331,0.799*5
1223134410.368837, $GPGGA,135623.30,4530.37280928,N,00909.97582911,E,0,4,2.8,129.966,M,48.022,M,,*5
1223134410.379816, $GPGST,135623.30,0.000,0.791,0.328,273.4,0.789,0.331,0.799*5
1223134410.568768, $GPGGA,135623.30,4530.37280928,N,00909.97582911,E,0,4,2.8,129.966,M,48.022,M,,*5
1223134410.579747, $GPGST,135623.30,0.000,0.791,0.328,273.4,0.789,0.331,0.799*5
1223134410.769697, $GPGGA,135623.30,4530.37280928,N,00909.97582911,E,0,4,2.8,129.966,M,48.022,M,,*5
1223134410.780676, $GPGST,135623.30,0.000,0.791,0.328,273.4,0.789,0.331,0.799*5
1223134410.969629, $GPGGA,135623.30,4530.37280928,N,00909.97582911,E,0,4,2.8,129.966,M,48.022,M,,*5
1223134410.980610, $GPGST,135623.30,0.000,0.791,0.328,273.4,0.789,0.331,0.799*5
1223134411.169559, $GPGGA,135623.30,4530.37280928,N,00909.97582911,E,0,4,2.8,129.966,M,48.022,M,,*5
1223134411.180537, $GPGST,135623.30,0.000,0.791,0.328,273.4,0.789,0.331,0.799*5
1223134411.369488, $GPGGA,135623.30,4530.37280928,N,00909.97582911,E,0,4,2.8,129.966,M,48.022,M,,*5
1223134411.380467, $GPGST,135623.30,0.000,0.791,0.328,273.4,0.789,0.331,0.799*5
1223134411.569419, $GPGGA,135623.30,4530.37280928,N,00909.97582911,E,0,4,2.8,129.966,M,48.022,M,,*5
1223134411.580398, $GPGST,135623.30,0.000,0.791,0.328,273.4,0.789,0.331,0.799*5
1223134411.769349, $GPGGA,135623.30,4530.37280928,N,00909.97582911,E,0,4,2.8,129.966,M,48.022,M,,*5
1223134411.780328, $GPGST,135623.30,0.000,0.791,0.328,273.4,0.789,0.331,0.799*5
1223134411.969279, $GPGGA,135623.30,4530.37280928,N,00909.97582911,E,0,4,2.8,129.966,M,48.022,M,,*5
1223134411.980259, $GPGST,135623.30,0.000,0.791,0.328,273.4,0.789,0.331,0.799*5
1223134412.170210, $GPGGA,135623.30,4530.37280928,N,00909.97582911,E,0,4,2.8,129.966,M,48.022,M,,*5
1223134412.180189, $GPGST,135623.30,0.000,0.791,0.328,273.4,0.789,0.331,0.799*5
1223134412.370139, $GPGGA,135623.30,4530.37280928,N,00909.97582911,E,0,4,2.8,129.966,M,48.022,M,,*5
1223134412.380119, $GPGST,135623.30,0.000,0.791,0.328,273.4,0.789,0.331,0.799*5
1223134412.570069, $GPGGA,135623.30,4530.37280928,N,00909.97582911,E,0,4,2.8,129.966,M,48.022,M,,*5
1223134412.580050, $GPGST,135623.30,0.000,0.791,0.328,273.4,0.789,0.331,0.799*5
1223134412.770000, $GPGGA,135623.30,4530.37280928,N,00909.97582911,E,0,4,2.8,129.966,M,48.022,M,,*5
1223134412.779980, $GPGST,135623.30,0.000,0.791,0.328,273.4,0.789,0.331,0.799*5
1223134412.969933, $GPGGA,135623.30,4530.37280928,N,00909.97582911,E,0,4,2.8,129.966,M,48.022,M,,*5
1223134412.980911, $GPGST,135623.30,0.000,0.791,0.328,273.4,0.789,0.331,0.799*5
1223134413.169861, $GPGGA,135623.30,4530.37280928,N,00909.97582911,E,0,4,2.8,129.966,M,48.022,M,,*5
1223134413.180840, $GPGST,135623.30,0.000,0.791,0.328,273.4,0.789,0.331,0.799*5
1223134413.369791, $GPGGA,135623.30,4530.37280928,N,00909.97582911,E,0,4,2.8,129.966,M,48.022,M,,*5
1223134413.380770, $GPGST,135623.30,0.000,0.791,0.328,273.4,0.789,0.331,0.799*5
1223134413.569721, $GPGGA,135623.30,4530.37280928,N,00909.97582911,E,0,4,2.8,129.966,M,48.022,M,,*5
1223134413.580700, $GPGST,135623.30,0.000,0.791,0.328,273.4,0.789,0.331,0.799*5
1223134413.769652, $GPGGA,135623.30,4530.37280928,N,00909.97582911,E,0,4,2.8,129.966,M,48.022,M,,*5
1223134413.780631, $GPGST,135623.30,0.000,0.791,0.328,273.4,0.789,0.331,0.799*5
1223134413.970581, $GPGGA,135623.30,4530.37280928,N,00909.97582911,E,0,4,2.8,129.966,M,48.022,M,,*5
1223134413.980561, $GPGST,135623.30,0.000,0.791,0.328,273.4,0.789,0.331,0.799*5
1223134414.170511, $GPGGA,135623.30,4530.37280928,N,00909.97582911,E,0,4,2.8,129.966,M,48.022,M,,*5
1223134414.180491, $GPGST,135623.30,0.000,0.791,0.328,273.4,0.789,0.331,0.799*5
1223134414.370441, $GPGGA,135623.30,4530.37280928,N,00909.97582911,E,0,4,2.8,129.966,M,48.022,M,,*5
1223134414.381421, $GPGST,135623.30,0.000,0.791,0.328,273.4,0.789,0.331,0.799*5
1223134414.570379, $GPGGA,135623.30,4530.37280928,N,00909.97582911,E,0,4,2.8,129.966,M,48.022,M,,*5
1223134414.581354, $GPGST,135623.30,0.000,0.791,0.328,273.4,0.789,0.331,0.799*5
1223134414.770305, $GPGGA,135623.30,4530.37280928,N,00909.97582911,E,0,4,2.8,129.966,M,48.022,M,,*5
1223134414.781284, $GPGST,135623.30,0.000,0.791,0.328,273.4,0.789,0.331,0.799*5
1223134414.970271, $GPGGA,135623.30,4530.37280928,N,00909.97582911,E,0,4,2.8,129.966,M,48.022,M,,*5
1223134414.980991, $GPGST,135623.30,0.000,0.791,0.328,273.4,0.789,0.331,0.799*5
1223134415.170166, $GPGGA,135623.30,4530.37280928,N,00909.97582911,E,0,4,2.8,129.966,M,48.022,M,,*5
1223134415.181144, $GPGST,135623.30,0.000,0.791,0.328,273.4,0.789,0.331,0.799*5
1223134415.371094, $GPGGA,135623.30,4530.37280928,N,00909.97582911,E,0,4,2.8,129.966,M,48.022,M,,*5
1223134415.381073, $GPGST,135623.30,0.000,0.791,0.328,273.4,0.789,0.331,0.799*5
1223134415.571023, $GPGGA,135623.30,4530.37280928,N,00909.97582911,E,0,4,2.8,129.966,M,48.022,M,,*5
1223134415.582003, $GPGST,135623.30,0.000,0.791,0.328,273.4,0.789,0.331,0.799*5
1223134415.770953, $GPGGA,135623.30,4530.37280928,N,00909.97582911,E,0,4,2.8,129.966,M,48.022,M,,*5
1223134415.781933, $GPGST,135623.30,0.000,0.791,0.328,273.4,0.789,0.331,0.799*5
1223134415.970885, $GPGGA,135623.30,4530.37280928,N,00909.97582911,E,0,4,2.8,129.966,M,48.022,M,,*5
1223134415.981863, $GPGST,135623.30,0.000,0.791,0.328,273.4,0.789,0.331,0.799*5
1223134416.170815, $GPGGA,135623.30,4530.37280928,N,00909.97582911,E,0,4,2.8,129.966,M,48.022,M,,*5
1223134416.181794, $GPGST,135623.30,0.000,0.791,0.328,273.4,0.789,0.331,0.799*5
1223134416.339848, $GPGGA,135634.80,4530.37593376,N,00909.97271350,E,1,3,3.0,129.835,M,48.022,M,,*5
1223134416.351566, $GPGST,135634.80,0.000,9.531,0.747,62.2,8.439,4.492,12.365*5
1223134416.540822, $GPGGA,135635.00,4530.37595896,N,00909.97259903,E,1,3,3.0,129.816,M,48.022,M,,*5
1223134416.551736, $GPGST,135635.00,0.000,9.523,0.753,62.2,8.432,4.490,12.364*5
1223134416.770610, $GPGGA,135635.10,4530.37599721,N,00909.97254272,E,0,3,3.0,129.816,M,48.022,M,,*5
1223134416.781585, $GPGST,135635.10,0.000,9.523,0.753,62.2,8.432,4.490,12.364*5
1223134416.971543, $GPGGA,135635.10,4530.37599721,N,00909.97254272,E,0,3,3.0,129.816,M,48.022,M,,*5
1223134416.981518, $GPGST,135635.10,0.000,9.523,0.753,62.2,8.432,4.490,12.364*5
1223134417.170469, $GPGGA,135635.10,4530.37599721,N,00909.97254272,E,0,3,3.0,129.816,M,48.022,M,,*5
1223134417.181448, $GPGST,135635.10,0.000,9.523,0.753,62.2,8.432,4.490,12.364*5
1223134417.371396, $GPGGA,135635.10,4530.37599721,N,00909.97254272,E,0,3,3.0,129.816,M,48.022,M,,*5
1223134417.381376, $GPGST,135635.10,0.000,9.523,0.753,62.2,8.432,4.490,12.364*5
1223134417.672406, $GPGGA,135635.10,4530.37599721,N,00909.97254272,E,0,3,3.0,129.816,M,48.022,M,,*5
1223134417.685289, $GPGST,135635.10,0.000,9.523,0.753,62.2,8.432,4.490,12.364*5
1223134417.871327, $GPGGA,135635.10,4530.37599721,N,00909.97254272,E,0,3,3.0,129.816,M,48.022,M,,*5
1223134417.885341, $GPGST,135635.10,0.000,9.523,0.753,62.2,8.432,4.490,12.364*5
1223134418.121140, $GPGGA,135635.10,4530.37599721,N,00909.97254272,E,0,3,3.0,129.816,M,48.022,M,,*5
1223134418.132368, $GPGST,135635.10,0.000,9.523,0.753,62.2,8.432,4.490,12.364*5
1223134418.321070, $GPGGA,135635.10,4530.37599721,N,00909.97254272,E,0,3,3.0,129.816,M,48.022,M,,*5
1223134418.332177, $GPGST,135635.10,0.000,9.523,0.753,62.2,8.432,4.490,12.364*5
1223134418.521001, $GPGGA,135635.10,4530.37599721,N,00909.97254272,E,0,3,3.0,129.816,M,48.022,M,,*5
1223134418.532338, $GPGST,135635.10,0.000,9.523,0.753,62.2,8.432,4.490,12.364*5
1223134418.720927, $GPGGA,135635.10,4530.37599721,N,00909.97254272,E,0,3,3.0,129.816,M,48.022,M,,*5
1223134418.731989, $GPGST,135635.10,0.000,9.523,0.753,62.2,8.432,4.490,12.364*5
1223134418.921857, $GPGGA,135635.10,4530.37599721,N,00909.97254272,E,0,3,3.0,129.816,M,48.022,M,,*5
1223134418.931917, $GPGST,135635.10,0.000,9.523,0.753,62.2,8.432,4.490,12.364*5
1223134419.121787, $GPGGA,135635.10,4530.37599721,N,00909.97254272,E,0,3,3.0,129.816,M,48.022,M,,*5
1223134419.131842, $GPGST,135635.10,0.000,9.523,0.753,62.2,8.432,4.490,12.364*5
1223134419.321718, $GPGGA,135635.10,4530.37599721,N,00909.97254272,E,0,3,3.0,129.816,M,48.022,M,,*5
1223134419.332078, $GPGST,135635.10,0.000,9.523,0.753,62.2,8.432,4.490,12.364*5
1223134419.521648, $GPGGA,135635.10,4530.37599721,N,00909.97254272,E,0,3,3.0,129.816,M,48.022,M,,*5
1223134419.531714, $GPGST,135635.10,0.000,9.523,0.753,62.2,8.432,4.490,12.364*5
1223134419.721579, $GPGGA,135635.10,4530.37599721,N,00909.97254272,E,0,3,3.0,129.816,M,48.022,M,,*5
1223134419.732629, $GPGST,135635.10,0.000,9.523,0.753,62.2,8.432,4.490,12.364*5
1223134419.921510, $GPGGA,135635.10,4530.37599721,N,00909.97254272,E,0,3,3.0,129.816,M,48.022,M,,*5
1223134419.932572, $GPGST,135635.10,0.000,9.523,0.753,62.2,8.432,4.490,12.364*5
1223134420.121446, $GPGGA,135635.10,4530.37599721,N,00909.97254272,E,0,3,3.0,129.816,M,48.022,M,,*5
1223134420.132528, $GPGST,135635.10,0.000,9.523,0.753,62.2,8.432,4.490,12.364*5
1223134420.321371, $GPGGA,135635.10,4530.37599721,N,00909.97254272,E,0,3,3.0,129.816,M,48.022,M,,*5
1223134420.332740, $GPGST,135635.10,0.000,9.523,0.753,62.2,8.432,4.490,12.364*5
1223134420.521305, $GPGGA,135635.10,4530.37599721,N,00909.97254272,E,0,3,3.0,129.816,M,48.022,M,,*5
1223134420.532402, $GPGST,135635.10,0.000,9.523,0.753,62.2,8.432,4.490,12.364*5
1223134420.721235, $GPGGA,135635.10,4530.37599721,N,00909.97254272,E,0,3,3.0,129.816,M,48.022,M,,*5
1223134420.732329, $GPGST,135635.10,0.000,9.523,0.753,62.2,8.432,4.490,12.364*5
1223134420.921191, $GPGGA,135635.10,4530.37599721,N,00909.97254272,E,0,3,3.0,129.816,M,48.022,M,,*5
1223134420.932369, $GPGST,135635.10,0.000,9.523,0.753,62.2,8.432,4.490,12.364*5
1223134421.122092, $GPGGA,135635.10,4530.37599721,N,00909.97254272,E,0,3,3.0,129.816,M,48.022,M,,*5
1223134421.132180, $GPGST,135635.10,0.000,9.523,0.753,62.2,8.432,4.490,12.364*5
1223134421.322027, $GPGGA,135635.10,4530.37599721,N,00909.97254272,E,0,3,3.0,129.816,M,48.022,M,,*5
1223134421.332104, $GPGST,135635.10,0.000,9.523,0.753,62.2,8.432,4.490,12.364*5
1223134421.521953, $GPGGA,135635.10,4530.37599721,N,00909.97254272,E,0,3,3.0,129.816,M,48.022,M,,*5
1223134421.533019, $GPGST,135635.10,0.000,9.523,0.753,62.2,8.432,4.490,12.364*5
1223134421.721883, $GPGGA,135635.10,4530.37599721,N,00909.97254272,E,0,3,3.0,129.816,M,48.022,M,,*5
1223134421.732945, $GPGST,135635.10,0.000,9.523,0.753,62.2,8.432,4.490,12.364*5
1223134421.921813, $GPGGA,135635.10,4530.37599721,N,00909.97254272,E,0,3,3.0,129.816,M,48.022,M,,*5
1223134421.932988, $GPGST,135635.10,0.000,9.523,0.753,62.2,8.432,4.490,12.364*5
1223134422.121742, $GPGGA,135635.10,4530.37599721,N,00909.97254272,E,0,3,3.0,129.816,M,48.022,M,,*5
1223134422.132829, $GPGST,135635.10,0.000,9.523,0.753,62.2,8.432,4.490,12.364*5
1223134422.321673, $GPGGA,135635.10,4530.37599721,N,00909.97254272,E,0,3,3.0,129.816,M,48.022,M,,*5
1223134422.332758, $GPGST,135635.10,0.000,9.523,0.753,62.2,8.432,4.490,12.364*5
1223134422.521605, $GPGGA,135635.10,4530.37599721,N,00909.97254272,E,0,3,3.0,129.816,M,48.022,M,,*5
1223134422.532670, $GPGST,135635.10,0.000,9.523,0.753,62.2,8.432,4.490,12.364*5
1223134422.722535, $GPGGA,135635.10,4530.37599721,N,00909.97254272,E,0,3,3.0,129.816,M,48.022,M,,*5
1223134422.732602, $GPGST,135635.10,0.000,9.523,0.753,62.2,8.432,4.490,12.364*5
1223134422.922465, $GPGGA,135635.10,4530.37599721,N,00909.97254272,E,0,3,3.0,129.816,M,48.022,M,,*5
1223134422.932529, $GPGST,135635.10,0.000,9.523,0.753,62.2,8.432,4.490,12.364*5
1223134423.143509, $GPGGA,135641.60,4530.37384821,N,00909.97107010,E,2,3,3.3,129.803,M,48.022,M,18.6,0000*4
1223134423.153345, $GPGST,135641.60,0.000,0.818,0.260,280.3,0.806,0.295,3.982*5
1223134423.341965, $GPGGA,135641.80,4530.37376781,N,00909.97106556,E,2,3,3.3,129.802,M,48.022,M,18.8,0000*4
1223134423.353982, $GPGST,135641.80,0.000,0.818,0.260,280.3,0.806,0.295,3.982*5
1223134423.545391, $GPGGA,135642.00,4530.37372194,N,00909.97103985,E,2,3,3.3,129.816,M,48.022,M,19.0,0000*4
1223134423.554258, $GPGST,135642.00,0.000,0.838,0.255,281.1,0.824,0.298,4.216*5
1223134423.741326, $GPGGA,135642.20,4530.37362554,N,00909.97105156,E,2,3,3.3,129.815,M,48.022,M,19.2,0000*4
1223134423.754201, $GPGST,135642.20,0.000,0.838,0.255,281.1,0.824,0.298,4.216*5
1223134423.941253, $GPGGA,135642.40,4530.37354802,N,00909.97105752,E,2,3,3.3,129.815,M,48.022,M,19.4,0000*4
1223134423.953905, $GPGST,135642.40,0.000,0.838,0.255,281.1,0.824,0.298,4.216*5
1223134424.141115, $GPGGA,135642.60,4530.37345377,N,00909.97105622,E,2,3,3.3,129.814,M,48.022,M,19.6,0000*4
1223134424.153537, $GPGST,135642.60,0.000,0.838,0.255,281.1,0.824,0.298,4.216*5
1223134424.341052, $GPGGA,135642.80,4530.37336144,N,00909.97104667,E,2,3,3.3,129.814,M,48.022,M,19.8,0000*4
1223134424.353660, $GPGST,135642.80,0.000,0.838,0.255,281.1,0.824,0.298,4.216*5
1223134424.543975, $GPGGA,135643.00,4530.37337840,N,00909.97096067,E,2,3,3.3,129.816,M,48.022,M,20.0,0000*4
1223134424.554921, $GPGST,135643.00,0.000,0.859,0.271,280.4,0.846,0.309,4.214*5
1223134424.740954, $GPGGA,135643.20,4530.37328546,N,00909.97097079,E,2,3,3.3,129.816,M,48.022,M,20.2,0000*4
1223134424.754493, $GPGST,135643.20,0.000,0.859,0.271,280.4,0.846,0.309,4.214*5
1223134424.943888, $GPGGA,135643.40,4530.37321042,N,00909.97097179,E,2,3,3.3,129.815,M,48.022,M,20.4,0000*4
1223134424.954491, $GPGST,135643.40,0.000,0.859,0.271,280.4,0.846,0.309,4.214*5
1223134425.142116, $GPGGA,135643.60,4530.37313366,N,00909.97099052,E,2,3,3.3,129.815,M,48.022,M,20.6,0000*4
