1220287568.127379, $GPGGA,151935.60,4530.36844637,N,00909.97033083,E,4,5,2.4,129.085,M,48.022,M,0.6,0000*7
1220287568.137310, $GPGST,151935.60,0.023,0.043,0.015,304.5,0.037,0.027,0.034*5
1220287568.327377, $GPGGA,151935.80,4530.36844398,N,00909.97033050,E,4,5,2.4,129.096,M,48.022,M,0.8,0000*7
1220287568.337281, $GPGST,151935.80,0.031,0.043,0.015,304.5,0.037,0.027,0.034*5
1220287568.530239, $GPGGA,151936.00,4530.36844203,N,00909.97032696,E,4,5,2.4,129.085,M,48.022,M,1.0,0000*7
1220287568.540205, $GPGST,151936.00,0.033,0.043,0.015,304.6,0.037,0.027,0.034*5
1220287568.728169, $GPGGA,151936.20,4530.36844332,N,00909.97032759,E,4,5,2.4,129.084,M,48.022,M,1.2,0000*7
1220287568.737169, $GPGST,151936.20,0.048,0.043,0.015,304.6,0.037,0.027,0.034*5
1220287568.928055, $GPGGA,151936.40,4530.36844477,N,00909.97032999,E,4,5,2.4,129.089,M,48.022,M,1.4,0000*7
1220287568.937101, $GPGST,151936.40,0.041,0.043,0.015,304.6,0.037,0.027,0.034*5
1220287569.128026, $GPGGA,151936.60,4530.36844280,N,00909.97032522,E,4,5,2.4,129.085,M,48.022,M,0.6,0000*7
1220287569.137991, $GPGST,151936.60,0.024,0.043,0.015,304.6,0.037,0.027,0.034*5
1220287569.327948, $GPGGA,151936.80,4530.36844036,N,00909.97031670,E,4,5,2.4,129.090,M,48.022,M,0.8,0000*7
1220287569.337912, $GPGST,151936.80,0.034,0.043,0.015,304.6,0.037,0.027,0.034*5
1220287569.530875, $GPGGA,151937.00,4530.36843369,N,00909.97029955,E,4,5,2.4,129.089,M,48.022,M,1.0,0000*7
1220287569.540841, $GPGST,151937.00,0.008,0.043,0.015,304.6,0.037,0.027,0.034*5
1220287569.727803, $GPGGA,151937.20,4530.36842968,N,00909.97029023,E,4,5,2.4,129.089,M,48.022,M,1.2,0000*7
1220287569.737775, $GPGST,151937.20,0.014,0.043,0.015,304.6,0.037,0.027,0.034*5
1220287569.927758, $GPGGA,151937.40,4530.36843135,N,00909.97028029,E,4,5,2.4,129.093,M,48.022,M,1.4,0000*7
1220287569.937664, $GPGST,151937.40,0.036,0.043,0.015,304.6,0.037,0.027,0.034*5
1220287570.127693, $GPGGA,151937.60,4530.36842902,N,00909.97027231,E,4,5,2.4,129.090,M,48.022,M,0.6,0000*7
1220287570.137628, $GPGST,151937.60,0.014,0.043,0.015,304.6,0.037,0.027,0.034*5
1220287570.328572, $GPGGA,151937.80,4530.36842123,N,00909.97025441,E,4,5,2.4,129.094,M,48.022,M,0.8,0000*7
1220287570.337545, $GPGST,151937.80,0.024,0.043,0.015,304.6,0.037,0.027,0.034*5
1220287570.531501, $GPGGA,151938.00,4530.36842205,N,00909.97024376,E,4,5,2.4,129.102,M,48.022,M,1.0,0000*7
1220287570.541445, $GPGST,151938.00,0.052,0.041,0.015,303.7,0.035,0.026,0.033*5
1220287570.726359, $GPGGA,151938.20,4530.36841631,N,00909.97022692,E,4,5,2.4,129.095,M,48.022,M,1.2,0000*7
1220287570.738459, $GPGST,151938.20,0.022,0.041,0.015,303.7,0.035,0.026,0.033*5
1220287570.928371, $GPGGA,151938.40,4530.36841338,N,00909.97020423,E,4,5,2.4,129.086,M,48.022,M,1.4,0000*7
1220287570.937415, $GPGST,151938.40,0.021,0.041,0.015,303.7,0.035,0.026,0.033*5
1220287571.128294, $GPGGA,151938.60,4530.36840516,N,00909.97018638,E,4,5,2.4,129.093,M,48.022,M,0.6,0000*7
1220287571.138293, $GPGST,151938.60,0.014,0.041,0.015,303.7,0.035,0.026,0.033*5
1220287571.328211, $GPGGA,151938.80,4530.36840614,N,00909.97017804,E,4,5,2.4,129.075,M,48.022,M,0.8,0000*7
1220287571.338237, $GPGST,151938.80,0.034,0.041,0.015,303.7,0.035,0.026,0.033*5
1220287571.531145, $GPGGA,151939.00,4530.36839914,N,00909.97015751,E,4,5,2.4,129.093,M,48.022,M,1.0,0000*7
1220287571.541118, $GPGST,151939.00,0.006,0.041,0.015,303.7,0.035,0.026,0.033*5
1220287571.728071, $GPGGA,151939.20,4530.36839574,N,00909.97013782,E,4,5,2.4,129.094,M,48.022,M,1.2,0000*7
1220287571.738046, $GPGST,151939.20,0.006,0.041,0.015,303.7,0.035,0.026,0.033*5
1220287571.928378, $GPGGA,151939.40,4530.36838398,N,00909.97009232,E,4,5,2.4,129.084,M,48.022,M,1.4,0000*7
1220287571.937971, $GPGST,151939.40,0.016,0.041,0.015,303.7,0.035,0.026,0.033*5
1220287572.127932, $GPGGA,151939.60,4530.36837863,N,00909.97006946,E,4,5,2.4,129.088,M,48.022,M,0.6,0000*7
1220287572.137933, $GPGST,151939.60,0.026,0.041,0.015,303.7,0.035,0.026,0.033*5
1220287572.328871, $GPGGA,151939.80,4530.36837231,N,00909.97004494,E,4,5,2.4,129.093,M,48.022,M,0.8,0000*7
1220287572.337863, $GPGST,151939.80,0.006,0.041,0.015,303.7,0.035,0.026,0.033*5
1220287572.531831, $GPGGA,151940.00,4530.36836350,N,00909.97001578,E,4,5,2.4,129.085,M,48.022,M,1.0,0000*7
1220287572.541804, $GPGST,151940.00,0.000,0.041,0.015,303.6,0.035,0.026,0.033*5
1220287572.729724, $GPGGA,151940.20,4530.36835889,N,00909.96999143,E,4,5,2.4,129.080,M,48.022,M,1.2,0000*7
1220287572.738681, $GPGST,151940.20,0.001,0.041,0.015,303.6,0.035,0.026,0.033*5
1220287572.928723, $GPGGA,151940.40,4530.36834913,N,00909.96996224,E,4,5,2.4,129.081,M,48.022,M,1.4,0000*7
1220287572.938651, $GPGST,151940.40,0.018,0.041,0.015,303.6,0.035,0.026,0.033*5
1220287573.128569, $GPGGA,151940.60,4530.36834273,N,00909.96993860,E,4,5,2.4,129.084,M,48.022,M,0.6,0000*7
1220287573.138566, $GPGST,151940.60,0.006,0.041,0.015,303.6,0.035,0.026,0.033*5
1220287573.328486, $GPGGA,151940.80,4530.36833966,N,00909.96991576,E,4,5,2.4,129.092,M,48.022,M,0.8,0000*7
1220287573.338502, $GPGST,151940.80,0.013,0.041,0.015,303.6,0.035,0.026,0.033*5
1220287573.531419, $GPGGA,151941.00,4530.36832955,N,00909.96988410,E,4,5,2.4,129.093,M,48.022,M,1.0,0000*7
1220287573.541436, $GPGST,151941.00,0.040,0.041,0.015,303.5,0.035,0.026,0.033*5
1220287573.729362, $GPGGA,151941.20,4530.36832427,N,00909.96985871,E,4,5,2.4,129.082,M,48.022,M,1.2,0000*7
1220287573.738322, $GPGST,151941.20,0.015,0.041,0.015,303.5,0.035,0.026,0.033*5
1220287573.928325, $GPGGA,151941.40,4530.36831365,N,00909.96983047,E,4,5,2.4,129.094,M,48.022,M,1.4,0000*7
1220287573.938282, $GPGST,151941.40,0.024,0.041,0.015,303.5,0.035,0.026,0.033*5
1220287574.129203, $GPGGA,151941.60,4530.36830852,N,00909.96980563,E,4,5,2.4,129.088,M,48.022,M,0.6,0000*7
1220287574.138182, $GPGST,151941.60,0.025,0.041,0.015,303.5,0.035,0.026,0.033*5
1220287574.331144, $GPGGA,151941.80,4530.36830403,N,00909.96977718,E,4,5,2.4,129.086,M,48.022,M,0.8,0000*7
1220287574.341113, $GPGST,151941.80,0.036,0.041,0.015,303.5,0.035,0.026,0.033*5
1220287574.533064, $GPGGA,151942.00,4530.36828134,N,00909.96972786,E,4,5,2.4,129.090,M,48.022,M,1.0,0000*7
1220287574.542069, $GPGST,151942.00,0.027,0.040,0.015,302.6,0.034,0.025,0.031*5
1220287574.728984, $GPGGA,151942.20,4530.36826646,N,00909.96966117,E,4,5,2.4,129.082,M,48.022,M,1.2,0000*7
1220287574.738972, $GPGST,151942.20,0.057,0.040,0.015,302.6,0.034,0.025,0.031*5
1220287574.928949, $GPGGA,151942.40,4530.36826468,N,00909.96963086,E,4,5,2.4,129.062,M,48.022,M,1.4,0000*7
1220287574.938891, $GPGST,151942.40,0.015,0.040,0.015,302.6,0.034,0.025,0.031*5
1220287575.128839, $GPGGA,151942.60,4530.36825163,N,00909.96959745,E,4,5,2.4,129.051,M,48.022,M,0.6,0000*7
1220287575.138814, $GPGST,151942.60,0.051,0.040,0.015,302.6,0.034,0.025,0.031*5
1220287575.329775, $GPGGA,151942.80,4530.36823410,N,00909.96954517,E,4,5,2.4,129.054,M,48.022,M,0.8,0000*7
1220287575.338780, $GPGST,151942.80,0.002,0.040,0.015,302.6,0.034,0.025,0.031*5
1220287575.532706, $GPGGA,151943.00,4530.36822175,N,00909.96950736,E,4,5,2.4,129.042,M,48.022,M,1.0,0000*7
1220287575.541717, $GPGST,151943.00,0.111,0.043,0.015,304.4,0.037,0.027,0.034*5
1220287575.729667, $GPGGA,151943.20,4530.36820318,N,00909.96946167,E,4,5,2.4,129.055,M,48.022,M,1.2,0000*7
1220287575.738642, $GPGST,151943.20,0.042,0.043,0.015,304.4,0.037,0.027,0.034*5
1220287575.929586, $GPGGA,151943.40,4530.36820421,N,00909.96943537,E,4,5,2.4,129.021,M,48.022,M,1.4,0000*7
1220287575.939571, $GPGST,151943.40,0.065,0.043,0.015,304.4,0.037,0.027,0.034*5
1220287576.129522, $GPGGA,151943.60,4530.36818412,N,00909.96938740,E,4,5,2.4,129.016,M,48.022,M,0.6,0000*7
1220287576.139534, $GPGST,151943.60,0.034,0.043,0.015,304.4,0.037,0.027,0.034*5
1220287576.329449, $GPGGA,151943.80,4530.36818271,N,00909.96936253,E,4,5,2.4,129.000,M,48.022,M,0.8,0000*7
1220287576.339419, $GPGST,151943.80,0.040,0.043,0.015,304.4,0.037,0.027,0.034*5
1220287576.532381, $GPGGA,151944.00,4530.36817552,N,00909.96934999,E,4,5,2.4,129.014,M,48.022,M,1.0,0000*7
1220287576.542315, $GPGST,151944.00,0.056,0.046,0.015,305.2,0.038,0.029,0.035*5
1220287576.730294, $GPGGA,151944.20,4530.36817114,N,00909.96933720,E,4,5,2.4,129.008,M,48.022,M,1.2,0000*7
1220287576.740283, $GPGST,151944.20,0.001,0.046,0.015,305.2,0.038,0.029,0.035*5
1220287576.929199, $GPGGA,151944.40,4530.36815632,N,00909.96930617,E,4,5,2.4,129.025,M,48.022,M,1.4,0000*7
1220287576.939193, $GPGST,151944.40,0.052,0.046,0.015,305.2,0.038,0.029,0.035*5
1220287577.130192, $GPGGA,151944.60,4530.36814099,N,00909.96929578,E,4,5,2.4,129.034,M,48.022,M,0.6,0000*7
1220287577.139138, $GPGST,151944.60,0.032,0.046,0.015,305.2,0.038,0.029,0.035*5
1220287577.330087, $GPGGA,151944.80,4530.36814879,N,00909.96928516,E,4,5,2.4,129.037,M,48.022,M,0.8,0000*7
1220287577.339208, $GPGST,151944.80,0.018,0.046,0.015,305.2,0.038,0.029,0.035*5
1220287577.533018, $GPGGA,151945.00,4530.36813982,N,00909.96928883,E,4,5,2.4,129.037,M,48.022,M,1.0,0000*7
1220287577.542050, $GPGST,151945.00,0.018,0.044,0.015,304.6,0.037,0.028,0.034*5
1220287577.729937, $GPGGA,151945.20,4530.36813654,N,00909.96927821,E,4,5,2.4,129.047,M,48.022,M,1.2,0000*7
1220287577.739956, $GPGST,151945.20,0.030,0.044,0.015,304.6,0.037,0.028,0.034*5
1220287577.929879, $GPGGA,151945.40,4530.36813071,N,00909.96926953,E,4,5,2.4,129.046,M,48.022,M,1.4,0000*7
1220287577.939914, $GPGST,151945.40,0.040,0.044,0.015,304.6,0.037,0.028,0.034*5
1220287578.129804, $GPGGA,151945.60,4530.36812471,N,00909.96926205,E,4,5,2.4,129.041,M,48.022,M,0.6,0000*7
1220287578.140385, $GPGST,151945.60,0.063,0.044,0.015,304.6,0.037,0.028,0.034*5
1220287578.329727, $GPGGA,151945.80,4530.36812586,N,00909.96925570,E,4,5,2.4,129.035,M,48.022,M,0.8,0000*7
1220287578.339773, $GPGST,151945.80,0.031,0.044,0.015,304.6,0.037,0.028,0.034*5
1220287578.532649, $GPGGA,151946.00,4530.36812139,N,00909.96925068,E,4,5,2.4,129.036,M,48.022,M,1.0,0000*7
1220287578.542620, $GPGST,151946.00,0.084,0.043,0.015,304.6,0.037,0.027,0.034*5
1220287578.730588, $GPGGA,151946.20,4530.36811058,N,00909.96923181,E,4,5,2.4,129.033,M,48.022,M,1.2,0000*7
1220287578.739548, $GPGST,151946.20,0.047,0.043,0.015,304.6,0.037,0.027,0.034*5
1220287578.930513, $GPGGA,151946.40,4530.36809826,N,00909.96921562,E,4,5,2.4,129.041,M,48.022,M,1.4,0000*7
1220287578.940482, $GPGST,151946.40,0.067,0.043,0.015,304.6,0.037,0.027,0.034*5
1220287579.129476, $GPGGA,151946.60,4530.36808126,N,00909.96920559,E,4,5,2.4,129.023,M,48.022,M,0.6,0000*7
1220287579.139436, $GPGST,151946.60,0.056,0.043,0.015,304.6,0.037,0.027,0.034*5
1220287579.330373, $GPGGA,151946.80,4530.36806700,N,00909.96918127,E,4,5,2.4,129.030,M,48.022,M,0.8,0000*7
1220287579.340375, $GPGST,151946.80,0.119,0.043,0.015,304.6,0.037,0.027,0.034*5
1220287579.533302, $GPGGA,151947.00,4530.36804045,N,00909.96914505,E,4,5,2.4,129.038,M,48.022,M,1.0,0000*7
1220287579.543300, $GPGST,151947.00,0.078,0.045,0.015,305.4,0.038,0.029,0.035*5
1220287579.730213, $GPGGA,151947.20,4530.36802993,N,00909.96913402,E,4,5,2.4,129.021,M,48.022,M,1.2,0000*7
1220287579.740231, $GPGST,151947.20,0.071,0.045,0.015,305.4,0.038,0.029,0.035*5
1220287579.930152, $GPGGA,151947.40,4530.36800901,N,00909.96911494,E,4,5,2.4,129.025,M,48.022,M,1.4,0000*7
1220287579.940159, $GPGST,151947.40,0.086,0.045,0.015,305.4,0.038,0.029,0.035*5
1220287580.130072, $GPGGA,151947.60,4530.36799385,N,00909.96909035,E,4,4,4.7,129.022,M,48.022,M,0.6,0000*7
1220287580.140048, $GPGST,151947.60,0.000,0.053,0.015,307.3,0.043,0.034,0.040*5
1220287580.329992, $GPGGA,151947.80,4530.36796965,N,00909.96906140,E,4,4,4.7,129.046,M,48.022,M,0.8,0000*7
1220287580.340012, $GPGST,151947.80,0.000,0.053,0.015,307.3,0.043,0.034,0.040*5
1220287580.532929, $GPGGA,151948.00,4530.36794862,N,00909.96905168,E,4,4,4.7,129.056,M,48.022,M,1.0,0000*7
1220287580.542946, $GPGST,151948.00,0.000,0.053,0.015,307.3,0.043,0.034,0.040*5
1220287580.729849, $GPGGA,151948.20,4530.36792155,N,00909.96902874,E,4,4,4.7,129.063,M,48.022,M,1.2,0000*7
1220287580.739826, $GPGST,151948.20,0.000,0.053,0.015,307.3,0.043,0.034,0.040*5
1220287580.929773, $GPGGA,151948.40,4530.36790294,N,00909.96901289,E,4,4,4.7,129.049,M,48.022,M,1.4,0000*7
1220287580.939787, $GPGST,151948.40,0.000,0.053,0.015,307.3,0.043,0.034,0.040*5
1220287581.129741, $GPGGA,151948.60,4530.36788194,N,00909.96900930,E,4,4,4.7,129.039,M,48.022,M,0.6,0000*7
1220287581.139686, $GPGST,151948.60,0.000,0.053,0.015,307.3,0.043,0.034,0.040*5
1220287581.330678, $GPGGA,151948.80,4530.36786412,N,00909.96900244,E,4,4,4.7,129.030,M,48.022,M,0.8,0000*7
1220287581.339608, $GPGST,151948.80,0.000,0.053,0.015,307.3,0.043,0.034,0.040*5
1220287581.533612, $GPGGA,151949.00,4530.36784630,N,00909.96899104,E,4,4,4.7,129.031,M,48.022,M,1.0,0000*7
1220287581.542545, $GPGST,151949.00,0.000,0.053,0.015,307.3,0.043,0.034,0.040*5
1220287581.730493, $GPGGA,151949.20,4530.36780598,N,00909.96896277,E,4,4,4.7,129.061,M,48.022,M,1.2,0000*7
1220287581.740541, $GPGST,151949.20,0.000,0.053,0.015,307.3,0.043,0.034,0.040*5
1220287581.930456, $GPGGA,151949.40,4530.36778596,N,00909.96895287,E,4,4,4.7,129.052,M,48.022,M,1.4,0000*7
1220287581.940422, $GPGST,151949.40,0.000,0.053,0.015,307.3,0.043,0.034,0.040*5
1220287582.130349, $GPGGA,151949.60,4530.36776818,N,00909.96895892,E,4,4,4.7,129.047,M,48.022,M,0.6,0000*7
1220287582.140325, $GPGST,151949.60,0.000,0.053,0.015,307.3,0.043,0.034,0.040*5
1220287582.330314, $GPGGA,151949.80,4530.36774563,N,00909.96895413,E,4,4,4.7,129.046,M,48.022,M,0.8,0000*7
1220287582.340290, $GPGST,151949.80,0.000,0.053,0.015,307.3,0.043,0.034,0.040*5
1220287582.535250, $GPGGA,151950.00,4530.36772308,N,00909.96894675,E,4,4,4.7,129.045,M,48.022,M,1.0,0000*7
1220287582.545213, $GPGST,151950.00,0.000,0.053,0.015,307.2,0.043,0.034,0.040*5
1220287582.731206, $GPGGA,151950.20,4530.36770074,N,00909.96894535,E,4,4,4.7,129.045,M,48.022,M,1.2,0000*7
1220287582.740146, $GPGST,151950.20,0.000,0.053,0.015,307.2,0.043,0.034,0.040*5
1220287582.931096, $GPGGA,151950.40,4530.36767925,N,00909.96895043,E,4,4,4.7,129.034,M,48.022,M,1.4,0000*7
1220287582.941075, $GPGST,151950.40,0.000,0.053,0.015,307.2,0.043,0.034,0.040*5
1220287583.131032, $GPGGA,151950.60,4530.36765372,N,00909.96895479,E,4,4,4.7,129.024,M,48.022,M,0.6,0000*7
1220287583.139984, $GPGST,151950.60,0.000,0.053,0.015,307.2,0.043,0.034,0.040*5
1220287583.330957, $GPGGA,151950.80,4530.36762897,N,00909.96895881,E,4,4,4.7,129.028,M,48.022,M,0.8,0000*7
1220287583.340925, $GPGST,151950.80,0.000,0.053,0.015,307.2,0.043,0.034,0.040*5
1220287583.533911, $GPGGA,151951.00,4530.36760419,N,00909.96895702,E,4,4,4.7,129.026,M,48.022,M,1.0,0000*7
1220287583.542863, $GPGST,151951.00,0.000,0.054,0.015,307.2,0.044,0.035,0.040*5
1220287583.730812, $GPGGA,151951.20,4530.36757936,N,00909.96895451,E,4,4,4.7,129.028,M,48.022,M,1.2,0000*7
1220287583.740810, $GPGST,151951.20,0.000,0.054,0.015,307.2,0.044,0.035,0.040*5
1220287583.930730, $GPGGA,151951.40,4530.36755031,N,00909.96894868,E,4,4,4.7,129.025,M,48.022,M,1.4,0000*7
1220287583.940707, $GPGST,151951.40,0.000,0.054,0.015,307.2,0.044,0.035,0.040*5
1220287584.130670, $GPGGA,151951.60,4530.36753160,N,00909.96895740,E,4,4,4.7,129.036,M,48.022,M,0.6,0000*7
1220287584.140668, $GPGST,151951.60,0.000,0.054,0.015,307.2,0.044,0.035,0.040*5
1220287584.330591, $GPGGA,151951.80,4530.36749917,N,00909.96895730,E,4,4,4.7,129.043,M,48.022,M,0.8,0000*7
1220287584.340559, $GPGST,151951.80,0.000,0.054,0.015,307.2,0.044,0.035,0.040*5
1220287584.533526, $GPGGA,151952.00,4530.36748052,N,00909.96897218,E,4,4,4.7,129.006,M,48.022,M,1.0,0000*7
1220287584.543486, $GPGST,151952.00,0.000,0.054,0.015,307.2,0.044,0.035,0.040*5
1220287584.731443, $GPGGA,151952.20,4530.36745378,N,00909.96897157,E,4,4,4.7,129.030,M,48.022,M,1.2,0000*7
1220287584.741414, $GPGST,151952.20,0.000,0.054,0.015,307.2,0.044,0.035,0.040*5
1220287584.931383, $GPGGA,151952.40,4530.36742339,N,00909.96897568,E,4,4,4.7,129.034,M,48.022,M,1.4,0000*7
1220287584.940460, $GPGST,151952.40,0.000,0.054,0.015,307.2,0.044,0.035,0.040*5
1220287585.131304, $GPGGA,151952.60,4530.36739125,N,00909.96898353,E,4,4,4.7,129.050,M,48.022,M,0.6,0000*7
1220287585.141312, $GPGST,151952.60,0.000,0.054,0.015,307.2,0.044,0.035,0.040*5
1220287585.331221, $GPGGA,151952.80,4530.36737463,N,00909.96899736,E,4,4,4.7,128.999,M,48.022,M,0.8,0000*7
1220287585.341197, $GPGST,151952.80,0.000,0.054,0.015,307.2,0.044,0.035,0.040*5
1220287585.534157, $GPGGA,151953.00,4530.36735325,N,00909.96899878,E,4,4,4.7,128.991,M,48.022,M,1.0,0000*7
1220287585.544172, $GPGST,151953.00,0.000,0.054,0.015,307.2,0.044,0.035,0.040*5
1220287585.731080, $GPGGA,151953.20,4530.36732568,N,00909.96901289,E,4,4,4.7,129.011,M,48.022,M,1.2,0000*7
1220287585.741060, $GPGST,151953.20,0.000,0.054,0.015,307.2,0.044,0.035,0.040*5
1220287585.931000, $GPGGA,151953.40,4530.36729885,N,00909.96901706,E,4,4,4.7,129.001,M,48.022,M,1.4,0000*7
1220287585.940978, $GPGST,151953.40,0.000,0.054,0.015,307.2,0.044,0.035,0.040*5
1220287586.130946, $GPGGA,151953.60,4530.36727190,N,00909.96902538,E,4,4,4.7,129.003,M,48.022,M,0.6,0000*7
1220287586.140939, $GPGST,151953.60,0.000,0.054,0.015,307.2,0.044,0.035,0.040*5
1220287586.331879, $GPGGA,151953.80,4530.36724327,N,00909.96903341,E,4,4,4.7,129.013,M,48.022,M,0.8,0000*7
1220287586.340870, $GPGST,151953.80,0.000,0.054,0.015,307.2,0.044,0.035,0.040*5
1220287586.535218, $GPGGA,151954.00,4530.36721081,N,00909.96904501,E,4,4,4.7,129.017,M,48.022,M,1.0,0000*7
1220287586.544804, $GPGST,151954.00,0.000,0.054,0.015,307.2,0.044,0.035,0.040*5
1220287586.731716, $GPGGA,151954.20,4530.36717610,N,00909.96906220,E,4,4,4.7,128.988,M,48.022,M,1.2,0000*7
1220287586.741733, $GPGST,151954.20,0.000,0.054,0.015,307.2,0.044,0.035,0.040*5
1220287586.932650, $GPGGA,151954.40,4530.36714442,N,00909.96906944,E,4,4,4.7,128.995,M,48.022,M,1.4,0000*7
1220287586.942623, $GPGST,151954.40,0.000,0.054,0.015,307.2,0.044,0.035,0.040*5
1220287587.131578, $GPGGA,151954.60,4530.36710237,N,00909.96907122,E,4,4,4.7,129.008,M,48.022,M,0.6,0000*7
1220287587.141575, $GPGST,151954.60,0.000,0.054,0.015,307.2,0.044,0.035,0.040*5
1220287587.331553, $GPGGA,151954.80,4530.36708461,N,00909.96908236,E,4,4,4.7,129.002,M,48.022,M,0.8,0000*7
1220287587.341514, $GPGST,151954.80,0.000,0.054,0.015,307.2,0.044,0.035,0.040*5
1220287587.534432, $GPGGA,151955.00,4530.36704993,N,00909.96909063,E,4,4,4.7,129.000,M,48.022,M,1.0,0000*7
1220287587.544444, $GPGST,151955.00,0.000,0.054,0.015,307.1,0.044,0.035,0.041*5
1220287587.731359, $GPGGA,151955.20,4530.36702036,N,00909.96910745,E,4,4,4.7,129.003,M,48.022,M,1.2,0000*7
1220287587.741373, $GPGST,151955.20,0.000,0.054,0.015,307.1,0.044,0.035,0.041*5
1220287587.932292, $GPGGA,151955.40,4530.36698514,N,00909.96910964,E,4,4,4.7,129.023,M,48.022,M,1.4,0000*7
1220287587.942299, $GPGST,151955.40,0.000,0.054,0.015,307.1,0.044,0.035,0.041*5
1220287588.132257, $GPGGA,151955.60,4530.36696423,N,00909.96913432,E,4,4,4.7,129.019,M,48.022,M,1.6,0000*7
1220287588.141187, $GPGST,151955.60,0.000,0.054,0.015,307.1,0.044,0.035,0.041*5
1220287588.332147, $GPGGA,151955.80,4530.36692944,N,00909.96914178,E,4,4,4.7,129.031,M,48.022,M,1.8,0000*7
1220287588.341152, $GPGST,151955.80,0.000,0.054,0.015,307.1,0.044,0.035,0.041*5
1220287588.534111, $GPGGA,151956.00,4530.36689883,N,00909.96916382,E,4,4,4.7,129.029,M,48.022,M,2.0,0000*7
1220287588.544090, $GPGST,151956.00,0.000,0.054,0.015,307.1,0.044,0.035,0.041*5
1220287588.732036, $GPGGA,151956.20,4530.36687289,N,00909.96917796,E,4,4,4.7,129.046,M,48.022,M,2.2,0000*7
1220287588.741999, $GPGST,151956.20,0.000,0.054,0.015,307.1,0.044,0.035,0.041*5
1220287588.932969, $GPGGA,151956.40,4530.36685424,N,00909.96921738,E,4,4,4.7,129.015,M,48.022,M,2.4,0000*7
1220287588.941946, $GPGST,151956.40,0.000,0.054,0.015,307.1,0.044,0.035,0.041*5
1220287589.131868, $GPGGA,151956.60,4530.36681749,N,00909.96922265,E,4,4,4.7,129.036,M,48.022,M,0.6,0000*7
1220287589.141868, $GPGST,151956.60,0.000,0.054,0.015,307.1,0.044,0.035,0.041*5
1220287589.332827, $GPGGA,151956.80,4530.36678679,N,00909.96923823,E,4,4,4.7,129.014,M,48.022,M,0.8,0000*7
1220287589.341828, $GPGST,151956.80,0.000,0.054,0.015,307.1,0.044,0.035,0.041*5
1220287589.534754, $GPGGA,151957.00,4530.36675546,N,00909.96926372,E,4,4,4.7,129.026,M,48.022,M,1.0,0000*7
1220287589.544726, $GPGST,151957.00,0.000,0.054,0.015,307.1,0.044,0.035,0.041*5
1220287589.732666, $GPGGA,151957.20,4530.36671343,N,00909.96927819,E,4,4,4.7,129.005,M,48.022,M,1.2,0000*7
1220287589.742654, $GPGST,151957.20,0.000,0.054,0.015,307.1,0.044,0.035,0.041*5
1220287589.932605, $GPGGA,151957.40,4530.36668905,N,00909.96929796,E,4,4,4.7,129.039,M,48.022,M,1.4,0000*7
1220287589.942646, $GPGST,151957.40,0.000,0.054,0.015,307.1,0.044,0.035,0.041*5
1220287590.132530, $GPGGA,151957.60,4530.36666067,N,00909.96933147,E,4,5,2.4,129.018,M,48.022,M,0.6,0000*7
1220287590.142496, $GPGST,151957.60,0.112,0.089,0.025,286.4,0.085,0.035,0.078*5
1220287590.332450, $GPGGA,151957.80,4530.36662767,N,00909.96934508,E,4,5,2.4,129.016,M,48.022,M,0.8,0000*7
1220287590.342438, $GPGST,151957.80,0.065,0.089,0.025,286.4,0.085,0.035,0.078*5
1220287590.535383, $GPGGA,151958.00,4530.36658893,N,00909.96937342,E,4,5,2.4,129.029,M,48.022,M,1.0,0000*7
1220287590.545395, $GPGST,151958.00,0.026,0.091,0.027,285.3,0.088,0.035,0.084*5
1220287590.735319, $GPGGA,151958.20,4530.36654848,N,00909.96938607,E,4,5,2.4,129.012,M,48.022,M,1.2,0000*7
1220287590.745281, $GPGST,151958.20,0.023,0.091,0.027,285.3,0.088,0.035,0.084*5
1220287590.933243, $GPGGA,151958.40,4530.36650791,N,00909.96942124,E,4,5,2.4,129.020,M,48.022,M,1.4,0000*7
1220287590.943210, $GPGST,151958.40,0.066,0.091,0.027,285.3,0.088,0.035,0.084*5
1220287591.134175, $GPGGA,151958.60,4530.36647162,N,00909.96944455,E,4,5,2.4,129.015,M,48.022,M,0.6,0000*7
1220287591.143187, $GPGST,151958.60,0.004,0.091,0.027,285.3,0.088,0.035,0.084*5
1220287591.333103, $GPGGA,151958.80,4530.36643774,N,00909.96945105,E,4,5,2.4,129.015,M,48.022,M,0.8,0000*7
1220287591.343765, $GPGST,151958.80,0.047,0.091,0.027,285.3,0.088,0.035,0.084*5
1220287591.536034, $GPGGA,151959.00,4530.36639402,N,00909.96947938,E,4,5,2.4,129.007,M,48.022,M,1.0,0000*7
1220287591.546031, $GPGST,151959.00,0.011,0.120,0.027,282.4,0.118,0.037,0.107*5
1220287591.733956, $GPGGA,151959.20,4530.36635032,N,00909.96950292,E,4,5,2.4,129.013,M,48.022,M,1.2,0000*7
1220287591.742956, $GPGST,151959.20,0.064,0.120,0.027,282.4,0.118,0.037,0.107*5
1220287591.933878, $GPGGA,151959.40,4530.36632869,N,00909.96952795,E,4,5,2.4,128.994,M,48.022,M,1.4,0000*7
1220287591.943894, $GPGST,151959.40,0.009,0.120,0.027,282.4,0.118,0.037,0.107*5
1220287592.133813, $GPGGA,151959.60,4530.36629521,N,00909.96955057,E,4,4,4.7,129.023,M,48.022,M,0.6,0000*7
1220287592.143821, $GPGST,151959.60,0.000,0.109,0.028,282.0,0.107,0.036,0.106*5
1220287592.331673, $GPGGA,151959.80,4530.36626378,N,00909.96955188,E,4,4,4.7,129.000,M,48.022,M,0.8,0000*7
1220287592.341733, $GPGST,151959.80,0.000,0.109,0.028,282.0,0.107,0.036,0.106*5
1220287592.534667, $GPGGA,152000.00,4530.36623922,N,00909.96957252,E,4,4,4.7,129.019,M,48.022,M,1.0,0000*7
1220287592.544758, $GPGST,152000.00,0.000,0.135,0.029,279.7,0.133,0.037,0.132*5
1220287592.732583, $GPGGA,152000.20,4530.36621471,N,00909.96960824,E,4,4,4.7,129.007,M,48.022,M,1.2,0000*7
1220287592.741564, $GPGST,152000.20,0.000,0.135,0.029,279.7,0.133,0.037,0.132*5
1220287592.932523, $GPGGA,152000.40,4530.36618809,N,00909.96961455,E,4,4,4.7,129.002,M,48.022,M,1.4,0000*7
1220287592.942558, $GPGST,152000.40,0.000,0.135,0.029,279.7,0.133,0.037,0.132*5
1220287593.132448, $GPGGA,152000.60,4530.36617520,N,00909.96964322,E,4,4,4.7,129.022,M,48.022,M,0.6,0000*7
1220287593.142533, $GPGST,152000.60,0.000,0.135,0.029,279.7,0.133,0.037,0.132*5
1220287593.332363, $GPGGA,152000.80,4530.36614014,N,00909.96967573,E,4,4,4.7,129.007,M,48.022,M,0.8,0000*7
1220287593.342382, $GPGST,152000.80,0.000,0.135,0.029,279.7,0.133,0.037,0.132*5
1220287593.535295, $GPGGA,152001.00,4530.36611707,N,00909.96970429,E,4,4,4.7,129.025,M,48.022,M,1.0,0000*7
1220287593.545347, $GPGST,152001.00,0.000,0.167,0.030,278.4,0.165,0.038,0.164*5
1220287593.732220, $GPGGA,152001.20,4530.36608780,N,00909.96973307,E,4,4,4.7,129.018,M,48.022,M,1.2,0000*7
1220287593.742199, $GPGST,152001.20,0.000,0.167,0.030,278.4,0.165,0.038,0.164*5
1220287593.932102, $GPGGA,152001.40,4530.36606662,N,00909.96976053,E,4,4,4.7,129.005,M,48.022,M,1.4,0000*7
1220287593.942160, $GPGST,152001.40,0.000,0.167,0.030,278.4,0.165,0.038,0.164*5
1220287594.132031, $GPGGA,152001.60,4530.36603412,N,00909.96979005,E,4,4,4.7,129.006,M,48.022,M,0.6,0000*7
1220287594.142058, $GPGST,152001.60,0.000,0.167,0.030,278.4,0.165,0.038,0.164*5
1220287594.331960, $GPGGA,152001.80,4530.36600824,N,00909.96980954,E,4,4,4.7,128.997,M,48.022,M,0.8,0000*7
1220287594.341061, $GPGST,152001.80,0.000,0.167,0.030,278.4,0.165,0.038,0.164*5
1220287594.533977, $GPGGA,152002.00,4530.36597230,N,00909.96982783,E,4,4,4.7,129.003,M,48.022,M,1.0,0000*7
1220287594.543941, $GPGST,152002.00,0.000,0.167,0.030,278.4,0.166,0.038,0.165*5
1220287594.731888, $GPGGA,152002.20,4530.36595360,N,00909.96985999,E,4,4,4.7,128.978,M,48.022,M,1.2,0000*7
1220287594.741869, $GPGST,152002.20,0.000,0.167,0.030,278.4,0.166,0.038,0.165*5
1220287594.931750, $GPGGA,152002.40,4530.36591336,N,00909.96987524,E,4,4,4.7,129.047,M,48.022,M,1.4,0000*7
1220287594.941807, $GPGST,152002.40,0.000,0.167,0.030,278.4,0.166,0.038,0.165*5
1220287595.131675, $GPGGA,152002.60,4530.36589173,N,00909.96990460,E,4,4,4.7,128.968,M,48.022,M,0.6,0000*7
1220287595.141728, $GPGST,152002.60,0.000,0.167,0.030,278.4,0.166,0.038,0.165*5
1220287595.331604, $GPGGA,152002.80,4530.36587104,N,00909.96993949,E,4,4,4.7,129.020,M,48.022,M,0.8,0000*7
1220287595.341649, $GPGST,152002.80,0.000,0.167,0.030,278.4,0.166,0.038,0.165*5
1220287595.528540, $GPGGA,152003.00,4530.36578127,N,00909.97005663,E,2,4,4.3,128.739,M,48.022,M,1.0,0000*7
1220287595.538614, $GPGST,152003.00,0.000,1.393,0.394,312.2,1.065,0.981,1.762*5
1220287595.724464, $GPGGA,152003.20,4530.36573923,N,00909.97009545,E,2,4,4.3,128.748,M,48.022,M,1.2,0000*7
1220287595.734503, $GPGST,152003.20,0.000,1.393,0.394,312.2,1.065,0.981,1.762*5
1220287595.925393, $GPGGA,152003.40,4530.36570251,N,00909.97011574,E,2,4,4.3,128.748,M,48.022,M,1.4,0000*7
1220287595.934444, $GPGST,152003.40,0.000,1.393,0.394,312.2,1.065,0.981,1.762*5
1220287596.125322, $GPGGA,152003.60,4530.36566438,N,00909.97013718,E,2,4,4.3,128.749,M,48.022,M,0.6,0000*7
1220287596.134402, $GPGST,152003.60,0.000,1.393,0.394,312.2,1.065,0.981,1.762*5
1220287596.325253, $GPGGA,152003.80,4530.36562991,N,00909.97017175,E,2,4,4.3,128.715,M,48.022,M,0.8,0000*7
1220287596.335320, $GPGST,152003.80,0.000,1.393,0.394,312.2,1.065,0.981,1.762*5
1220287596.529179, $GPGGA,152004.00,4530.36555450,N,00909.97018035,E,2,4,4.3,128.761,M,48.022,M,1.0,0000*7
1220287596.538223, $GPGST,152004.00,0.000,1.393,0.393,312.2,1.065,0.981,1.763*5
1220287596.728107, $GPGGA,152004.20,4530.36551928,N,00909.97019136,E,2,4,4.3,128.775,M,48.022,M,1.2,0000*7
1220287596.738199, $GPGST,152004.20,0.000,1.394,0.394,312.2,1.066,0.981,1.765*5
1220287596.925037, $GPGGA,152004.40,4530.36547806,N,00909.97022684,E,2,4,4.3,128.763,M,48.022,M,1.4,0000*7
1220287596.935100, $GPGST,152004.40,0.000,1.394,0.394,312.2,1.066,0.981,1.765*5
1220287597.124967, $GPGGA,152004.60,4530.36544281,N,00909.97023885,E,2,4,4.3,128.739,M,48.022,M,0.6,0000*7
1220287597.134997, $GPGST,152004.60,0.000,1.394,0.394,312.2,1.066,0.981,1.765*5
1220287597.324895, $GPGGA,152004.80,4530.36539410,N,00909.97026103,E,2,4,4.3,128.787,M,48.022,M,0.8,0000*7
1220287597.334962, $GPGST,152004.80,0.000,1.394,0.394,312.2,1.066,0.981,1.765*5
1220287597.528830, $GPGGA,152005.00,4530.36539309,N,00909.97027887,E,2,4,4.3,128.720,M,48.022,M,1.0,0000*7
1220287597.538902, $GPGST,152005.00,0.000,1.394,0.394,312.2,1.066,0.981,1.765*5
1220287597.725754, $GPGGA,152005.20,4530.36535260,N,00909.97030190,E,2,4,4.3,128.753,M,48.022,M,1.2,0000*7
1220287597.734825, $GPGST,152005.20,0.000,1.394,0.394,312.2,1.066,0.981,1.765*5
1220287597.925686, $GPGGA,152005.40,4530.36531767,N,00909.97032836,E,2,4,4.3,128.719,M,48.022,M,1.4,0000*7
1220287597.935760, $GPGST,152005.40,0.000,1.394,0.394,312.2,1.066,0.981,1.765*5
1220287598.125618, $GPGGA,152005.60,4530.36527814,N,00909.97036281,E,2,4,4.3,128.730,M,48.022,M,0.6,0000*7
1220287598.134758, $GPGST,152005.60,0.000,1.394,0.394,312.2,1.066,0.981,1.765*5
1220287598.325540, $GPGGA,152005.80,4530.36524098,N,00909.97038282,E,2,4,4.3,128.702,M,48.022,M,0.8,0000*7
1220287598.335650, $GPGST,152005.80,0.000,1.394,0.394,312.2,1.066,0.981,1.765*5
1220287598.529474, $GPGGA,152006.00,4530.36520405,N,00909.97042385,E,2,4,4.3,128.695,M,48.022,M,1.0,0000*7
1220287598.538615, $GPGST,152006.00,0.000,1.394,0.393,312.2,1.066,0.981,1.765*5
1220287598.728397, $GPGGA,152006.20,4530.36517671,N,00909.97043577,E,2,4,4.3,128.662,M,48.022,M,1.2,0000*7
1220287598.737575, $GPGST,152006.20,0.000,1.395,0.394,312.2,1.067,0.981,1.767*5
1220287598.925326, $GPGGA,152006.40,4530.36513369,N,00909.97045308,E,2,4,4.3,128.700,M,48.022,M,1.4,0000*7
1220287598.935379, $GPGST,152006.40,0.000,1.395,0.394,312.2,1.067,0.981,1.767*5
1220287599.125255, $GPGGA,152006.60,4530.36511225,N,00909.97048203,E,2,4,4.3,128.635,M,48.022,M,0.6,0000*7
1220287599.135350, $GPGST,152006.60,0.000,1.395,0.394,312.2,1.067,0.981,1.767*5
1220287599.325183, $GPGGA,152006.80,4530.36506871,N,00909.97052052,E,2,4,4.3,128.694,M,48.022,M,0.8,0000*7
1220287599.335208, $GPGST,152006.80,0.000,1.395,0.394,312.2,1.067,0.981,1.767*5
1220287599.529120, $GPGGA,152007.00,4530.36502710,N,00909.97053087,E,2,4,4.3,128.685,M,48.022,M,1.0,0000*7
1220287599.539179, $GPGST,152007.00,0.000,1.395,0.394,312.2,1.067,0.981,1.767*5
1220287599.726041, $GPGGA,152007.20,4530.36498592,N,00909.97057383,E,2,4,4.3,128.664,M,48.022,M,1.2,0000*7
1220287599.735099, $GPGST,152007.20,0.000,1.395,0.394,312.2,1.067,0.981,1.767*5
1220287599.925972, $GPGGA,152007.40,4530.36495684,N,00909.97059758,E,2,4,4.3,128.659,M,48.022,M,1.4,0000*7
1220287599.935018, $GPGST,152007.40,0.000,1.395,0.394,312.2,1.067,0.981,1.767*5
1220287600.125900, $GPGGA,152007.60,4530.36491693,N,00909.97062378,E,2,4,4.3,128.647,M,48.022,M,0.6,0000*7
1220287600.134963, $GPGST,152007.60,0.000,1.395,0.394,312.2,1.067,0.981,1.767*5
1220287600.325833, $GPGGA,152007.80,4530.36487497,N,00909.97066710,E,2,4,4.3,128.631,M,48.022,M,0.8,0000*7
1220287600.335878, $GPGST,152007.80,0.000,1.395,0.394,312.2,1.067,0.981,1.767*5
1220287600.529761, $GPGGA,152008.00,4530.36483256,N,00909.97066533,E,2,4,4.3,128.631,M,48.022,M,1.0,0000*7
1220287600.538803, $GPGST,152008.00,0.000,1.395,0.394,312.2,1.067,0.981,1.767*5
1220287600.728685, $GPGGA,152008.20,4530.36478400,N,00909.97068875,E,2,4,4.3,128.668,M,48.022,M,1.2,0000*7
1220287600.737739, $GPGST,152008.20,0.000,1.396,0.394,312.2,1.068,0.981,1.769*5
1220287600.925614, $GPGGA,152008.40,4530.36475881,N,00909.97070308,E,2,4,4.3,128.621,M,48.022,M,1.4,0000*7
1220287600.935675, $GPGST,152008.40,0.000,1.396,0.394,312.2,1.068,0.981,1.769*5
1220287601.125545, $GPGGA,152008.60,4530.36471864,N,00909.97073781,E,2,4,4.3,128.617,M,48.022,M,0.6,0000*7
1220287601.135584, $GPGST,152008.60,0.000,1.396,0.394,312.2,1.068,0.981,1.769*5
1220287601.325476, $GPGGA,152008.80,4530.36467987,N,00909.97074959,E,2,4,4.3,128.629,M,48.022,M,0.8,0000*7
1220287601.335513, $GPGST,152008.80,0.000,1.396,0.394,312.2,1.068,0.981,1.769*5
1220287601.529406, $GPGGA,152009.00,4530.36464653,N,00909.97079513,E,2,4,4.3,128.645,M,48.022,M,1.0,0000*7
1220287601.539481, $GPGST,152009.00,0.000,1.396,0.394,312.2,1.068,0.981,1.769*5
1220287601.725330, $GPGGA,152009.20,4530.36461449,N,00909.97082499,E,2,4,4.3,128.627,M,48.022,M,1.2,0000*7
1220287601.735370, $GPGST,152009.20,0.000,1.396,0.394,312.2,1.068,0.981,1.769*5
1220287601.926259, $GPGGA,152009.40,4530.36457405,N,00909.97083908,E,2,4,4.3,128.629,M,48.022,M,1.4,0000*7
1220287601.935296, $GPGST,152009.40,0.000,1.396,0.394,312.2,1.068,0.981,1.769*5
1220287602.126191, $GPGGA,152009.60,4530.36452945,N,00909.97085834,E,2,4,4.3,128.639,M,48.022,M,0.6,0000*7
1220287602.135270, $GPGST,152009.60,0.000,1.396,0.394,312.2,1.068,0.981,1.769*5
1220287602.326121, $GPGGA,152009.80,4530.36450161,N,00909.97087834,E,2,4,4.3,128.618,M,48.022,M,0.8,0000*7
1220287602.336193, $GPGST,152009.80,0.000,1.396,0.394,312.2,1.068,0.981,1.769*5
1220287602.530054, $GPGGA,152010.00,4530.36447773,N,00909.97091067,E,2,4,4.3,128.600,M,48.022,M,1.0,0000*7
1220287602.540089, $GPGST,152010.00,0.000,1.397,0.394,312.2,1.068,0.982,1.769*5
1220287602.728973, $GPGGA,152010.20,4530.36444240,N,00909.97092189,E,2,4,4.3,128.581,M,48.022,M,1.2,0000*7
1220287602.739052, $GPGST,152010.20,0.000,1.398,0.394,312.2,1.069,0.983,1.771*5
1220287602.925903, $GPGGA,152010.40,4530.36440303,N,00909.97095389,E,2,4,4.3,128.594,M,48.022,M,1.4,0000*7
1220287602.935947, $GPGST,152010.40,0.000,1.398,0.394,312.2,1.069,0.983,1.771*5
1220287603.125835, $GPGGA,152010.60,4530.36436074,N,00909.97096041,E,2,4,4.3,128.600,M,48.022,M,0.6,0000*7
1220287603.135868, $GPGST,152010.60,0.000,1.398,0.394,312.2,1.069,0.983,1.771*5
1220287603.326760, $GPGGA,152010.80,4530.36431428,N,00909.97098353,E,2,4,4.3,128.595,M,48.022,M,0.8,0000*7
1220287603.335789, $GPGST,152010.80,0.000,1.398,0.394,312.2,1.069,0.983,1.771*5
1220287603.529693, $GPGGA,152011.00,4530.36426208,N,00909.97099609,E,2,4,4.3,128.578,M,48.022,M,1.0,0000*7
1220287603.539730, $GPGST,152011.00,0.000,1.398,0.394,312.1,1.069,0.982,1.771*5
1220287603.726619, $GPGGA,152011.20,4530.36422427,N,00909.97101749,E,2,4,4.3,128.578,M,48.022,M,1.2,0000*7
1220287603.735678, $GPGST,152011.20,0.000,1.398,0.394,312.1,1.069,0.982,1.771*5
1220287603.926548, $GPGGA,152011.40,4530.36419324,N,00909.97103399,E,2,4,4.3,128.571,M,48.022,M,1.4,0000*7
1220287603.936606, $GPGST,152011.40,0.000,1.398,0.394,312.1,1.069,0.982,1.771*5
1220287604.126477, $GPGGA,152011.60,4530.36414325,N,00909.97105063,E,2,4,4.3,128.573,M,48.022,M,0.6,0000*7
1220287604.136545, $GPGST,152011.60,0.000,1.398,0.394,312.1,1.069,0.982,1.771*5
1220287604.326405, $GPGGA,152011.80,4530.36410293,N,00909.97107196,E,2,4,4.3,128.572,M,48.022,M,0.8,0000*7
1220287604.336468, $GPGST,152011.80,0.000,1.398,0.394,312.1,1.069,0.982,1.771*5
1220287604.530338, $GPGGA,152012.00,4530.36407288,N,00909.97110791,E,2,4,4.3,128.550,M,48.022,M,1.0,0000*7
1220287604.540406, $GPGST,152012.00,0.000,1.398,0.394,312.2,1.069,0.982,1.771*5
1220287604.729262, $GPGGA,152012.20,4530.36402996,N,00909.97112984,E,2,4,4.3,128.577,M,48.022,M,1.2,0000*7
1220287604.739439, $GPGST,152012.20,0.000,1.399,0.394,312.1,1.070,0.983,1.773*5
1220287604.926195, $GPGGA,152012.40,4530.36400307,N,00909.97114410,E,2,4,4.3,128.548,M,48.022,M,1.4,0000*7
1220287604.936248, $GPGST,152012.40,0.000,1.399,0.394,312.1,1.070,0.983,1.773*5
1220287605.126121, $GPGGA,152012.60,4530.36396194,N,00909.97117367,E,2,4,4.3,128.531,M,48.022,M,0.6,0000*7
1220287605.136141, $GPGST,152012.60,0.000,1.399,0.394,312.1,1.070,0.983,1.773*5
1220287605.327052, $GPGGA,152012.80,4530.36392626,N,00909.97118375,E,2,4,4.3,128.523,M,48.022,M,0.8,0000*7
1220287605.336105, $GPGST,152012.80,0.000,1.399,0.394,312.1,1.070,0.983,1.773*5
1220287605.530982, $GPGGA,152013.00,4530.36387638,N,00909.97117337,E,2,4,4.3,128.567,M,48.022,M,1.0,0000*7
1220287605.540005, $GPGST,152013.00,0.000,1.398,0.394,312.1,1.070,0.983,1.773*5
1220287605.726910, $GPGGA,152013.20,4530.36384561,N,00909.97119230,E,2,4,4.3,128.534,M,48.022,M,1.2,0000*7
1220287605.737005, $GPGST,152013.20,0.000,1.398,0.394,312.1,1.070,0.983,1.773*5
1220287605.926836, $GPGGA,152013.40,4530.36378317,N,00909.97121561,E,2,4,4.3,128.564,M,48.022,M,1.4,0000*7
1220287605.936881, $GPGST,152013.40,0.000,1.398,0.394,312.1,1.070,0.983,1.773*5
1220287606.126766, $GPGGA,152013.60,4530.36376665,N,00909.97123931,E,2,4,4.3,128.498,M,48.022,M,0.6,0000*7
1220287606.136823, $GPGST,152013.60,0.000,1.398,0.394,312.1,1.070,0.983,1.773*5
1220287606.326693, $GPGGA,152013.80,4530.36371644,N,00909.97125732,E,2,4,4.3,128.526,M,48.022,M,0.8,0000*7
1220287606.336712, $GPGST,152013.80,0.000,1.398,0.394,312.1,1.070,0.983,1.773*5
1220287606.530629, $GPGGA,152014.00,4530.36369587,N,00909.97129268,E,2,4,4.3,128.475,M,48.022,M,1.0,0000*7
1220287606.540688, $GPGST,152014.00,0.000,1.398,0.394,312.1,1.070,0.982,1.773*5
1220287606.729555, $GPGGA,152014.20,4530.36364893,N,00909.97130646,E,2,4,4.3,128.517,M,48.022,M,1.2,0000*7
1220287606.739596, $GPGST,152014.20,0.000,1.399,0.394,312.1,1.071,0.982,1.775*5
1220287606.927480, $GPGGA,152014.40,4530.36361163,N,00909.97132369,E,2,4,4.3,128.486,M,48.022,M,1.4,0000*7
1220287606.936519, $GPGST,152014.40,0.000,1.399,0.394,312.1,1.071,0.982,1.775*5
1220287607.127409, $GPGGA,152014.60,4530.36356747,N,00909.97134260,E,2,4,4.3,128.483,M,48.022,M,0.6,0000*7
1220287607.137458, $GPGST,152014.60,0.000,1.399,0.394,312.1,1.071,0.982,1.775*5
1220287607.327340, $GPGGA,152014.80,4530.36353916,N,00909.97136373,E,2,4,4.3,128.473,M,48.022,M,0.8,0000*7
1220287607.337458, $GPGST,152014.80,0.000,1.399,0.394,312.1,1.071,0.982,1.775*5
1220287607.531273, $GPGGA,152015.00,4530.36345146,N,00909.97135519,E,2,4,4.3,128.532,M,48.022,M,1.0,0000*7
1220287607.540389, $GPGST,152015.00,0.000,1.398,0.394,312.1,1.071,0.982,1.775*5
1220287607.727197, $GPGGA,152015.20,4530.36342905,N,00909.97137424,E,2,4,4.3,128.484,M,48.022,M,1.2,0000*7
1220287607.737243, $GPGST,152015.20,0.000,1.398,0.394,312.1,1.071,0.982,1.775*5
1220287607.928125, $GPGGA,152015.40,4530.36337622,N,00909.97138713,E,2,4,4.3,128.503,M,48.022,M,1.4,0000*7
1220287607.937178, $GPGST,152015.40,0.000,1.398,0.394,312.1,1.071,0.982,1.775*5
1220287608.127057, $GPGGA,152015.60,4530.36334213,N,00909.97139134,E,2,4,4.3,128.500,M,48.022,M,0.6,0000*7
1220287608.137094, $GPGST,152015.60,0.000,1.398,0.394,312.1,1.071,0.982,1.775*5
1220287608.326988, $GPGGA,152015.80,4530.36330595,N,00909.97141103,E,2,4,4.3,128.491,M,48.022,M,0.8,0000*7
1220287608.337025, $GPGST,152015.80,0.000,1.398,0.394,312.1,1.071,0.982,1.775*5
1220287608.530924, $GPGGA,152016.00,4530.36327455,N,00909.97147625,E,2,4,4.3,128.464,M,48.022,M,1.0,0000*7
1220287608.540993, $GPGST,152016.00,0.000,1.399,0.394,312.1,1.071,0.983,1.775*5
1220287608.729840, $GPGGA,152016.20,4530.36324495,N,00909.97150987,E,2,4,4.3,128.430,M,48.022,M,1.2,0000*7
1220287608.739914, $GPGST,152016.20,0.000,1.400,0.394,312.1,1.072,0.983,1.778*5
1220287608.927769, $GPGGA,152016.40,4530.36321384,N,00909.97153386,E,2,4,4.3,128.415,M,48.022,M,1.4,0000*7
1220287608.936882, $GPGST,152016.40,0.000,1.400,0.394,312.1,1.072,0.983,1.778*5
1220287609.127697, $GPGGA,152016.60,4530.36317973,N,00909.97155781,E,2,4,4.3,128.402,M,48.022,M,0.6,0000*7
1220287609.137767, $GPGST,152016.60,0.000,1.400,0.394,312.1,1.072,0.983,1.778*5
1220287609.327628, $GPGGA,152016.80,4530.36313610,N,00909.97157920,E,2,4,4.3,128.381,M,48.022,M,0.8,0000*7
1220287609.337699, $GPGST,152016.80,0.000,1.400,0.394,312.1,1.072,0.983,1.778*5
1220287609.532554, $GPGGA,152017.00,4530.36286003,N,00909.97129560,E,2,5,1.4,129.126,M,48.022,M,1.0,0000*7
1220287609.541622, $GPGST,152017.00,0.153,0.062,0.056,358.3,0.056,0.062,0.101*5
1220287609.728484, $GPGGA,152017.20,4530.36282780,N,00909.97131127,E,2,5,1.4,129.110,M,48.022,M,1.2,0000*7
1220287609.737512, $GPGST,152017.20,0.153,0.062,0.056,358.3,0.056,0.062,0.101*5
1220287609.928413, $GPGGA,152017.40,4530.36278436,N,00909.97132958,E,2,5,1.4,129.116,M,48.022,M,1.4,0000*7
1220287609.937511, $GPGST,152017.40,0.153,0.062,0.056,358.3,0.056,0.062,0.101*5
1220287610.128342, $GPGGA,152017.60,4530.36274348,N,00909.97134442,E,2,5,1.4,129.106,M,48.022,M,0.6,0000*7
1220287610.138411, $GPGST,152017.60,0.153,0.062,0.056,358.3,0.056,0.062,0.101*5
1220287610.328277, $GPGGA,152017.80,4530.36270860,N,00909.97136862,E,2,5,1.4,129.099,M,48.022,M,0.8,0000*7
1220287610.338770, $GPGST,152017.80,0.153,0.062,0.056,358.3,0.056,0.062,0.101*5
1220287610.532198, $GPGGA,152018.00,4530.36267773,N,00909.97141346,E,2,5,1.4,129.057,M,48.022,M,1.0,0000*7
1220287610.542301, $GPGST,152018.00,0.132,0.062,0.055,6.9,0.055,0.062,0.099*5
1220287610.731127, $GPGGA,152018.20,4530.36262661,N,00909.97141986,E,2,5,1.4,129.071,M,48.022,M,1.2,0000*7
1220287610.742194, $GPGST,152018.20,0.134,0.062,0.055,6.8,0.055,0.062,0.099*5
1220287610.928058, $GPGGA,152018.40,4530.36258873,N,00909.97144594,E,2,5,1.4,129.036,M,48.022,M,1.4,0000*7
1220287610.938152, $GPGST,152018.40,0.134,0.062,0.055,6.8,0.055,0.062,0.099*5
1220287611.127991, $GPGGA,152018.60,4530.36254099,N,00909.97147221,E,2,5,1.4,129.055,M,48.022,M,0.6,0000*7
1220287611.139042, $GPGST,152018.60,0.134,0.062,0.055,6.8,0.055,0.062,0.099*5
1220287611.328916, $GPGGA,152018.80,4530.36250065,N,00909.97146577,E,2,5,1.4,129.039,M,48.022,M,0.8,0000*7
1220287611.338981, $GPGST,152018.80,0.134,0.062,0.055,6.8,0.055,0.062,0.099*5
1220287611.532842, $GPGGA,152019.00,4530.36246232,N,00909.97150268,E,2,5,1.4,129.071,M,48.022,M,1.0,0000*7
1220287611.542904, $GPGST,152019.00,0.143,0.061,0.054,12.4,0.054,0.061,0.098*6
1220287611.728773, $GPGGA,152019.20,4530.36242147,N,00909.97150821,E,2,5,1.4,129.072,M,48.022,M,1.2,0000*7
1220287611.738825, $GPGST,152019.20,0.143,0.061,0.054,12.4,0.054,0.061,0.098*6
1220287611.928702, $GPGGA,152019.40,4530.36237014,N,00909.97152954,E,2,5,1.4,129.062,M,48.022,M,1.4,0000*7
1220287611.938770, $GPGST,152019.40,0.143,0.061,0.054,12.4,0.054,0.061,0.098*6
1220287612.128632, $GPGGA,152019.60,4530.36231251,N,00909.97151015,E,2,5,1.4,129.075,M,48.022,M,0.6,0000*7
1220287612.138692, $GPGST,152019.60,0.143,0.061,0.054,12.4,0.054,0.061,0.098*6
1220287612.329558, $GPGGA,152019.80,4530.36226407,N,00909.97155139,E,2,5,1.4,129.063,M,48.022,M,0.8,0000*7
1220287612.339646, $GPGST,152019.80,0.143,0.061,0.054,12.4,0.054,0.061,0.098*6
1220287612.532494, $GPGGA,152020.00,4530.36222781,N,00909.97153163,E,2,5,1.4,129.000,M,48.022,M,1.0,0000*7
1220287612.542582, $GPGST,152020.00,0.127,0.061,0.053,16.0,0.053,0.061,0.097*6
1220287612.732430, $GPGGA,152020.20,4530.36217427,N,00909.97155771,E,2,5,1.4,129.022,M,48.022,M,1.2,0000*7
1220287612.741505, $GPGST,152020.20,0.126,0.061,0.053,15.9,0.053,0.061,0.097*6
1220287612.929350, $GPGGA,152020.40,4530.36212706,N,00909.97154484,E,2,5,1.4,129.004,M,48.022,M,1.4,0000*7
1220287612.938394, $GPGST,152020.40,0.126,0.061,0.053,15.9,0.053,0.061,0.097*6
1220287613.129277, $GPGGA,152020.60,4530.36207306,N,00909.97155503,E,2,5,1.4,129.002,M,48.022,M,0.6,0000*7
1220287613.138362, $GPGST,152020.60,0.126,0.061,0.053,15.9,0.053,0.061,0.097*6
1220287613.329207, $GPGGA,152020.80,4530.36203420,N,00909.97154484,E,2,5,1.4,128.986,M,48.022,M,0.8,0000*7
1220287613.338288, $GPGST,152020.80,0.126,0.061,0.053,15.9,0.053,0.061,0.097*6
1220287613.533133, $GPGGA,152021.00,4530.36196552,N,00909.97154753,E,2,5,1.4,128.999,M,48.022,M,1.0,0000*7
1220287613.543221, $GPGST,152021.00,0.126,0.061,0.052,18.3,0.053,0.060,0.096*6
1220287613.729062, $GPGGA,152021.20,4530.36193227,N,00909.97155389,E,2,5,1.4,128.998,M,48.022,M,1.2,0000*7
1220287613.739103, $GPGST,152021.20,0.126,0.061,0.052,18.3,0.053,0.060,0.096*6
1220287613.928993, $GPGGA,152021.40,4530.36188631,N,00909.97156196,E,2,5,1.4,128.981,M,48.022,M,1.4,0000*7
1220287613.939078, $GPGST,152021.40,0.126,0.061,0.052,18.3,0.053,0.060,0.096*6
1220287614.128919, $GPGGA,152021.60,4530.36182982,N,00909.97156486,E,2,5,1.4,129.000,M,48.022,M,0.6,0000*7
1220287614.138964, $GPGST,152021.60,0.126,0.061,0.052,18.3,0.053,0.060,0.096*6
1220287614.328848, $GPGGA,152021.80,4530.36178204,N,00909.97158085,E,2,5,1.4,128.976,M,48.022,M,0.8,0000*7
1220287614.338887, $GPGST,152021.80,0.126,0.061,0.052,18.3,0.053,0.060,0.096*6
1220287614.532783, $GPGGA,152022.00,4530.36175206,N,00909.97158688,E,2,5,1.4,128.975,M,48.022,M,1.0,0000*7
1220287614.542823, $GPGST,152022.00,0.116,0.061,0.053,15.5,0.054,0.061,0.097*6
1220287614.732716, $GPGGA,152022.20,4530.36171287,N,00909.97159135,E,2,5,1.4,128.973,M,48.022,M,1.2,0000*7
1220287614.741782, $GPGST,152022.20,0.114,0.061,0.053,15.5,0.054,0.061,0.097*6
1220287614.929639, $GPGGA,152022.40,4530.36164977,N,00909.97159756,E,2,5,1.4,128.960,M,48.022,M,1.4,0000*7
1220287614.938714, $GPGST,152022.40,0.114,0.061,0.053,15.5,0.054,0.061,0.097*6
1220287615.129565, $GPGGA,152022.60,4530.36161684,N,00909.97157249,E,2,5,1.4,128.966,M,48.022,M,0.6,0000*7
1220287615.139643, $GPGST,152022.60,0.114,0.061,0.053,15.5,0.054,0.061,0.097*6
1220287615.329492, $GPGGA,152022.80,4530.36158534,N,00909.97158496,E,2,5,1.4,128.974,M,48.022,M,0.8,0000*7
1220287615.339560, $GPGST,152022.80,0.114,0.061,0.053,15.5,0.054,0.061,0.097*6
1220287615.533421, $GPGGA,152023.00,4530.36154848,N,00909.97160117,E,2,5,1.4,128.947,M,48.022,M,1.0,0000*7
1220287615.544529, $GPGST,152023.00,0.097,0.061,0.051,21.2,0.052,0.060,0.095*6
1220287615.729354, $GPGGA,152023.20,4530.36151048,N,00909.97158862,E,2,5,1.4,128.935,M,48.022,M,1.2,0000*7
1220287615.739425, $GPGST,152023.20,0.097,0.061,0.051,21.2,0.052,0.060,0.095*6
1220287615.929280, $GPGGA,152023.40,4530.36146156,N,00909.97160976,E,2,5,1.4,128.941,M,48.022,M,1.4,0000*7
1220287615.939342, $GPGST,152023.40,0.097,0.061,0.051,21.2,0.052,0.060,0.095*6
1220287616.129216, $GPGGA,152023.60,4530.36142785,N,00909.97159694,E,2,5,1.4,128.936,M,48.022,M,0.6,0000*7
1220287616.139239, $GPGST,152023.60,0.097,0.061,0.051,21.2,0.052,0.060,0.095*6
1220287616.331139, $GPGGA,152023.80,4530.36138730,N,00909.97159002,E,2,5,1.4,128.929,M,48.022,M,0.8,0000*7
1220287616.340533, $GPGST,152023.80,0.097,0.061,0.051,21.2,0.052,0.060,0.095*6
1220287616.534072, $GPGGA,152024.00,4530.36134885,N,00909.97162803,E,2,5,1.4,128.947,M,48.022,M,1.0,0000*7
1220287616.543152, $GPGST,152024.00,0.104,0.061,0.050,22.1,0.052,0.059,0.094*6
1220287616.733001, $GPGGA,152024.20,4530.36126040,N,00909.97162447,E,2,4,2.5,128.865,M,48.022,M,1.2,0000*7
1220287616.742114, $GPGST,152024.20,0.000,0.851,0.330,270.5,0.851,0.330,0.595*5
1220287616.929925, $GPGGA,152024.40,4530.36120572,N,00909.97161895,E,2,4,2.5,128.865,M,48.022,M,1.4,0000*7
1220287616.939998, $GPGST,152024.40,0.000,0.851,0.330,270.5,0.851,0.330,0.595*5
1220287617.129854, $GPGGA,152024.60,4530.36113793,N,00909.97157719,E,2,4,2.5,128.863,M,48.022,M,0.6,0000*7
1220287617.139916, $GPGST,152024.60,0.000,0.851,0.330,270.5,0.851,0.330,0.595*5
1220287617.329784, $GPGGA,152024.80,4530.36110362,N,00909.97159347,E,2,4,2.5,128.864,M,48.022,M,0.8,0000*7
1220287617.340248, $GPGST,152024.80,0.000,0.851,0.330,270.5,0.851,0.330,0.595*5
1220287617.533711, $GPGGA,152025.00,4530.36110559,N,00909.97157867,E,2,4,2.5,128.903,M,48.022,M,1.0,0000*7
1220287617.543781, $GPGST,152025.00,0.000,0.848,0.329,270.3,0.848,0.329,0.596*5
1220287617.729644, $GPGGA,152025.20,4530.36105956,N,00909.97154936,E,2,4,2.5,128.903,M,48.022,M,1.2,0000*7
1220287617.739675, $GPGST,152025.20,0.000,0.848,0.329,270.3,0.848,0.329,0.596*5
1220287617.929572, $GPGGA,152025.40,4530.36099194,N,00909.97152764,E,2,4,2.5,128.903,M,48.022,M,1.4,0000*7
1220287617.939610, $GPGST,152025.40,0.000,0.848,0.329,270.3,0.848,0.329,0.596*5
1220287618.129499, $GPGGA,152025.60,4530.36096805,N,00909.97150297,E,2,4,2.5,128.902,M,48.022,M,0.6,0000*7
1220287618.139533, $GPGST,152025.60,0.000,0.848,0.329,270.3,0.848,0.329,0.596*5
1220287618.330432, $GPGGA,152025.80,4530.36091312,N,00909.97147334,E,2,4,2.5,128.902,M,48.022,M,0.8,0000*7
1220287618.340082, $GPGST,152025.80,0.000,0.848,0.329,270.3,0.848,0.329,0.596*5
1220287618.533364, $GPGGA,152026.00,4530.36087462,N,00909.97145726,E,2,4,2.5,128.903,M,48.022,M,1.0,0000*7
1220287618.543424, $GPGST,152026.00,0.000,0.846,0.328,270.1,0.846,0.328,0.596*5
1220287618.733289, $GPGGA,152026.20,4530.36080940,N,00909.97141872,E,2,4,2.5,128.902,M,48.022,M,1.2,0000*7
1220287618.743356, $GPGST,152026.20,0.000,0.846,0.328,270.1,0.846,0.328,0.596*5
1220287618.930214, $GPGGA,152026.40,4530.36076410,N,00909.97137619,E,2,4,2.5,128.902,M,48.022,M,1.4,0000*7
1220287618.940271, $GPGST,152026.40,0.000,0.846,0.328,270.1,0.846,0.328,0.596*5
1220287619.130142, $GPGGA,152026.60,4530.36074150,N,00909.97133876,E,2,4,2.5,128.902,M,48.022,M,0.6,0000*7
1220287619.140249, $GPGST,152026.60,0.000,0.846,0.328,270.1,0.846,0.328,0.596*5
1220287619.330071, $GPGGA,152026.80,4530.36069822,N,00909.97129800,E,2,4,2.5,128.902,M,48.022,M,0.8,0000*7
1220287619.340138, $GPGST,152026.80,0.000,0.846,0.328,270.1,0.846,0.328,0.596*5
1220287619.533998, $GPGGA,152027.00,4530.36065400,N,00909.97125379,E,2,4,2.5,128.904,M,48.022,M,1.0,0000*7
1220287619.544053, $GPGST,152027.00,0.000,0.845,0.328,90.0,0.845,0.328,0.597*6
1220287619.729929, $GPGGA,152027.20,4530.36062589,N,00909.97121671,E,2,4,2.5,128.904,M,48.022,M,1.2,0000*7
1220287619.739990, $GPGST,152027.20,0.000,0.845,0.328,90.0,0.845,0.328,0.597*6
1220287619.930857, $GPGGA,152027.40,4530.36059193,N,00909.97118267,E,2,4,2.5,128.904,M,48.022,M,1.4,0000*7
1220287619.939910, $GPGST,152027.40,0.000,0.845,0.328,90.0,0.845,0.328,0.597*6
1220287620.130788, $GPGGA,152027.60,4530.36056685,N,00909.97113344,E,2,4,2.5,128.904,M,48.022,M,0.6,0000*7
1220287620.139840, $GPGST,152027.60,0.000,0.845,0.328,90.0,0.845,0.328,0.597*6
1220287620.330715, $GPGGA,152027.80,4530.36051858,N,00909.97109231,E,2,4,2.5,128.904,M,48.022,M,0.8,0000*7
1220287620.339814, $GPGST,152027.80,0.000,0.845,0.328,90.0,0.845,0.328,0.597*6
1220287620.534643, $GPGGA,152028.00,4530.36054030,N,00909.97105468,E,2,4,2.5,128.904,M,48.022,M,1.0,0000*7
1220287620.544703, $GPGST,152028.00,0.000,0.838,0.324,89.4,0.838,0.325,0.599*6
1220287620.733577, $GPGGA,152028.20,4530.36050999,N,00909.97100619,E,2,4,2.5,128.904,M,48.022,M,1.2,0000*7
1220287620.743635, $GPGST,152028.20,0.000,0.838,0.325,89.4,0.838,0.325,0.599*6
1220287620.930502, $GPGGA,152028.40,4530.36047195,N,00909.97096087,E,2,4,2.5,128.903,M,48.022,M,1.4,0000*7
1220287620.940550, $GPGST,152028.40,0.000,0.838,0.325,89.4,0.838,0.325,0.599*6
1220287621.130431, $GPGGA,152028.60,4530.36045037,N,00909.97089976,E,2,4,2.5,128.904,M,48.022,M,0.6,0000*7
1220287621.140489, $GPGST,152028.60,0.000,0.838,0.325,89.4,0.838,0.325,0.599*6
1220287621.331359, $GPGGA,152028.80,4530.36040596,N,00909.97084574,E,2,4,2.5,128.904,M,48.022,M,0.8,0000*7
1220287621.340401, $GPGST,152028.80,0.000,0.838,0.325,89.4,0.838,0.325,0.599*6
1220287621.534294, $GPGGA,152029.00,4530.36039740,N,00909.97077586,E,2,4,2.5,128.904,M,48.022,M,1.0,0000*7
1220287621.544372, $GPGST,152029.00,0.000,0.842,0.326,89.7,0.842,0.326,0.598*6
1220287621.730217, $GPGGA,152029.20,4530.36037297,N,00909.97071402,E,2,4,2.5,128.904,M,48.022,M,1.2,0000*7
1220287621.740293, $GPGST,152029.20,0.000,0.842,0.326,89.7,0.842,0.326,0.598*6
1220287621.931148, $GPGGA,152029.40,4530.36035063,N,00909.97066394,E,2,4,2.5,128.905,M,48.022,M,1.4,0000*7
1220287621.940188, $GPGST,152029.40,0.000,0.842,0.326,89.7,0.842,0.326,0.598*6
1220287622.131074, $GPGGA,152029.60,4530.36032802,N,00909.97060231,E,2,4,2.5,128.905,M,48.022,M,0.6,0000*7
1220287622.141137, $GPGST,152029.60,0.000,0.842,0.326,89.7,0.842,0.326,0.598*6
1220287622.331003, $GPGGA,152029.80,4530.36030510,N,00909.97055005,E,2,4,2.5,128.904,M,48.022,M,0.8,0000*7
1220287622.341056, $GPGST,152029.80,0.000,0.842,0.326,89.7,0.842,0.326,0.598*6
1220287622.534958, $GPGGA,152030.00,4530.36028218,N,00909.97050217,E,2,4,2.5,128.906,M,48.022,M,1.0,0000*7
1220287622.545004, $GPGST,152030.00,0.000,0.841,0.326,89.6,0.841,0.326,0.598*6
1220287622.733871, $GPGGA,152030.20,4530.36025729,N,00909.97043947,E,2,4,2.5,128.905,M,48.022,M,1.2,0000*7
1220287622.743911, $GPGST,152030.20,0.000,0.841,0.326,89.6,0.841,0.326,0.598*6
1220287622.930794, $GPGGA,152030.40,4530.36023068,N,00909.97037832,E,2,4,2.5,128.905,M,48.022,M,1.4,0000*7
1220287622.940847, $GPGST,152030.40,0.000,0.841,0.326,89.6,0.841,0.326,0.598*6
1220287623.131721, $GPGGA,152030.60,4530.36021152,N,00909.97032585,E,2,4,2.5,128.905,M,48.022,M,1.6,0000*7
1220287623.141775, $GPGST,152030.60,0.000,0.841,0.326,89.6,0.841,0.326,0.598*6
1220287623.330651, $GPGGA,152030.80,4530.36017006,N,00909.97027612,E,2,4,2.5,128.905,M,48.022,M,0.8,0000*7
1220287623.340736, $GPGST,152030.80,0.000,0.841,0.326,89.6,0.841,0.326,0.598*6
1220287623.534583, $GPGGA,152031.00,4530.36016745,N,00909.97022584,E,2,4,2.5,128.906,M,48.022,M,1.0,0000*7
1220287623.544620, $GPGST,152031.00,0.000,0.835,0.324,89.1,0.835,0.324,0.600*6
1220287623.730507, $GPGGA,152031.20,4530.36012642,N,00909.97017522,E,2,4,2.5,128.906,M,48.022,M,1.2,0000*7
1220287623.740564, $GPGST,152031.20,0.000,0.835,0.324,89.1,0.835,0.324,0.600*6
1220287623.931434, $GPGGA,152031.40,4530.36009904,N,00909.97011213,E,2,4,2.5,128.905,M,48.022,M,1.4,0000*7
1220287623.941519, $GPGST,152031.40,0.000,0.835,0.324,89.1,0.835,0.324,0.600*6
1220287624.131361, $GPGGA,152031.60,4530.36006409,N,00909.97005747,E,2,4,2.5,128.905,M,48.022,M,0.6,0000*7
1220287624.141447, $GPGST,152031.60,0.000,0.835,0.324,89.1,0.835,0.324,0.600*6
1220287624.331292, $GPGGA,152031.80,4530.36004776,N,00909.96999596,E,2,4,2.5,128.905,M,48.022,M,0.8,0000*7
1220287624.341337, $GPGST,152031.80,0.000,0.835,0.324,89.1,0.835,0.324,0.600*6
1220287624.535220, $GPGGA,152032.00,4530.36004718,N,00909.96993866,E,2,4,2.5,128.905,M,48.022,M,1.0,0000*7
1220287624.545275, $GPGST,152032.00,0.000,0.839,0.325,89.4,0.838,0.325,0.599*6
1220287624.734155, $GPGGA,152032.20,4530.36000938,N,00909.96989531,E,2,4,2.5,128.906,M,48.022,M,1.2,0000*7
1220287624.744228, $GPGST,152032.20,0.000,0.839,0.325,89.4,0.839,0.325,0.599*6
1220287624.931078, $GPGGA,152032.40,4530.35998403,N,00909.96983072,E,2,4,2.5,128.905,M,48.022,M,1.4,0000*7
1220287624.941116, $GPGST,152032.40,0.000,0.839,0.325,89.4,0.839,0.325,0.599*6
1220287625.131006, $GPGGA,152032.60,4530.35995754,N,00909.96977475,E,2,4,2.5,128.905,M,48.022,M,0.6,0000*7
1220287625.141080, $GPGST,152032.60,0.000,0.839,0.325,89.4,0.839,0.325,0.599*6
1220287625.331936, $GPGGA,152032.80,4530.35992130,N,00909.96972314,E,2,4,2.5,128.904,M,48.022,M,0.8,0000*7
1220287625.340978, $GPGST,152032.80,0.000,0.839,0.325,89.4,0.839,0.325,0.599*6
1220287625.535866, $GPGGA,152033.00,4530.35990688,N,00909.96968020,E,2,4,2.5,128.906,M,48.022,M,1.0,0000*7
1220287625.544939, $GPGST,152033.00,0.000,0.838,0.325,89.3,0.838,0.325,0.600*6
1220287625.731793, $GPGGA,152033.20,4530.35987228,N,00909.96961430,E,2,4,2.5,128.905,M,48.022,M,1.2,0000*7
1220287625.741873, $GPGST,152033.20,0.000,0.838,0.325,89.3,0.838,0.325,0.600*6
1220287625.931722, $GPGGA,152033.40,4530.35983655,N,00909.96955819,E,2,4,2.5,128.905,M,48.022,M,1.4,0000*7
1220287625.941794, $GPGST,152033.40,0.000,0.838,0.325,89.3,0.838,0.325,0.600*6
1220287626.131650, $GPGGA,152033.60,4530.35979683,N,00909.96949035,E,2,4,2.5,128.904,M,48.022,M,0.6,0000*7
1220287626.141715, $GPGST,152033.60,0.000,0.838,0.325,89.3,0.838,0.325,0.600*6
1220287626.331608, $GPGGA,152033.80,4530.35977066,N,00909.96943875,E,2,4,2.5,128.904,M,48.022,M,0.8,0000*7
1220287626.341654, $GPGST,152033.80,0.000,0.838,0.325,89.3,0.838,0.325,0.600*6
1220287626.535512, $GPGGA,152034.00,4530.35974945,N,00909.96940460,E,2,4,2.5,128.905,M,48.022,M,1.0,0000*7
1220287626.545577, $GPGST,152034.00,0.000,0.837,0.324,89.2,0.837,0.325,0.600*6
1220287626.735442, $GPGGA,152034.20,4530.35971814,N,00909.96934980,E,2,4,2.5,128.906,M,48.022,M,1.2,0000*7
1220287626.744506, $GPGST,152034.20,0.000,0.837,0.324,89.2,0.837,0.325,0.600*6
1220287626.932366, $GPGGA,152034.40,4530.35969355,N,00909.96929863,E,2,4,2.5,128.905,M,48.022,M,1.4,0000*7
1220287626.941394, $GPGST,152034.40,0.000,0.837,0.324,89.2,0.837,0.325,0.600*6
1220287627.132294, $GPGGA,152034.60,4530.35966709,N,00909.96924908,E,2,4,2.5,128.906,M,48.022,M,0.6,0000*7
1220287627.141359, $GPGST,152034.60,0.000,0.837,0.324,89.2,0.837,0.325,0.600*6
1220287627.332231, $GPGGA,152034.80,4530.35963868,N,00909.96918485,E,2,4,2.5,128.905,M,48.022,M,0.8,0000*7
1220287627.342294, $GPGST,152034.80,0.000,0.837,0.324,89.2,0.837,0.325,0.600*6
1220287627.536156, $GPGGA,152035.00,4530.35963812,N,00909.96912577,E,2,4,2.5,128.906,M,48.022,M,1.0,0000*7
1220287627.546213, $GPGST,152035.00,0.000,0.836,0.324,89.1,0.836,0.324,0.600*6
1220287627.732083, $GPGGA,152035.20,4530.35959715,N,00909.96907405,E,2,4,2.5,128.906,M,48.022,M,1.2,0000*7
1220287627.742177, $GPGST,152035.20,0.000,0.836,0.324,89.1,0.836,0.324,0.600*6
1220287627.932014, $GPGGA,152035.40,4530.35957473,N,00909.96901693,E,2,4,2.5,128.906,M,48.022,M,1.4,0000*7
1220287627.942103, $GPGST,152035.40,0.000,0.836,0.324,89.1,0.836,0.324,0.600*6
1220287628.131939, $GPGGA,152035.60,4530.35954281,N,00909.96896358,E,2,4,2.5,128.905,M,48.022,M,0.6,0000*7
1220287628.141991, $GPGST,152035.60,0.000,0.836,0.324,89.1,0.836,0.324,0.600*6
1220287628.331869, $GPGGA,152035.80,4530.35951912,N,00909.96892493,E,2,4,2.5,128.906,M,48.022,M,0.8,0000*7
1220287628.342309, $GPGST,152035.80,0.000,0.836,0.324,89.1,0.836,0.324,0.600*6
1220287628.536798, $GPGGA,152036.00,4530.35950388,N,00909.96888919,E,2,4,2.5,128.907,M,48.022,M,1.0,0000*7
1220287628.545848, $GPGST,152036.00,0.000,0.836,0.324,89.1,0.835,0.324,0.600*6
1220287628.735734, $GPGGA,152036.20,4530.35947311,N,00909.96885119,E,2,4,2.5,128.906,M,48.022,M,1.2,0000*7
1220287628.745795, $GPGST,152036.20,0.000,0.836,0.324,89.1,0.836,0.324,0.600*6
1220287628.932659, $GPGGA,152036.40,4530.35944107,N,00909.96880890,E,2,4,2.5,128.906,M,48.022,M,1.4,0000*7
1220287628.942761, $GPGST,152036.40,0.000,0.836,0.324,89.1,0.836,0.324,0.600*6
1220287629.132585, $GPGGA,152036.60,4530.35940717,N,00909.96877272,E,2,4,2.5,128.906,M,48.022,M,0.6,0000*7
1220287629.142675, $GPGST,152036.60,0.000,0.836,0.324,89.1,0.836,0.324,0.600*6
1220287629.332514, $GPGGA,152036.80,4530.35936614,N,00909.96873189,E,2,4,2.5,128.906,M,48.022,M,0.8,0000*7
1220287629.342563, $GPGST,152036.80,0.000,0.836,0.324,89.1,0.836,0.324,0.600*6
1220287629.536442, $GPGGA,152037.00,4530.35934565,N,00909.96870184,E,2,4,2.5,128.906,M,48.022,M,1.0,0000*7
1220287629.546507, $GPGST,152037.00,0.000,0.835,0.323,89.0,0.835,0.324,0.601*6
1220287629.732372, $GPGGA,152037.20,4530.35930951,N,00909.96866490,E,2,4,2.5,128.906,M,48.022,M,1.2,0000*7
1220287629.742452, $GPGST,152037.20,0.000,0.835,0.323,89.0,0.835,0.324,0.601*6
1220287629.932301, $GPGGA,152037.40,4530.35926406,N,00909.96862974,E,2,4,2.5,128.905,M,48.022,M,1.4,0000*7
1220287629.942344, $GPGST,152037.40,0.000,0.835,0.323,89.0,0.835,0.324,0.601*6
1220287630.132236, $GPGGA,152037.60,4530.35922166,N,00909.96859830,E,2,4,2.5,128.905,M,48.022,M,0.6,0000*7
1220287630.142862, $GPGST,152037.60,0.000,0.835,0.323,89.0,0.835,0.324,0.601*6
1220287630.333157, $GPGGA,152037.80,4530.35917710,N,00909.96857610,E,2,4,2.5,128.904,M,48.022,M,0.8,0000*7
1220287630.342235, $GPGST,152037.80,0.000,0.835,0.323,89.0,0.835,0.324,0.601*6
1220287630.537086, $GPGGA,152038.00,4530.35915071,N,00909.96856077,E,2,4,2.5,128.907,M,48.022,M,1.0,0000*7
1220287630.546130, $GPGST,152038.00,0.000,0.831,0.322,88.6,0.831,0.322,0.602*6
1220287630.736021, $GPGGA,152038.20,4530.35909928,N,00909.96853573,E,2,4,2.5,128.907,M,48.022,M,1.2,0000*7
1220287630.746106, $GPGST,152038.20,0.000,0.831,0.322,88.6,0.831,0.322,0.602*6
1220287630.932946, $GPGGA,152038.40,4530.35904922,N,00909.96851704,E,2,4,2.5,128.906,M,48.022,M,1.4,0000*7
1220287630.942027, $GPGST,152038.40,0.000,0.831,0.322,88.6,0.831,0.322,0.602*6
1220287631.132874, $GPGGA,152038.60,4530.35899668,N,00909.96849160,E,2,4,2.5,128.906,M,48.022,M,0.6,0000*7
1220287631.142948, $GPGST,152038.60,0.000,0.831,0.322,88.6,0.831,0.322,0.602*6
1220287631.332803, $GPGGA,152038.80,4530.35896639,N,00909.96847604,E,2,4,2.5,128.906,M,48.022,M,0.8,0000*7
1220287631.342868, $GPGST,152038.80,0.000,0.831,0.322,88.6,0.831,0.322,0.602*6
1220287631.536733, $GPGGA,152039.00,4530.35890898,N,00909.96844627,E,2,4,2.5,128.906,M,48.022,M,1.0,0000*7
1220287631.546808, $GPGST,152039.00,0.000,0.834,0.323,88.9,0.834,0.323,0.601*6
1220287631.732662, $GPGGA,152039.20,4530.35886116,N,00909.96842748,E,2,4,2.5,128.906,M,48.022,M,1.2,0000*7
1220287631.742701, $GPGST,152039.20,0.000,0.834,0.323,88.9,0.834,0.323,0.601*6
1220287631.932593, $GPGGA,152039.40,4530.35882346,N,00909.96840864,E,2,4,2.5,128.905,M,48.022,M,1.4,0000*7
1220287631.942627, $GPGST,152039.40,0.000,0.834,0.323,88.9,0.834,0.323,0.601*6
1220287632.133519, $GPGGA,152039.60,4530.35878832,N,00909.96839048,E,2,4,2.5,128.905,M,48.022,M,0.6,0000*7
1220287632.142584, $GPGST,152039.60,0.000,0.834,0.323,88.9,0.834,0.323,0.601*6
